{"231":{"stopID":"231","stopName":"Refugio Valley and Pheasant Dr","stopLat":38.00783,"stopLon":-122.26949,"zoneID":"","parentStation":""},"233":{"stopID":"233","stopName":"Falcon Way and Sparrow Dr","stopLat":38.0006,"stopLon":-122.26218,"zoneID":"","parentStation":""},"235":{"stopID":"235","stopName":"Refugio Valley and Country Run","stopLat":38.00553,"stopLon":-122.26495,"zoneID":"","parentStation":""},"241":{"stopID":"241","stopName":"Viewpointe Blvd and Coral Dr - Northbound","stopLat":38.01867,"stopLon":-122.2564,"zoneID":"","parentStation":""},"242":{"stopID":"242","stopName":"Coral Dr and Stirling Dr","stopLat":38.02561,"stopLon":-122.24649,"zoneID":"","parentStation":""},"243":{"stopID":"243","stopName":"Viewpointe Blvd and Coral Dr - Southbound","stopLat":38.01912,"stopLon":-122.25615,"zoneID":"","parentStation":""},"245":{"stopID":"245","stopName":"Linus Pauling - Social Services","stopLat":38.02202,"stopLon":-122.27249,"zoneID":"","parentStation":""},"246":{"stopID":"246","stopName":"Linus Pauling and Alfred Nobel","stopLat":38.02243,"stopLon":-122.2769,"zoneID":"","parentStation":""},"248":{"stopID":"248","stopName":"Fitzgerald Dr - Best Buy","stopLat":37.99094,"stopLon":-122.30607,"zoneID":"","parentStation":""},"249":{"stopID":"249","stopName":"Fitzgerald Dr - Starbucks","stopLat":37.99157,"stopLon":-122.30281,"zoneID":"","parentStation":""},"250":{"stopID":"250","stopName":"Canyon Dr and Appian Way - Eastbound","stopLat":37.9954,"stopLon":-122.30137,"zoneID":"","parentStation":""},"251":{"stopID":"251","stopName":"Marionola Way and Marlesta Rd - Northbound","stopLat":38.00175,"stopLon":-122.297,"zoneID":"","parentStation":""},"253":{"stopID":"253","stopName":"Sprouts","stopLat":37.99979,"stopLon":-122.28688,"zoneID":"","parentStation":""},"255":{"stopID":"255","stopName":"Pinole Valley Rd and Ramona St","stopLat":37.99213,"stopLon":-122.28552,"zoneID":"","parentStation":""},"256":{"stopID":"256","stopName":"Simas Ave and Pinole Valley Rd","stopLat":37.9853,"stopLon":-122.27985,"zoneID":"","parentStation":""},"257":{"stopID":"257","stopName":"Doidge Ave and Wright Ave","stopLat":37.98357,"stopLon":-122.25119,"zoneID":"","parentStation":""},"258":{"stopID":"258","stopName":"Pinole Valley Rd and Simas Ave","stopLat":37.9814,"stopLon":-122.26697,"zoneID":"","parentStation":""},"259":{"stopID":"259","stopName":"Pinole Valley Rd - Library","stopLat":37.99193,"stopLon":-122.28524,"zoneID":"","parentStation":""},"260":{"stopID":"260","stopName":"Pinole Valley Rd and Henry Ave - Northbound","stopLat":38.00018,"stopLon":-122.28655,"zoneID":"","parentStation":""},"261":{"stopID":"261","stopName":"San Pablo and Oak Ridge - Southbound","stopLat":38.00457,"stopLon":-122.2924,"zoneID":"","parentStation":""},"262":{"stopID":"262","stopName":"Marionola Way near Marlesta Rd","stopLat":38.00158,"stopLon":-122.29709,"zoneID":"","parentStation":""},"263":{"stopID":"263","stopName":"1236 Marionola Way","stopLat":37.999,"stopLon":-122.29551,"zoneID":"","parentStation":""},"264":{"stopID":"264","stopName":"San Pablo and Oak Ridge Rd","stopLat":38.00458,"stopLon":-122.29197,"zoneID":"","parentStation":""},"265":{"stopID":"265","stopName":"Fitzgerald Dr - Sizzler","stopLat":37.99175,"stopLon":-122.30384,"zoneID":"","parentStation":""},"270":{"stopID":"270","stopName":"Appian Way and Mann Dr","stopLat":37.99746,"stopLon":-122.3011,"zoneID":"","parentStation":""},"272":{"stopID":"272","stopName":"Del Monte Dr and San Pablo Ave","stopLat":38.00325,"stopLon":-122.31649,"zoneID":"","parentStation":""},"273":{"stopID":"273","stopName":"Broadmore Ave and Cypress Ave","stopLat":38.00545,"stopLon":-122.32176,"zoneID":"","parentStation":""},"274":{"stopID":"274","stopName":"Sunnyview Dr and San Pablo Ave","stopLat":38.00433,"stopLon":-122.30521,"zoneID":"","parentStation":""},"275":{"stopID":"275","stopName":"Appian Way - Pinole Middle School","stopLat":37.99656,"stopLon":-122.30191,"zoneID":"","parentStation":""},"293":{"stopID":"293","stopName":"Hilltop Mall - Westbound","stopLat":37.97959,"stopLon":-122.3295,"zoneID":"","parentStation":""},"2100":{"stopID":"2100","stopName":"San Pablo and Hercules - Southbound","stopLat":38.00994,"stopLon":-122.2837,"zoneID":"","parentStation":""},"2101":{"stopID":"2101","stopName":"San Pablo Ave and John St - Southbound","stopLat":38.00739,"stopLon":-122.28817,"zoneID":"","parentStation":""},"2103":{"stopID":"2103","stopName":"San Pablo Ave and Appian Way - Eastbound","stopLat":38.00433,"stopLon":-122.29711,"zoneID":"","parentStation":""},"2104":{"stopID":"2104","stopName":"San Pablo Ave and Sunnyview Dr - Eastbound","stopLat":38.00497,"stopLon":-122.30568,"zoneID":"","parentStation":""},"2105":{"stopID":"2105","stopName":"San Pablo Ave and Del Monte Dr","stopLat":38.00274,"stopLon":-122.31631,"zoneID":"","parentStation":""},"2106":{"stopID":"2106","stopName":"San Pablo Ave and Tara Hills Dr - Southbound","stopLat":37.99946,"stopLon":-122.32313,"zoneID":"","parentStation":""},"2107":{"stopID":"2107","stopName":"San Pablo Ave and Shamrock Dr - Southbound","stopLat":37.99552,"stopLon":-122.32769,"zoneID":"","parentStation":""},"2108":{"stopID":"2108","stopName":"San Pablo Ave and Crestwood Dr - Southbound","stopLat":37.99379,"stopLon":-122.32959,"zoneID":"","parentStation":""},"2110":{"stopID":"2110","stopName":"San Pablo Ave and Crestwood Dr - Northbound","stopLat":37.99369,"stopLon":-122.32932,"zoneID":"","parentStation":""},"2111":{"stopID":"2111","stopName":"San Pablo Ave and Shamrock Dr - Northbound","stopLat":37.99544,"stopLon":-122.32741,"zoneID":"","parentStation":""},"2112":{"stopID":"2112","stopName":"San Pablo Ave and Tara Hills Dr - Northbound","stopLat":37.99944,"stopLon":-122.32272,"zoneID":"","parentStation":""},"2113":{"stopID":"2113","stopName":"San Pablo Ave and Sunnyview Dr - Westbound","stopLat":38.00445,"stopLon":-122.30471,"zoneID":"","parentStation":""},"2116":{"stopID":"2116","stopName":"San Pablo Ave and John St - Northbound","stopLat":38.00727,"stopLon":-122.288,"zoneID":"","parentStation":""},"2119":{"stopID":"2119","stopName":"Parker Ave and 6th St - Northbound","stopLat":38.02982,"stopLon":-122.26618,"zoneID":"","parentStation":""},"2121":{"stopID":"2121","stopName":"Willow Ave and I-80 - Northbound","stopLat":38.02332,"stopLon":-122.26294,"zoneID":"","parentStation":""},"2122":{"stopID":"2122","stopName":"Victoria Crescent and Victoria Park","stopLat":38.02825,"stopLon":-122.27234,"zoneID":"","parentStation":""},"2125":{"stopID":"2125","stopName":"Salesforce Transit Center Bay 31","stopLat":37.78897,"stopLon":-122.39723,"zoneID":"","parentStation":""},"2129":{"stopID":"2129","stopName":"Bio Rad - Northbound","stopLat":38.02303,"stopLon":-122.27646,"zoneID":"","parentStation":""},"2131":{"stopID":"2131","stopName":"El Cerrito Del Norte BART","stopLat":37.92531,"stopLon":-122.31719,"zoneID":"","parentStation":""},"2134":{"stopID":"2134","stopName":"Richmond Parkway and Lakeside Dr - Eastbound","stopLat":37.99008,"stopLon":-122.32895,"zoneID":"","parentStation":""},"2136":{"stopID":"2136","stopName":"San Pablo Ave and Belmont Way","stopLat":38.00252,"stopLon":-122.31623,"zoneID":"","parentStation":""},"2137":{"stopID":"2137","stopName":"Pinole Valley High School","stopLat":37.99305,"stopLon":-122.28563,"zoneID":"","parentStation":""},"2138":{"stopID":"2138","stopName":"San Pablo Ave and Hercules Ave - Northbound","stopLat":38.01033,"stopLon":-122.2823,"zoneID":"","parentStation":""},"2140":{"stopID":"2140","stopName":"Willow Ave and Viewpointe Blvd - Southbound","stopLat":38.01857,"stopLon":-122.2585,"zoneID":"","parentStation":""},"2145":{"stopID":"2145","stopName":"Richmond Parkway and Lakeside Dr - Westbound","stopLat":37.98986,"stopLon":-122.32893,"zoneID":"","parentStation":""},"2158":{"stopID":"2158","stopName":"VA Medical Center","stopLat":37.99414,"stopLon":-122.11445,"zoneID":"","parentStation":""},"2159":{"stopID":"2159","stopName":"Alhambra Ave and C Street - County Hospital","stopLat":38.00497,"stopLon":-122.13095,"zoneID":"","parentStation":""},"2161":{"stopID":"2161","stopName":"Court St and Marina Vista Ave","stopLat":38.01943,"stopLon":-122.13516,"zoneID":"","parentStation":""},"2162":{"stopID":"2162","stopName":"Martinez Amtrak Station","stopLat":38.01898,"stopLon":-122.13947,"zoneID":"","parentStation":""},"2174":{"stopID":"2174","stopName":"Hercules Middle and High School","stopLat":37.99956,"stopLon":-122.25155,"zoneID":"","parentStation":""},"2175":{"stopID":"2175","stopName":"Turquiose Dr and Cinnabar Ave","stopLat":38.00584,"stopLon":-122.27503,"zoneID":"","parentStation":""},"2176":{"stopID":"2176","stopName":"Turquiose Dr and Jade Ct","stopLat":37.99671,"stopLon":-122.2749,"zoneID":"","parentStation":""},"2177":{"stopID":"2177","stopName":"Turquiose Dr and Diamond Ct","stopLat":37.9942,"stopLon":-122.26302,"zoneID":"","parentStation":""},"2178":{"stopID":"2178","stopName":"Pheasant Dr and Tanager Way","stopLat":37.99671,"stopLon":-122.26295,"zoneID":"","parentStation":""},"2181":{"stopID":"2181","stopName":"Refugio Valley Park","stopLat":38.00781,"stopLon":-122.26917,"zoneID":"","parentStation":""},"2196":{"stopID":"2196","stopName":"Mandalay Ave and Bonaire Ave","stopLat":37.99153,"stopLon":-122.23387,"zoneID":"","parentStation":""},"2197":{"stopID":"2197","stopName":"Carson St and Raleigh Ct","stopLat":37.99474,"stopLon":-122.23648,"zoneID":"","parentStation":""},"2198":{"stopID":"2198","stopName":"Coronado St and Carson St","stopLat":37.99951,"stopLon":-122.23898,"zoneID":"","parentStation":""},"2199":{"stopID":"2199","stopName":"Violet Rd and Lupine Rd","stopLat":38.00205,"stopLon":-122.24456,"zoneID":"","parentStation":""},"2201":{"stopID":"2201","stopName":"Sycamore Ave - Creekside Shopping Center","stopLat":38.00949,"stopLon":-122.26869,"zoneID":"","parentStation":""},"2208":{"stopID":"2208","stopName":"Lupine Rd and Woodfield Park","stopLat":38.0063,"stopLon":-122.25171,"zoneID":"","parentStation":""},"2400":{"stopID":"2400","stopName":"Victoria Crescent at Bowspirit Lane","stopLat":38.02646,"stopLon":-122.26869,"zoneID":"","parentStation":""},"2401":{"stopID":"2401","stopName":"Victoria Crescent at Dockside","stopLat":38.02517,"stopLon":-122.27128,"zoneID":"","parentStation":""},"2402":{"stopID":"2402","stopName":"San Pablo Ave at Safeway","stopLat":38.01411,"stopLon":-122.27253,"zoneID":"","parentStation":""},"2403":{"stopID":"2403","stopName":"John Muir Parkway at San Pablo Ave Northbound","stopLat":38.01659,"stopLon":-122.27353,"zoneID":"","parentStation":""},"2404":{"stopID":"2404","stopName":"John Muir Parkway at San Pablo Ave Southbound","stopLat":38.01636,"stopLon":-122.27365,"zoneID":"","parentStation":""},"2602":{"stopID":"2602","stopName":"MacArthur BART","stopLat":37.82955,"stopLon":-122.26759,"zoneID":"","parentStation":""},"2603":{"stopID":"2603","stopName":"20th Street Oakland","stopLat":37.81007,"stopLon":-122.27223,"zoneID":"","parentStation":""},"2989":{"stopID":"2989","stopName":"Waterfront","stopLat":38.02004,"stopLon":-122.2863,"zoneID":"","parentStation":""},"21064":{"stopID":"21064","stopName":"Canyon Dr and Appian Way - Westbound","stopLat":37.9955,"stopLon":-122.30146,"zoneID":"","parentStation":""},"25000":{"stopID":"25000","stopName":"Tennant Ave and Peach St - Southbound","stopLat":38.00292,"stopLon":-122.2891,"zoneID":"","parentStation":""},"25002":{"stopID":"25002","stopName":"Fitzgerald Dr - FedEx","stopLat":37.99114,"stopLon":-122.30622,"zoneID":"","parentStation":""},"25003":{"stopID":"25003","stopName":"Fitzgerald Dr - Applebees","stopLat":37.98817,"stopLon":-122.31137,"zoneID":"","parentStation":""},"25006":{"stopID":"25006","stopName":"Hilltop Dr and Robert Miller Dr","stopLat":37.97909,"stopLon":-122.3322,"zoneID":"","parentStation":""},"25007":{"stopID":"25007","stopName":"Hilltop Dr and Shane Dr","stopLat":37.97816,"stopLon":-122.32994,"zoneID":"","parentStation":""},"25008":{"stopID":"25008","stopName":"Hilltop Dr and Garrity Way","stopLat":37.97855,"stopLon":-122.32591,"zoneID":"","parentStation":""},"25009":{"stopID":"25009","stopName":"Blume Dr and Auto Plaza - Southbound","stopLat":37.98498,"stopLon":-122.31903,"zoneID":"","parentStation":""},"25011":{"stopID":"25011","stopName":"Tennant Ave and Peach St - Northbound","stopLat":38.00294,"stopLon":-122.28893,"zoneID":"","parentStation":""},"25013":{"stopID":"25013","stopName":"2nd St and Parker Ave","stopLat":38.03579,"stopLon":-122.26763,"zoneID":"","parentStation":""},"25015":{"stopID":"25015","stopName":"Tosco Refinery - Northbound","stopLat":38.04636,"stopLon":-122.25763,"zoneID":"","parentStation":""},"25016":{"stopID":"25016","stopName":"San Pablo Ave and Selby Rd","stopLat":38.04852,"stopLon":-122.24799,"zoneID":"","parentStation":""},"25017":{"stopID":"25017","stopName":"San Pablo Ave and Merchant St - Eastbound","stopLat":38.05495,"stopLon":-122.23091,"zoneID":"","parentStation":""},"25018":{"stopID":"25018","stopName":"Loring Ave and Rolph Ave","stopLat":38.05572,"stopLon":-122.22009,"zoneID":"","parentStation":""},"25019":{"stopID":"25019","stopName":"San Pablo Ave and Merchant St - Westbound","stopLat":38.0551,"stopLon":-122.23069,"zoneID":"","parentStation":""},"25020":{"stopID":"25020","stopName":"San Pablo Ave and A St - Southbound","stopLat":38.04868,"stopLon":-122.24806,"zoneID":"","parentStation":""},"25021":{"stopID":"25021","stopName":"Tosco Refinery - Parking Lot Side","stopLat":38.0464,"stopLon":-122.25788,"zoneID":"","parentStation":""},"25022":{"stopID":"25022","stopName":"Parker Ave and Pacific Ave","stopLat":38.03486,"stopLon":-122.26769,"zoneID":"","parentStation":""},"25025":{"stopID":"25025","stopName":"San Pablo Ave and Linus Pauling","stopLat":38.02107,"stopLon":-122.27168,"zoneID":"","parentStation":""},"25026":{"stopID":"25026","stopName":"San Pablo Ave and Fern Ave","stopLat":38.00429,"stopLon":-122.29545,"zoneID":"","parentStation":""},"25027":{"stopID":"25027","stopName":"San Pablo Ave and Roble Ave","stopLat":38.00436,"stopLon":-122.30158,"zoneID":"","parentStation":""},"25028":{"stopID":"25028","stopName":"San Pablo Ave - Sugar City Building Materials","stopLat":38.00529,"stopLon":-122.30811,"zoneID":"","parentStation":""},"25029":{"stopID":"25029","stopName":"San Pablo Ave - Public Storage","stopLat":38.00396,"stopLon":-122.31359,"zoneID":"","parentStation":""},"25030":{"stopID":"25030","stopName":"San Pablo Ave and Kay Rd","stopLat":37.9919,"stopLon":-122.33131,"zoneID":"","parentStation":""},"25032":{"stopID":"25032","stopName":"San Pablo Ave and Crestview Dr","stopLat":38.00444,"stopLon":-122.31154,"zoneID":"","parentStation":""},"25034":{"stopID":"25034","stopName":"San Pablo Ave and 4th Ave","stopLat":38.00419,"stopLon":-122.30184,"zoneID":"","parentStation":""},"25035":{"stopID":"25035","stopName":"San Pablo Ave and Alverez Ave","stopLat":38.00403,"stopLon":-122.29427,"zoneID":"","parentStation":""},"25036":{"stopID":"25036","stopName":"Alfred Nobel and John Muir Pkwy","stopLat":38.01788,"stopLon":-122.27432,"zoneID":"","parentStation":""},"25039":{"stopID":"25039","stopName":"Linus Pauling - County EHS","stopLat":38.02187,"stopLon":-122.27256,"zoneID":"","parentStation":""},"25040":{"stopID":"25040","stopName":"San Pablo Ave and Victoria Crescent - Northbound","stopLat":38.0231,"stopLon":-122.26931,"zoneID":"","parentStation":""},"25041":{"stopID":"25041","stopName":"Fitzgerald Dr - Target","stopLat":37.98835,"stopLon":-122.31074,"zoneID":"","parentStation":""},"25044":{"stopID":"25044","stopName":"Refugio Valley and Falcon Way","stopLat":37.99656,"stopLon":-122.24766,"zoneID":"","parentStation":""},"25045":{"stopID":"25045","stopName":"Refugio Valley and Southwind Dr","stopLat":37.99543,"stopLon":-122.24395,"zoneID":"","parentStation":""},"25046":{"stopID":"25046","stopName":"Refugio Valley and Midship Dr","stopLat":37.99459,"stopLon":-122.24137,"zoneID":"","parentStation":""},"25047":{"stopID":"25047","stopName":"Refugio Valley and Mirimar Ave","stopLat":37.9938,"stopLon":-122.23751,"zoneID":"","parentStation":""},"25048":{"stopID":"25048","stopName":"Hannah Ranch School","stopLat":37.99339,"stopLon":-122.23502,"zoneID":"","parentStation":""},"25049":{"stopID":"25049","stopName":"Bonaire Ave and Refugio Valley Rd","stopLat":37.99314,"stopLon":-122.23055,"zoneID":"","parentStation":""},"25050":{"stopID":"25050","stopName":"Refugio Valley and Mandalay Ave","stopLat":37.99377,"stopLon":-122.23353,"zoneID":"","parentStation":""},"25051":{"stopID":"25051","stopName":"Carson St and Stanley Ct","stopLat":37.99798,"stopLon":-122.23767,"zoneID":"","parentStation":""},"25052":{"stopID":"25052","stopName":"Armstrong St and Grissom St","stopLat":38.0007,"stopLon":-122.23793,"zoneID":"","parentStation":""},"25053":{"stopID":"25053","stopName":"Grissom St and Shepard St","stopLat":37.9998,"stopLon":-122.24111,"zoneID":"","parentStation":""},"25055":{"stopID":"25055","stopName":"Violet Rd and Lilac Circle","stopLat":38.00664,"stopLon":-122.24266,"zoneID":"","parentStation":""},"25056":{"stopID":"25056","stopName":"Violet Rd and Iris Rd","stopLat":38.00841,"stopLon":-122.24843,"zoneID":"","parentStation":""},"25057":{"stopID":"25057","stopName":"Lupine Rd and Poppy Ct","stopLat":38.00728,"stopLon":-122.25581,"zoneID":"","parentStation":""},"25058":{"stopID":"25058","stopName":"Sycamore Ave and Redwood Rd","stopLat":38.00861,"stopLon":-122.26287,"zoneID":"","parentStation":""},"25059":{"stopID":"25059","stopName":"Sycamore Ave - Civic Center","stopLat":38.00954,"stopLon":-122.26613,"zoneID":"","parentStation":""},"25060":{"stopID":"25060","stopName":"Turquiose Dr and Sycamore Ave","stopLat":38.00876,"stopLon":-122.27208,"zoneID":"","parentStation":""},"25061":{"stopID":"25061","stopName":"Turquiose Dr and Crystal Circle","stopLat":38.00788,"stopLon":-122.27427,"zoneID":"","parentStation":""},"25062":{"stopID":"25062","stopName":"Cinnabar Way and Obsidan Way","stopLat":38.00424,"stopLon":-122.27588,"zoneID":"","parentStation":""},"25063":{"stopID":"25063","stopName":"Obsidian Way and Peridot Court","stopLat":38.00227,"stopLon":-122.27777,"zoneID":"","parentStation":""},"25064":{"stopID":"25064","stopName":"Turquiose Dr and Obsidan Way","stopLat":37.99989,"stopLon":-122.27686,"zoneID":"","parentStation":""},"25065":{"stopID":"25065","stopName":"Turquiose Dr at Reservoir","stopLat":37.99609,"stopLon":-122.26989,"zoneID":"","parentStation":""},"25066":{"stopID":"25066","stopName":"Pheasant Dr and Malachite Court","stopLat":37.99458,"stopLon":-122.26061,"zoneID":"","parentStation":""},"25067":{"stopID":"25067","stopName":"Tanager Way and Meadowlark Way","stopLat":37.99912,"stopLon":-122.26501,"zoneID":"","parentStation":""},"25068":{"stopID":"25068","stopName":"Sparrow Dr and Starling Ave","stopLat":38.00042,"stopLon":-122.26447,"zoneID":"","parentStation":""},"25069":{"stopID":"25069","stopName":"Falcon Way and Finch Ct","stopLat":37.99928,"stopLon":-122.25816,"zoneID":"","parentStation":""},"25070":{"stopID":"25070","stopName":"Falcon Way and Wren Ct","stopLat":37.99814,"stopLon":-122.25624,"zoneID":"","parentStation":""},"25071":{"stopID":"25071","stopName":"454 Falcon Way","stopLat":37.99671,"stopLon":-122.25203,"zoneID":"","parentStation":""},"25072":{"stopID":"25072","stopName":"Falcon Way and Refugio Valley","stopLat":37.99662,"stopLon":-122.24848,"zoneID":"","parentStation":""},"25073":{"stopID":"25073","stopName":"Refugio Valley - Community Center","stopLat":37.99857,"stopLon":-122.24924,"zoneID":"","parentStation":""},"25074":{"stopID":"25074","stopName":"Refugio Valley - Swim Center","stopLat":38.00141,"stopLon":-122.25518,"zoneID":"","parentStation":""},"25075":{"stopID":"25075","stopName":"Blume Dr and Klose Way","stopLat":37.98263,"stopLon":-122.32277,"zoneID":"","parentStation":""},"25078":{"stopID":"25078","stopName":"Tara Hills Dr and Flannery Rd","stopLat":37.99674,"stopLon":-122.31689,"zoneID":"","parentStation":""},"25079":{"stopID":"25079","stopName":"Dolan Way and Mahan Way","stopLat":37.99317,"stopLon":-122.32064,"zoneID":"","parentStation":""},"25080":{"stopID":"25080","stopName":"Shamrock Dr and Kavanagh Rd","stopLat":37.99347,"stopLon":-122.32366,"zoneID":"","parentStation":""},"25081":{"stopID":"25081","stopName":"Hillview Dr and Hilltop Dr","stopLat":37.98236,"stopLon":-122.333,"zoneID":"","parentStation":""},"25083":{"stopID":"25083","stopName":"Blume Dr and Klose Way - Hilltop Mall Sign","stopLat":37.98476,"stopLon":-122.31899,"zoneID":"","parentStation":""},"25084":{"stopID":"25084","stopName":"Marlesta Rd and Appian Way - SW Corner","stopLat":38.00162,"stopLon":-122.29945,"zoneID":"","parentStation":""},"25085":{"stopID":"25085","stopName":"Marlesta Rd and Sunnyview Dr","stopLat":38.0016,"stopLon":-122.30569,"zoneID":"","parentStation":""},"25086":{"stopID":"25086","stopName":"Del Monte Dr and Highlands Rd","stopLat":38.00484,"stopLon":-122.31846,"zoneID":"","parentStation":""},"25087":{"stopID":"25087","stopName":"Cypress Ave and Meadowlark St","stopLat":38.00725,"stopLon":-122.31914,"zoneID":"","parentStation":""},"25088":{"stopID":"25088","stopName":"Cypress Ave and Del Monte Dr","stopLat":38.00843,"stopLon":-122.31406,"zoneID":"","parentStation":""},"25089":{"stopID":"25089","stopName":"Pinole Shores Rd and Del Monte Dr","stopLat":38.00824,"stopLon":-122.31182,"zoneID":"","parentStation":""},"25090":{"stopID":"25090","stopName":"San Pablo Ave and Meadow Ave","stopLat":38.00504,"stopLon":-122.30764,"zoneID":"","parentStation":""},"25091":{"stopID":"25091","stopName":"Marlesta Rd and McDonald Dr","stopLat":38.00152,"stopLon":-122.30425,"zoneID":"","parentStation":""},"25094":{"stopID":"25094","stopName":"Ridgecrest Rd and Foothill Ave - Westbound","stopLat":37.99628,"stopLon":-122.29712,"zoneID":"","parentStation":""},"25095":{"stopID":"25095","stopName":"Ridgecrest Rd and Greenfield Cir - Northbound","stopLat":37.99682,"stopLon":-122.29531,"zoneID":"","parentStation":""},"25096":{"stopID":"25096","stopName":"Viewpointe Blvd and Seascape Cir","stopLat":38.02601,"stopLon":-122.25447,"zoneID":"","parentStation":""},"25097":{"stopID":"25097","stopName":"San Pablo Ave and Appian Way - Westbound","stopLat":38.00414,"stopLon":-122.29814,"zoneID":"","parentStation":""},"25098":{"stopID":"25098","stopName":"Coral Dr and Sandpoint Dr","stopLat":38.0231,"stopLon":-122.25015,"zoneID":"","parentStation":""},"25099":{"stopID":"25099","stopName":"Coral Dr and Reef Point Dr","stopLat":38.02104,"stopLon":-122.25097,"zoneID":"","parentStation":""},"25100":{"stopID":"25100","stopName":"Coral Dr and Bodega Way","stopLat":38.01845,"stopLon":-122.25421,"zoneID":"","parentStation":""},"25101":{"stopID":"25101","stopName":"Willow Ave and Viewpointe Blvd - Northbound","stopLat":38.01869,"stopLon":-122.25818,"zoneID":"","parentStation":""},"25105":{"stopID":"25105","stopName":"Pinole Valley Rd and Johanna Ct","stopLat":37.98735,"stopLon":-122.28395,"zoneID":"","parentStation":""},"25106":{"stopID":"25106","stopName":"Simas Ave and Estates Ave","stopLat":37.98546,"stopLon":-122.27773,"zoneID":"","parentStation":""},"25107":{"stopID":"25107","stopName":"Simas Ave and Diablo Ct","stopLat":37.98579,"stopLon":-122.27533,"zoneID":"","parentStation":""},"25108":{"stopID":"25108","stopName":"Simas Ave and Lassen Way","stopLat":37.98631,"stopLon":-122.26718,"zoneID":"","parentStation":""},"25109":{"stopID":"25109","stopName":"Simas Ave and Remuda","stopLat":37.98246,"stopLon":-122.26597,"zoneID":"","parentStation":""},"25110":{"stopID":"25110","stopName":"Wright Ave and Doidge Ave","stopLat":37.9806,"stopLon":-122.26396,"zoneID":"","parentStation":""},"25111":{"stopID":"25111","stopName":"Wright Ave and Victor St","stopLat":37.98331,"stopLon":-122.25841,"zoneID":"","parentStation":""},"25112":{"stopID":"25112","stopName":"Marcus Ct and Doidge Ave","stopLat":37.98269,"stopLon":-122.25318,"zoneID":"","parentStation":""},"25113":{"stopID":"25113","stopName":"Wright Ave and Brazil Ct","stopLat":37.98358,"stopLon":-122.25806,"zoneID":"","parentStation":""},"25114":{"stopID":"25114","stopName":"Wright Ave and Madera St","stopLat":37.98214,"stopLon":-122.26032,"zoneID":"","parentStation":""},"25115":{"stopID":"25115","stopName":"Ellerhorst School","stopLat":37.98142,"stopLon":-122.2732,"zoneID":"","parentStation":""},"25116":{"stopID":"25116","stopName":"Pinole Valley Rd and Simas Ave - Eastbound","stopLat":37.98498,"stopLon":-122.28075,"zoneID":"","parentStation":""},"25117":{"stopID":"25117","stopName":"Pinole Valley Rd and Helena Ct","stopLat":37.98798,"stopLon":-122.28441,"zoneID":"","parentStation":""},"25118":{"stopID":"25118","stopName":"Pinole Valley Rd and Estates Ave","stopLat":37.99524,"stopLon":-122.28559,"zoneID":"","parentStation":""},"25121":{"stopID":"25121","stopName":"Ridgecrest Rd and Canyon Dr","stopLat":37.9961,"stopLon":-122.29928,"zoneID":"","parentStation":""},"25123":{"stopID":"25123","stopName":"Viewpointe Blvd and Sandy Cove Dr","stopLat":38.02132,"stopLon":-122.2561,"zoneID":"","parentStation":""},"25124":{"stopID":"25124","stopName":"Muir Road and Center Ave - Northbound","stopLat":37.99462,"stopLon":-122.11861,"zoneID":"","parentStation":""},"25125":{"stopID":"25125","stopName":"Viewpointe Blvd and Sandpoint Dr","stopLat":38.02374,"stopLon":-122.25696,"zoneID":"","parentStation":""},"25126":{"stopID":"25126","stopName":"Ridgecrest Rd and Tesoro Ct - Northbound","stopLat":37.99899,"stopLon":-122.29496,"zoneID":"","parentStation":""},"25127":{"stopID":"25127","stopName":"Viewpointe Blvd and Myrna Way","stopLat":38.02695,"stopLon":-122.25013,"zoneID":"","parentStation":""},"25128":{"stopID":"25128","stopName":"Alhambra Ave and Walnut St - Northbound","stopLat":37.99239,"stopLon":-122.13058,"zoneID":"","parentStation":""},"25129":{"stopID":"25129","stopName":"Alhambra Ave and K St","stopLat":37.99584,"stopLon":-122.13225,"zoneID":"","parentStation":""},"25130":{"stopID":"25130","stopName":"Alhambra Ave and G St","stopLat":38,"stopLon":-122.13182,"zoneID":"","parentStation":""},"25131":{"stopID":"25131","stopName":"Alhambra Ave and Bertola St","stopLat":38.00726,"stopLon":-122.13057,"zoneID":"","parentStation":""},"25133":{"stopID":"25133","stopName":"Alhambra Ave and Main St","stopLat":38.01633,"stopLon":-122.13801,"zoneID":"","parentStation":""},"25135":{"stopID":"25135","stopName":"Berrellesa St and Jones St","stopLat":38.01183,"stopLon":-122.13499,"zoneID":"","parentStation":""},"25136":{"stopID":"25136","stopName":"2450 Alhambra Ave - Martinez Health Center","stopLat":38.00582,"stopLon":-122.13111,"zoneID":"","parentStation":""},"25137":{"stopID":"25137","stopName":"Alhambra Ave and F St","stopLat":38.00087,"stopLon":-122.13195,"zoneID":"","parentStation":""},"25138":{"stopID":"25138","stopName":"Alhambra Ave and J St","stopLat":37.99737,"stopLon":-122.13249,"zoneID":"","parentStation":""},"25139":{"stopID":"25139","stopName":"Alhambra Ave - Muir Lodge","stopLat":37.9955,"stopLon":-122.13231,"zoneID":"","parentStation":""},"25140":{"stopID":"25140","stopName":"4075 Lakeside Ave","stopLat":37.98747,"stopLon":-122.33243,"zoneID":"","parentStation":""},"25141":{"stopID":"25141","stopName":"4050 Lakeside Ave","stopLat":37.98742,"stopLon":-122.3323,"zoneID":"","parentStation":""},"25147":{"stopID":"25147","stopName":"Lakeside Dr and Research Dr","stopLat":37.98477,"stopLon":-122.33288,"zoneID":"","parentStation":""},"25148":{"stopID":"25148","stopName":"Richmond Parkway Eastbound  - Hilltop Bayview","stopLat":37.98928,"stopLon":-122.32236,"zoneID":"","parentStation":""},"25149":{"stopID":"25149","stopName":"Richmond Parkway Westbound -  Hilltop Bayview","stopLat":37.98878,"stopLon":-122.32204,"zoneID":"","parentStation":""},"25150":{"stopID":"25150","stopName":"7th St and Parker Ave","stopLat":38.02698,"stopLon":-122.26574,"zoneID":"","parentStation":""},"25152":{"stopID":"25152","stopName":"Willow Ave Shopping Center","stopLat":38.02134,"stopLon":-122.26133,"zoneID":"","parentStation":""},"25154":{"stopID":"25154","stopName":"Pinole Valley Shopping Center","stopLat":37.99507,"stopLon":-122.28586,"zoneID":"","parentStation":""},"25157":{"stopID":"25157","stopName":"Hilltop Dr and Hillview Dr","stopLat":37.98307,"stopLon":-122.33344,"zoneID":"","parentStation":""},"25158":{"stopID":"25158","stopName":"San Pablo Ave and Victoria Crescent - Southbound","stopLat":38.02305,"stopLon":-122.2698,"zoneID":"","parentStation":""},"25159":{"stopID":"25159","stopName":"Pinole Shores Dr and San Pablo Ave","stopLat":38.0056,"stopLon":-122.31027,"zoneID":"","parentStation":""},"25160":{"stopID":"25160","stopName":"Ridgecrest Rd and Foothill Ave - Eastbound","stopLat":37.99644,"stopLon":-122.2974,"zoneID":"","parentStation":""},"25201":{"stopID":"25201","stopName":"Marlesta Rd and Appian Way - Westbound Rt 16","stopLat":38.00179,"stopLon":-122.30095,"zoneID":"","parentStation":""},"25202":{"stopID":"25202","stopName":"Ridgecrest Rd and Greenfield Circle - Southbound","stopLat":37.99677,"stopLon":-122.29561,"zoneID":"","parentStation":""},"25203":{"stopID":"25203","stopName":"Blume Dr and Auto Plaza - Northbound","stopLat":37.98305,"stopLon":-122.32226,"zoneID":"","parentStation":""},"25204":{"stopID":"25204","stopName":"Muir Road and Center Ave - Southbound","stopLat":37.99503,"stopLon":-122.11857,"zoneID":"","parentStation":""},"25205":{"stopID":"25205","stopName":"Alhambra Ave and Jones St","stopLat":38.01266,"stopLon":-122.13447,"zoneID":"","parentStation":""},"25208":{"stopID":"25208","stopName":"825 Alfred Nobel Dr at Mechanics Bank","stopLat":38.02058,"stopLon":-122.27583,"zoneID":"","parentStation":""},"25209":{"stopID":"25209","stopName":"Coronado St and Decatur","stopLat":37.99775,"stopLon":-122.24371,"zoneID":"","parentStation":""},"25210":{"stopID":"25210","stopName":"Coronado St and Refugio Valley","stopLat":37.99603,"stopLon":-122.24554,"zoneID":"","parentStation":""},"25211":{"stopID":"25211","stopName":"Refugio Valley and Redwood Rd","stopLat":37.99666,"stopLon":-122.24749,"zoneID":"","parentStation":""},"25212":{"stopID":"25212","stopName":"Alhambra Ave and Walnut St - Southbound","stopLat":37.99234,"stopLon":-122.13089,"zoneID":"","parentStation":""},"25214":{"stopID":"25214","stopName":"Marlesta Rd and Appian Way - SE Corner","stopLat":38.0017,"stopLon":-122.29911,"zoneID":"","parentStation":""},"25215":{"stopID":"25215","stopName":"1624 Marlesta Rd","stopLat":38.00181,"stopLon":-122.29908,"zoneID":"","parentStation":""},"25307":{"stopID":"25307","stopName":"Alfred Nobel Dr - Near Venture Commerce Ctr","stopLat":38.0203,"stopLon":-122.2753,"zoneID":"","parentStation":""},"25501":{"stopID":"25501","stopName":"Hercules Transit Center","stopLat":38.0128,"stopLon":-122.2662,"zoneID":"","parentStation":""},"25503":{"stopID":"25503","stopName":"Parker Ave and 4th St - Northbound","stopLat":38.03268,"stopLon":-122.26689,"zoneID":"","parentStation":""},"25504":{"stopID":"25504","stopName":"San Pablo Ave and California St - Northbound","stopLat":38.03978,"stopLon":-122.26382,"zoneID":"","parentStation":""},"25506":{"stopID":"25506","stopName":"John Swett High School","stopLat":38.05245,"stopLon":-122.22075,"zoneID":"","parentStation":""},"25507":{"stopID":"25507","stopName":"Pomona St and Port St","stopLat":38.05245,"stopLon":-122.22539,"zoneID":"","parentStation":""},"25508":{"stopID":"25508","stopName":"San Pablo Ave and California St - Southbound","stopLat":38.04004,"stopLon":-122.26377,"zoneID":"","parentStation":""},"25509":{"stopID":"25509","stopName":"386 Parker Ave","stopLat":38.03313,"stopLon":-122.26724,"zoneID":"","parentStation":""},"25510":{"stopID":"25510","stopName":"586 Parker Ave","stopLat":38.02994,"stopLon":-122.26649,"zoneID":"","parentStation":""},"25550":{"stopID":"25550","stopName":"Contra Costa College - Campus Dr Turnaround","stopLat":37.97089,"stopLon":-122.34058,"zoneID":"","parentStation":""},"25555":{"stopID":"25555","stopName":"2nd St and Wanda St","stopLat":38.05363,"stopLon":-122.22364,"zoneID":"","parentStation":""},"28456":{"stopID":"28456","stopName":"San Pablo Ave and Sycamore","stopLat":38.01263,"stopLon":-122.27415,"zoneID":"","parentStation":""},"210148":{"stopID":"210148","stopName":"Richmond Parkway Transit Center","stopLat":37.98634,"stopLon":-122.31657,"zoneID":"","parentStation":""},"248457":{"stopID":"248457","stopName":"San Pablo Ave and Tsushima ave","stopLat":38.01237,"stopLon":-122.2784,"zoneID":"","parentStation":""},"2554968":{"stopID":"2554968","stopName":"Yard","stopLat":38.00577,"stopLon":-122.31179,"zoneID":"","parentStation":""}}