{"43000":{"stopID":"43000","stopName":"San Francisco Ferry Terminal","stopLat":37.79592,"stopLon":-122.39243,"zoneID":"72235","parentStation":""},"43002":{"stopID":"43002","stopName":"Angel Island Ferry Landing","stopLat":37.86852,"stopLon":-122.43492,"zoneID":"72236","parentStation":""},"43003":{"stopID":"43003","stopName":"Sausalito Ferry Landing","stopLat":37.85617,"stopLon":-122.47755,"zoneID":"72236","parentStation":""},"43004":{"stopID":"43004","stopName":"Larkspur Ferry Terminal","stopLat":37.94471,"stopLon":-122.50835,"zoneID":"72237","parentStation":""},"43007":{"stopID":"43007","stopName":"Tiburon Ferry Landing","stopLat":37.87273,"stopLon":-122.45592,"zoneID":"72237","parentStation":""},"43008":{"stopID":"43008","stopName":"San Francisco Ferry Terminal Gate B","stopLat":37.79653,"stopLon":-122.39376,"zoneID":"72235","parentStation":""}}