{"87100":{"stopID":"87100","stopName":"Copeland Street Transit Mall","stopLat":38.23638,"stopLon":-122.63606,"zoneID":"","parentStation":""},"87101":{"stopID":"87101","stopName":"E Washington St &Grey St","stopLat":38.23646,"stopLon":-122.63915,"zoneID":"","parentStation":""},"87102":{"stopID":"87102","stopName":"Keller and Western","stopLat":38.23402,"stopLon":-122.64249,"zoneID":"","parentStation":""},"87103":{"stopID":"87103","stopName":"4th & C St","stopLat":38.23244,"stopLon":-122.63869,"zoneID":"","parentStation":""},"87104":{"stopID":"87104","stopName":"4th & C Street","stopLat":38.23234,"stopLon":-122.63884,"zoneID":"","parentStation":""},"87105":{"stopID":"87105","stopName":"Washington and Lakeville EB","stopLat":38.23824,"stopLon":-122.63565,"zoneID":"","parentStation":""},"87106":{"stopID":"87106","stopName":"E Washington St at Vallejo St","stopLat":38.24082,"stopLon":-122.63349,"zoneID":"","parentStation":""},"87107":{"stopID":"87107","stopName":"E Washington St at Ellis St EB","stopLat":38.24312,"stopLon":-122.63132,"zoneID":"","parentStation":""},"87108":{"stopID":"87108","stopName":"E Washington St at Ellis St WB","stopLat":38.2436,"stopLon":-122.63123,"zoneID":"","parentStation":""},"87109":{"stopID":"87109","stopName":"Washington and Vallejo","stopLat":38.24075,"stopLon":-122.63381,"zoneID":"","parentStation":""},"87110":{"stopID":"87110","stopName":"Washington and Lakeville WB","stopLat":38.23786,"stopLon":-122.63644,"zoneID":"","parentStation":""},"87111":{"stopID":"87111","stopName":"Petaluma Blvd S at F St SB","stopLat":38.23141,"stopLon":-122.63447,"zoneID":"","parentStation":""},"87112":{"stopID":"87112","stopName":"Petaluma Blvd S at Mtn View Ave SB","stopLat":38.22808,"stopLon":-122.62594,"zoneID":"","parentStation":""},"87113":{"stopID":"87113","stopName":"Petaluma Blvd S at Roundabout SB","stopLat":38.22693,"stopLon":-122.6192,"zoneID":"","parentStation":""},"87115":{"stopID":"87115","stopName":"Petaluma Blvd S at Mcnear Ave","stopLat":38.22713,"stopLon":-122.62123,"zoneID":"","parentStation":""},"87119":{"stopID":"87119","stopName":"Mcnear Ave at Mission Dr WB","stopLat":38.22501,"stopLon":-122.62304,"zoneID":"","parentStation":""},"87120":{"stopID":"87120","stopName":"I St at Sunnyslope Rd WB","stopLat":38.21752,"stopLon":-122.63197,"zoneID":"","parentStation":""},"87122":{"stopID":"87122","stopName":"Petaluma High School","stopLat":38.22745,"stopLon":-122.64511,"zoneID":"","parentStation":""},"87123":{"stopID":"87123","stopName":"Petaluma Jr High School","stopLat":38.23255,"stopLon":-122.65855,"zoneID":"","parentStation":""},"87124":{"stopID":"87124","stopName":"Bodega Ave at Bantam Way","stopLat":38.2345,"stopLon":-122.65815,"zoneID":"","parentStation":""},"87125":{"stopID":"87125","stopName":"Petaluma Blvd N at Washington St NB","stopLat":38.23655,"stopLon":-122.64159,"zoneID":"","parentStation":""},"87127":{"stopID":"87127","stopName":"Petaluma Blvd N at Cherry NB","stopLat":38.24303,"stopLon":-122.64411,"zoneID":"","parentStation":""},"87128":{"stopID":"87128","stopName":"Petaluma Blvd N at Shastaave/Sycamore","stopLat":38.24692,"stopLon":-122.64519,"zoneID":"","parentStation":""},"87129":{"stopID":"87129","stopName":"Petaluma Blvd N at Factory Outlets N","stopLat":38.25552,"stopLon":-122.65176,"zoneID":"","parentStation":""},"87133":{"stopID":"87133","stopName":"Petaluma Blvd N at Gossage Ave Park","stopLat":38.25643,"stopLon":-122.65391,"zoneID":"","parentStation":""},"87134":{"stopID":"87134","stopName":"Petaluma Blvd N at Factory Outlets S","stopLat":38.25474,"stopLon":-122.65126,"zoneID":"","parentStation":""},"87135":{"stopID":"87135","stopName":"Petaluma Blvd N at Shasta Ave/Sycamore","stopLat":38.24705,"stopLon":-122.64552,"zoneID":"","parentStation":""},"87136":{"stopID":"87136","stopName":"Petaluma Blvd N at Magnolia Ave SB","stopLat":38.24452,"stopLon":-122.64476,"zoneID":"","parentStation":""},"87137":{"stopID":"87137","stopName":"Petaluma Blvd N at West St SB","stopLat":38.24206,"stopLon":-122.64399,"zoneID":"","parentStation":""},"87138":{"stopID":"87138","stopName":"Petaluma Blvd N at Oak St  SB","stopLat":38.23941,"stopLon":-122.64323,"zoneID":"","parentStation":""},"87139":{"stopID":"87139","stopName":"Petaluma Blvd N at Mary St SB","stopLat":38.23638,"stopLon":-122.6417,"zoneID":"","parentStation":""},"87152":{"stopID":"87152","stopName":"Mcnear Ave & Country Club Drive","stopLat":38.22232,"stopLon":-122.62257,"zoneID":"","parentStation":""},"87154":{"stopID":"87154","stopName":"Mcnear Ave. & Mountain View","stopLat":38.22095,"stopLon":-122.62679,"zoneID":"","parentStation":""},"87156":{"stopID":"87156","stopName":"Sunnyslope & Wallenburg Way","stopLat":38.21831,"stopLon":-122.63774,"zoneID":"","parentStation":""},"87158":{"stopID":"87158","stopName":"El Rose & D Street","stopLat":38.22314,"stopLon":-122.64316,"zoneID":"","parentStation":""},"87159":{"stopID":"87159","stopName":"Western Ave. & Fair St.","stopLat":38.23091,"stopLon":-122.65027,"zoneID":"","parentStation":""},"87164":{"stopID":"87164","stopName":"Magnolia at Svhs","stopLat":38.24488,"stopLon":-122.65016,"zoneID":"","parentStation":""},"87165":{"stopID":"87165","stopName":"B Street at Bgc","stopLat":38.22537,"stopLon":-122.64405,"zoneID":"","parentStation":""},"87167":{"stopID":"87167","stopName":"Grant at Grant School","stopLat":38.2213,"stopLon":-122.63002,"zoneID":"","parentStation":""},"87169":{"stopID":"87169","stopName":"Bodega Ave at Webster Street EB","stopLat":38.23438,"stopLon":-122.65341,"zoneID":"","parentStation":""},"87170":{"stopID":"87170","stopName":"SMART Station Lakeville Street","stopLat":38.23648,"stopLon":-122.63462,"zoneID":"","parentStation":""},"87200":{"stopID":"87200","stopName":"Maria at Creekside Drive","stopLat":38.25217,"stopLon":-122.62212,"zoneID":"","parentStation":""},"87201":{"stopID":"87201","stopName":"Maria Dr and Greenbriar","stopLat":38.25017,"stopLon":-122.62022,"zoneID":"","parentStation":""},"87202":{"stopID":"87202","stopName":"Safeway Eastside Transit Center (Washington Square)","stopLat":38.24818,"stopLon":-122.62178,"zoneID":"","parentStation":""},"87204":{"stopID":"87204","stopName":"Park Ln & Greenbriar Cir NB","stopLat":38.24831,"stopLon":-122.61934,"zoneID":"","parentStation":""},"87205":{"stopID":"87205","stopName":"E Madison St at Novak Dr Sr Cent","stopLat":38.25283,"stopLon":-122.62676,"zoneID":"","parentStation":""},"87206":{"stopID":"87206","stopName":"Senior Center (E Madison St at Novak Dr)","stopLat":38.25277,"stopLon":-122.62699,"zoneID":"","parentStation":""},"87300":{"stopID":"87300","stopName":"Maria Dr at Monroe St Eldred NB","stopLat":38.25592,"stopLon":-122.62852,"zoneID":"","parentStation":""},"87302":{"stopID":"87302","stopName":"Maria Dr at Rainier Drive NB","stopLat":38.25845,"stopLon":-122.63234,"zoneID":"","parentStation":""},"87304":{"stopID":"87304","stopName":"Maria Dr at Northstar Dr NB","stopLat":38.26213,"stopLon":-122.6381,"zoneID":"","parentStation":""},"87305":{"stopID":"87305","stopName":"Maria Dr at Sunrise Pkwy NB","stopLat":38.26344,"stopLon":-122.64118,"zoneID":"","parentStation":""},"87306":{"stopID":"87306","stopName":"Maria Dr at Meadow School","stopLat":38.26626,"stopLon":-122.6462,"zoneID":"","parentStation":""},"87307":{"stopID":"87307","stopName":"Sonoma Mtn Pkwy at Maria Drive SB","stopLat":38.26816,"stopLon":-122.64808,"zoneID":"","parentStation":""},"87308":{"stopID":"87308","stopName":"Sonoma Mtn Pkwy at Colombard Rd/Ely Rd","stopLat":38.26884,"stopLon":-122.64282,"zoneID":"","parentStation":""},"87309":{"stopID":"87309","stopName":"Sonoma Mtn Pkwy at Reisling Rd SB","stopLat":38.26847,"stopLon":-122.64043,"zoneID":"","parentStation":""},"87310":{"stopID":"87310","stopName":"Sonoma Mtn Pkwy at Campus Circle SB","stopLat":38.26666,"stopLon":-122.63721,"zoneID":"","parentStation":""},"87311":{"stopID":"87311","stopName":"Sonoma Mtn Pkwy at Cygnus Way SB","stopLat":38.26553,"stopLon":-122.63525,"zoneID":"","parentStation":""},"87312":{"stopID":"87312","stopName":"Sonoma Mtn Pkwy at Rainier Ave SB","stopLat":38.26217,"stopLon":-122.62918,"zoneID":"","parentStation":""},"87313":{"stopID":"87313","stopName":"Sonoma Mtn Pkwy at Clary Way SB","stopLat":38.26064,"stopLon":-122.62651,"zoneID":"","parentStation":""},"87314":{"stopID":"87314","stopName":"Sonoma Mtn Pkwy at Chehalis Drive SB","stopLat":38.25875,"stopLon":-122.62319,"zoneID":"","parentStation":""},"87315":{"stopID":"87315","stopName":"Sonoma Mtn Pkwy at St James Church","stopLat":38.25721,"stopLon":-122.62036,"zoneID":"","parentStation":""},"87316":{"stopID":"87316","stopName":"Sonoma Mtn Pkwy at E Washington NB","stopLat":38.25731,"stopLon":-122.62019,"zoneID":"","parentStation":""},"87317":{"stopID":"87317","stopName":"Sonoma Mtn Pkwy at Turtle Creek Way","stopLat":38.25939,"stopLon":-122.62373,"zoneID":"","parentStation":""},"87318":{"stopID":"87318","stopName":"Sonoma Mtn Pkwy at Castle Drive NB","stopLat":38.26088,"stopLon":-122.6264,"zoneID":"","parentStation":""},"87319":{"stopID":"87319","stopName":"Sonoma Mtn Pkwy at Rainier Drive NB","stopLat":38.26291,"stopLon":-122.62996,"zoneID":"","parentStation":""},"87320":{"stopID":"87320","stopName":"Sonoma Mtn Pkwy at Cygnus Way NB","stopLat":38.2655,"stopLon":-122.63462,"zoneID":"","parentStation":""},"87321":{"stopID":"87321","stopName":"Sonoma Mtn Pkwy at Campus Circle Srjc","stopLat":38.26741,"stopLon":-122.63792,"zoneID":"","parentStation":""},"87322":{"stopID":"87322","stopName":"Sonoma Mtn Parkway at Riesling","stopLat":38.26873,"stopLon":-122.6404,"zoneID":"","parentStation":""},"87323":{"stopID":"87323","stopName":"Sonoma Mtn Pkwy at Ely Rd/Colombard Rd","stopLat":38.26899,"stopLon":-122.64386,"zoneID":"","parentStation":""},"87324":{"stopID":"87324","stopName":"Maria Dr at Morning Glory Dr","stopLat":38.2673,"stopLon":-122.64831,"zoneID":"","parentStation":""},"87325":{"stopID":"87325","stopName":"Maria Dr at Dupree Meadow School","stopLat":38.26587,"stopLon":-122.64588,"zoneID":"","parentStation":""},"87326":{"stopID":"87326","stopName":"Maria Dr at Sunrise Pkwy SB","stopLat":38.26318,"stopLon":-122.64106,"zoneID":"","parentStation":""},"87329":{"stopID":"87329","stopName":"Maria Dr at Rainier Ave SB","stopLat":38.25831,"stopLon":-122.6324,"zoneID":"","parentStation":""},"87330":{"stopID":"87330","stopName":"Maria Dr at Professional Dr","stopLat":38.25695,"stopLon":-122.62996,"zoneID":"","parentStation":""},"87331":{"stopID":"87331","stopName":"Maria Dr at Monroe St Eldred SB","stopLat":38.25484,"stopLon":-122.62687,"zoneID":"","parentStation":""},"87333":{"stopID":"87333","stopName":"Kenilworth Jhs On Dover","stopLat":38.27352,"stopLon":-122.63964,"zoneID":"","parentStation":""},"87400":{"stopID":"87400","stopName":"Ely Blvd S at Gilrix St SB","stopLat":38.25481,"stopLon":-122.61619,"zoneID":"","parentStation":""},"87401":{"stopID":"87401","stopName":"Ely Blvd S at Washington Creek SB","stopLat":38.25199,"stopLon":-122.61118,"zoneID":"","parentStation":""},"87402":{"stopID":"87402","stopName":"Ely Blvd S at Caulifield Lane SB","stopLat":38.24966,"stopLon":-122.60703,"zoneID":"","parentStation":""},"87403":{"stopID":"87403","stopName":"Ely Blvd  S at Juliet Casa Grande","stopLat":38.24567,"stopLon":-122.59992,"zoneID":"","parentStation":""},"87404":{"stopID":"87404","stopName":"Ely Blvd S at Casa Grande Rd SB","stopLat":38.24382,"stopLon":-122.59663,"zoneID":"","parentStation":""},"87405":{"stopID":"87405","stopName":"Casa Grande Rd at Casa Grande Hs","stopLat":38.24074,"stopLon":-122.59851,"zoneID":"","parentStation":""},"87406":{"stopID":"87406","stopName":"S Mcdowell Blvd at Casa Grande Rd N","stopLat":38.23647,"stopLon":-122.60298,"zoneID":"","parentStation":""},"87407":{"stopID":"87407","stopName":"S Mcdowell Blvd at Anna Way NB","stopLat":38.23764,"stopLon":-122.60498,"zoneID":"","parentStation":""},"87408":{"stopID":"87408","stopName":"S Mcdowell Blvd at Baywood Dr NB","stopLat":38.24079,"stopLon":-122.61068,"zoneID":"","parentStation":""},"87410":{"stopID":"87410","stopName":"S Mcdowell Blvd at Caulfield Ln NB","stopLat":38.24339,"stopLon":-122.6153,"zoneID":"","parentStation":""},"87411":{"stopID":"87411","stopName":"S Mcdowell Blvd at Weaverly Dr NB","stopLat":38.24497,"stopLon":-122.61812,"zoneID":"","parentStation":""},"87413":{"stopID":"87413","stopName":"S Mcdowell Blvd at Lindberg Lane SB","stopLat":38.24439,"stopLon":-122.6175,"zoneID":"","parentStation":""},"87414":{"stopID":"87414","stopName":"S Mcdowell Blvd at Caufield","stopLat":38.24251,"stopLon":-122.61416,"zoneID":"","parentStation":""},"87415":{"stopID":"87415","stopName":"S Mcdowell Blvd at Baywood Dr SB","stopLat":38.24054,"stopLon":-122.61065,"zoneID":"","parentStation":""},"87416":{"stopID":"87416","stopName":"S Mcdowell Blvd at Evergreen Lane SB","stopLat":38.23748,"stopLon":-122.60524,"zoneID":"","parentStation":""},"87417":{"stopID":"87417","stopName":"St. Francis Dr. at S. Mcdowell Blvd.","stopLat":38.23651,"stopLon":-122.60351,"zoneID":"","parentStation":""},"87418":{"stopID":"87418","stopName":"Casa Grande Rd at S Mcdowell","stopLat":38.23633,"stopLon":-122.60214,"zoneID":"","parentStation":""},"87419":{"stopID":"87419","stopName":"Casa Grande Rd & Sartori Dr - NB","stopLat":38.2386,"stopLon":-122.60006,"zoneID":"","parentStation":""},"87420":{"stopID":"87420","stopName":"Casa Grande Rd at Ely Blvd S EB","stopLat":38.24251,"stopLon":-122.59651,"zoneID":"","parentStation":""},"87421":{"stopID":"87421","stopName":"Ely Blvd S at Cross Creek St N","stopLat":38.24486,"stopLon":-122.598,"zoneID":"","parentStation":""},"87422":{"stopID":"87422","stopName":"Ely Blvd S at Village East Dr","stopLat":38.24691,"stopLon":-122.60159,"zoneID":"","parentStation":""},"87423":{"stopID":"87423","stopName":"Ely Blvd S at Meadowview Dr NB","stopLat":38.24891,"stopLon":-122.6051,"zoneID":"","parentStation":""},"87424":{"stopID":"87424","stopName":"Ely Blvd S at Estuary Way NB","stopLat":38.25171,"stopLon":-122.61013,"zoneID":"","parentStation":""},"87425":{"stopID":"87425","stopName":"Ely Blvd S at Clydesdale Way NB","stopLat":38.2533,"stopLon":-122.61291,"zoneID":"","parentStation":""},"87426":{"stopID":"87426","stopName":"Ely Blvd S at Gilrix St NB","stopLat":38.25534,"stopLon":-122.61672,"zoneID":"","parentStation":""},"87430":{"stopID":"87430","stopName":"Ely Blvd South at Capistrano SB","stopLat":38.24777,"stopLon":-122.60365,"zoneID":"","parentStation":""},"87500":{"stopID":"87500","stopName":"Mcdowell and Community Center","stopLat":38.2522,"stopLon":-122.63087,"zoneID":"","parentStation":""},"87501":{"stopID":"87501","stopName":"N Mcdowell Blvd at Lynch Creek NB","stopLat":38.25346,"stopLon":-122.63313,"zoneID":"","parentStation":""},"87502":{"stopID":"87502","stopName":"N Mcdowell Blvd at Rainier Ave NB","stopLat":38.25653,"stopLon":-122.63864,"zoneID":"","parentStation":""},"87503":{"stopID":"87503","stopName":"N Mcdowell Blvd at Candlewood Dr NB","stopLat":38.25813,"stopLon":-122.64149,"zoneID":"","parentStation":""},"87504":{"stopID":"87504","stopName":"N Mcdowell Blvd at Sunrise Pkwy NB","stopLat":38.25968,"stopLon":-122.6442,"zoneID":"","parentStation":""},"87505":{"stopID":"87505","stopName":"N Mcdowell Blvd at Southpoint Blvd NB (Wells Fargo)","stopLat":38.26176,"stopLon":-122.64785,"zoneID":"","parentStation":""},"87507":{"stopID":"87507","stopName":"N Mcdowell Blvd at Youngstown Mhp NB","stopLat":38.26651,"stopLon":-122.65644,"zoneID":"","parentStation":""},"87508":{"stopID":"87508","stopName":"N. Mcdowell Blvd. North Of Rand St. (Post Office)","stopLat":38.26779,"stopLon":-122.65859,"zoneID":"","parentStation":""},"87509":{"stopID":"87509","stopName":"N Mcdowell Blvd at Scott NB","stopLat":38.27156,"stopLon":-122.66263,"zoneID":"","parentStation":""},"87511":{"stopID":"87511","stopName":"Old Redwood Hwy at N Mcdowell Blvd","stopLat":38.27629,"stopLon":-122.66897,"zoneID":"","parentStation":""},"87512":{"stopID":"87512","stopName":"1330 Redwood Way at Holistic Institute","stopLat":38.27656,"stopLon":-122.66604,"zoneID":"","parentStation":""},"87513":{"stopID":"87513","stopName":"N Mcdowell B & Redwood Way","stopLat":38.27342,"stopLon":-122.66574,"zoneID":"","parentStation":""},"87514":{"stopID":"87514","stopName":"N Mcdowell Blvd at Scott St SB","stopLat":38.27124,"stopLon":-122.66261,"zoneID":"","parentStation":""},"87515":{"stopID":"87515","stopName":"N Mcdowell at Clegg SB","stopLat":38.26904,"stopLon":-122.66027,"zoneID":"","parentStation":""},"87516":{"stopID":"87516","stopName":"N Mcdowell Blvd at Rand St Post Off","stopLat":38.26728,"stopLon":-122.65823,"zoneID":"","parentStation":""},"87517":{"stopID":"87517","stopName":"N Mcdowell Blvd at Youngstown Mhp SB","stopLat":38.26534,"stopLon":-122.65473,"zoneID":"","parentStation":""},"87518":{"stopID":"87518","stopName":"N Mcdowell Blvd at Petaluma Estates Mhp SB","stopLat":38.2641,"stopLon":-122.65253,"zoneID":"","parentStation":""},"87519":{"stopID":"87519","stopName":"N Mcdowell Blvd at Southpoint Blvd SB","stopLat":38.26094,"stopLon":-122.647,"zoneID":"","parentStation":""},"87520":{"stopID":"87520","stopName":"N Mcdowell Blvd at Round Walk Circle SB","stopLat":38.25968,"stopLon":-122.6447,"zoneID":"","parentStation":""},"87521":{"stopID":"87521","stopName":"N Mcdowell Blvd at Candlewood Dr","stopLat":38.25847,"stopLon":-122.64253,"zoneID":"","parentStation":""},"87522":{"stopID":"87522","stopName":"N Mcdowell Blvd at Rainier Drive Pt","stopLat":38.25574,"stopLon":-122.63772,"zoneID":"","parentStation":""},"87523":{"stopID":"87523","stopName":"N Mcdowell Blvd at Lynch Creek SB","stopLat":38.25322,"stopLon":-122.63321,"zoneID":"","parentStation":""},"87524":{"stopID":"87524","stopName":"N Mcdowell Blvd at Petaluma Plaza Sc","stopLat":38.25144,"stopLon":-122.63009,"zoneID":"","parentStation":""},"87525":{"stopID":"87525","stopName":"N Mcdowell at Petaluma Plaza Sc(Rcu Bank/Kmart)","stopLat":38.24969,"stopLon":-122.62701,"zoneID":"","parentStation":""},"87529":{"stopID":"87529","stopName":"N. Mcdowell at Rr Tracks - Sr. Apts NB","stopLat":38.26288,"stopLon":-122.64993,"zoneID":"","parentStation":""},"87530":{"stopID":"87530","stopName":"North Mcdowell at Motel 6 NB","stopLat":38.27305,"stopLon":-122.66457,"zoneID":"","parentStation":""},"87600":{"stopID":"87600","stopName":"Lakeville Apt #1 at Ely Blvd S SB","stopLat":38.24049,"stopLon":-122.59083,"zoneID":"","parentStation":""},"87601":{"stopID":"87601","stopName":"Frates & Southgate (The Vineyard Apts)","stopLat":38.2379,"stopLon":-122.59096,"zoneID":"","parentStation":""},"87606":{"stopID":"87606","stopName":"Kaiser Medical Center","stopLat":38.22942,"stopLon":-122.58507,"zoneID":"","parentStation":""},"87607":{"stopID":"87607","stopName":"S Mcdowell Blvd  at Cypress Dr","stopLat":38.22921,"stopLon":-122.5919,"zoneID":"","parentStation":""},"87608":{"stopID":"87608","stopName":"2000 S Mcdowell Blvd. at Cader Lane NB","stopLat":38.23009,"stopLon":-122.59597,"zoneID":"","parentStation":""},"87609":{"stopID":"87609","stopName":"S Mcdowell Blvd  at Fisher Dr NB","stopLat":38.23257,"stopLon":-122.5996,"zoneID":"","parentStation":""},"87610":{"stopID":"87610","stopName":"Lakeville Hwy at Casa Grande Rd WB","stopLat":38.23391,"stopLon":-122.60365,"zoneID":"","parentStation":""},"87611":{"stopID":"87611","stopName":"Lakeville Hwy at Marina Ave WB","stopLat":38.23337,"stopLon":-122.61003,"zoneID":"","parentStation":""},"87612":{"stopID":"87612","stopName":"Lakeville Hwy at Baywood Dr WB","stopLat":38.23316,"stopLon":-122.61353,"zoneID":"","parentStation":""},"87613":{"stopID":"87613","stopName":"Lakeville Hwy & Caulfield (Lucky'S Shopping Center","stopLat":38.23546,"stopLon":-122.6232,"zoneID":"","parentStation":""},"87618":{"stopID":"87618","stopName":"Sheraton Hotel - Lakeville & Baywood SB","stopLat":38.23287,"stopLon":-122.61435,"zoneID":"","parentStation":""},"87619":{"stopID":"87619","stopName":"Lakeville at Marina SB","stopLat":38.23306,"stopLon":-122.61025,"zoneID":"","parentStation":""},"87620":{"stopID":"87620","stopName":"Lakeville at Casa Grande Rd. SB","stopLat":38.23356,"stopLon":-122.60387,"zoneID":"","parentStation":""},"87621":{"stopID":"87621","stopName":"Lakeville and Cader EB","stopLat":38.23443,"stopLon":-122.59453,"zoneID":"","parentStation":""},"87622":{"stopID":"87622","stopName":"Lakeville at Caulfeld SB","stopLat":38.23525,"stopLon":-122.62198,"zoneID":"","parentStation":""},"87625":{"stopID":"87625","stopName":"Lakeville at Frates NB","stopLat":38.23474,"stopLon":-122.59437,"zoneID":"","parentStation":""},"87627":{"stopID":"87627","stopName":"Lakeville at S. Mcdowell Ext SB","stopLat":38.234,"stopLon":-122.59944,"zoneID":"","parentStation":""},"87628":{"stopID":"87628","stopName":"Lakeville at S. Mcdowell Ext NB","stopLat":38.23425,"stopLon":-122.59973,"zoneID":"","parentStation":""},"87800":{"stopID":"87800","stopName":"3860 Cypress Dr at Ups","stopLat":38.22743,"stopLon":-122.58861,"zoneID":"","parentStation":""},"87801":{"stopID":"87801","stopName":"3820 Cypress Dr at S Mcdowell Extens","stopLat":38.22849,"stopLon":-122.59132,"zoneID":"","parentStation":""},"87804":{"stopID":"87804","stopName":"S Mcdowell Blvd  at Lakeville Hwy","stopLat":38.23231,"stopLon":-122.58852,"zoneID":"","parentStation":""},"87805":{"stopID":"87805","stopName":"Lakeville Hwy at Jefferson St NB","stopLat":38.23588,"stopLon":-122.63137,"zoneID":"","parentStation":""},"987900":{"stopID":"987900","stopName":"Casa Grande High School at Casa Gr Rd","stopLat":38.24074,"stopLon":-122.59816,"zoneID":"","parentStation":""},"9266715":{"stopID":"9266715","stopName":"Magnolia at Antone EB Mary Collins School","stopLat":38.24558,"stopLon":-122.65385,"zoneID":"","parentStation":""}}