{"880040":{"stopID":"880040","stopName":"Springtown Blvd & Bluebell Dr","stopLat":37.70535,"stopLon":-121.74086,"zoneID":"","parentStation":""},"880043":{"stopID":"880043","stopName":"Dalton Ave & Vasco Rd","stopLat":37.72689,"stopLon":-121.72669,"zoneID":"","parentStation":""},"880059":{"stopID":"880059","stopName":"Junction Ave & Chestnut St Outbound","stopLat":37.68684,"stopLon":-121.76671,"zoneID":"","parentStation":""},"880095":{"stopID":"880095","stopName":"East Dublin Pleasanton  BART","stopLat":37.70168,"stopLon":-121.89819,"zoneID":"","parentStation":""},"880103":{"stopID":"880103","stopName":"Dublin Blvd & Tassajara Rd","stopLat":37.7058,"stopLon":-121.87503,"zoneID":"","parentStation":""},"881448":{"stopID":"881448","stopName":"Murrieta Blvd & Olivina Ave","stopLat":37.68318,"stopLon":-121.79089,"zoneID":"","parentStation":""},"881449":{"stopID":"881449","stopName":"Murrieta Blvd & Pine St","stopLat":37.6876,"stopLon":-121.7908,"zoneID":"","parentStation":""},"881461":{"stopID":"881461","stopName":"North Canyon Plwy & Constitution Dr EB","stopLat":37.70451,"stopLon":-121.81634,"zoneID":"","parentStation":""},"881462":{"stopID":"881462","stopName":"North Canyon Pkwy & Independence Dr EB","stopLat":37.70416,"stopLon":-121.81114,"zoneID":"","parentStation":""},"881464":{"stopID":"881464","stopName":"Las Positas College","stopLat":37.71038,"stopLon":-121.79976,"zoneID":"","parentStation":""},"881466":{"stopID":"881466","stopName":"North Canyon Pkwy & Independence  Dr","stopLat":37.7041,"stopLon":-121.81289,"zoneID":"","parentStation":""},"881467":{"stopID":"881467","stopName":"North Canyon Pkwy & Constitution Dr WB","stopLat":37.70448,"stopLon":-121.81795,"zoneID":"","parentStation":""},"881479":{"stopID":"881479","stopName":"Murrieta Blvd & Pine St","stopLat":37.68777,"stopLon":-121.79102,"zoneID":"","parentStation":""},"881489":{"stopID":"881489","stopName":"Vasco Rd & Las Positas Rd","stopLat":37.70323,"stopLon":-121.72053,"zoneID":"","parentStation":""},"881490":{"stopID":"881490","stopName":"Vasco Rd & Las Positas Rd","stopLat":37.70214,"stopLon":-121.72027,"zoneID":"","parentStation":""},"881491":{"stopID":"881491","stopName":"Vasco Rd & Brisa St","stopLat":37.69905,"stopLon":-121.7185,"zoneID":"","parentStation":""},"881492":{"stopID":"881492","stopName":"First St & Larch Ln","stopLat":37.68879,"stopLon":-121.75641,"zoneID":"","parentStation":""},"881494":{"stopID":"881494","stopName":"First St & Portola Ave","stopLat":37.6916,"stopLon":-121.75096,"zoneID":"","parentStation":""},"881496":{"stopID":"881496","stopName":"First St & Las Positas Rd","stopLat":37.69914,"stopLon":-121.74202,"zoneID":"","parentStation":""},"881498":{"stopID":"881498","stopName":"Springtown Blvd & Rhododendron Dr","stopLat":37.70836,"stopLon":-121.74544,"zoneID":"","parentStation":""},"881500":{"stopID":"881500","stopName":"Springtown Blvd & Oleander Dr","stopLat":37.71262,"stopLon":-121.74785,"zoneID":"","parentStation":""},"881501":{"stopID":"881501","stopName":"Springtown Blvd & Rhododendron Dr","stopLat":37.71608,"stopLon":-121.74788,"zoneID":"","parentStation":""},"881502":{"stopID":"881502","stopName":"Bluebell Dr & Galloway St","stopLat":37.71907,"stopLon":-121.74653,"zoneID":"","parentStation":""},"881503":{"stopID":"881503","stopName":"Bluebell Dr & North Livermore Park","stopLat":37.71878,"stopLon":-121.74443,"zoneID":"","parentStation":""},"881504":{"stopID":"881504","stopName":"Bluebell Dr & Capriconus Ave","stopLat":37.71714,"stopLon":-121.74152,"zoneID":"","parentStation":""},"881505":{"stopID":"881505","stopName":"Scenic Ave & Aquarius St","stopLat":37.717,"stopLon":-121.73758,"zoneID":"","parentStation":""},"881506":{"stopID":"881506","stopName":"Scenic Ave & Heather Ln","stopLat":37.71698,"stopLon":-121.73304,"zoneID":"","parentStation":""},"881507":{"stopID":"881507","stopName":"Broadmoor St & Greenwich St","stopLat":37.71886,"stopLon":-121.73251,"zoneID":"","parentStation":""},"881508":{"stopID":"881508","stopName":"Broadmoor St & Bridgeport Cir","stopLat":37.72122,"stopLon":-121.73251,"zoneID":"","parentStation":""},"881510":{"stopID":"881510","stopName":"Broadmoor St & Haggin Oaks Ave","stopLat":37.72611,"stopLon":-121.73245,"zoneID":"","parentStation":""},"881512":{"stopID":"881512","stopName":"Scenic Ave & Vasco Rd","stopLat":37.71711,"stopLon":-121.72504,"zoneID":"","parentStation":""},"881513":{"stopID":"881513","stopName":"Scenic Ave & Leo Croce School","stopLat":37.71711,"stopLon":-121.72919,"zoneID":"","parentStation":""},"881514":{"stopID":"881514","stopName":"Scenic Ave & Broadmoor St","stopLat":37.71711,"stopLon":-121.73324,"zoneID":"","parentStation":""},"881515":{"stopID":"881515","stopName":"Heather Ln & Iris Wy","stopLat":37.71306,"stopLon":-121.7341,"zoneID":"","parentStation":""},"881516":{"stopID":"881516","stopName":"Bluebell Dr & Heather Ln","stopLat":37.71098,"stopLon":-121.73517,"zoneID":"","parentStation":""},"881517":{"stopID":"881517","stopName":"Bluebell Dr & Sunflower Ct","stopLat":37.70795,"stopLon":-121.73571,"zoneID":"","parentStation":""},"881518":{"stopID":"881518","stopName":"Bluebell Dr & Las Flores Rd","stopLat":37.70627,"stopLon":-121.7383,"zoneID":"","parentStation":""},"881520":{"stopID":"881520","stopName":"First St & Mines Rd","stopLat":37.69394,"stopLon":-121.74815,"zoneID":"","parentStation":""},"881521":{"stopID":"881521","stopName":"First St &  Larch Ln","stopLat":37.68924,"stopLon":-121.7562,"zoneID":"","parentStation":""},"881522":{"stopID":"881522","stopName":"Livermore High School","stopLat":37.68066,"stopLon":-121.76192,"zoneID":"","parentStation":""},"881527":{"stopID":"881527","stopName":"4992 North  Livermore Ave","stopLat":37.69399,"stopLon":-121.77306,"zoneID":"","parentStation":""},"881528":{"stopID":"881528","stopName":"4750 North Livermore Ave","stopLat":37.697,"stopLon":-121.77321,"zoneID":"","parentStation":""},"881530":{"stopID":"881530","stopName":"Livermore Target","stopLat":37.6997,"stopLon":-121.74518,"zoneID":"","parentStation":""},"881547":{"stopID":"881547","stopName":"Las Positas Rd & Plaza Dr","stopLat":37.69941,"stopLon":-121.74414,"zoneID":"","parentStation":""},"881548":{"stopID":"881548","stopName":"Livermore Target","stopLat":37.70052,"stopLon":-121.74704,"zoneID":"","parentStation":""},"881549":{"stopID":"881549","stopName":"Walmart Inbound","stopLat":37.69837,"stopLon":-121.76961,"zoneID":"","parentStation":""},"881550":{"stopID":"881550","stopName":"North Livermore Ave & Las Positas Rd","stopLat":37.6965,"stopLon":-121.77356,"zoneID":"","parentStation":""},"881551":{"stopID":"881551","stopName":"North Livermore Ave & Cromwell Wy","stopLat":37.69303,"stopLon":-121.77338,"zoneID":"","parentStation":""},"881555":{"stopID":"881555","stopName":"Junction Ave & Chestnut St","stopLat":37.68699,"stopLon":-121.7673,"zoneID":"","parentStation":""},"881556":{"stopID":"881556","stopName":"Stanley Blvd & Murdell Ln EB","stopLat":37.67659,"stopLon":-121.7998,"zoneID":"","parentStation":""},"881557":{"stopID":"881557","stopName":"Stanley Blvd & El Caminito","stopLat":37.67714,"stopLon":-121.79494,"zoneID":"","parentStation":""},"881558":{"stopID":"881558","stopName":"Stanley Blvd & Murrieta Blvd EB","stopLat":37.67804,"stopLon":-121.78664,"zoneID":"","parentStation":""},"881559":{"stopID":"881559","stopName":"Stanley Blvd & Valley Memorial  Hospital EB","stopLat":37.67886,"stopLon":-121.78192,"zoneID":"","parentStation":""},"881560":{"stopID":"881560","stopName":"Railroad Ave & P St EB","stopLat":37.68066,"stopLon":-121.77814,"zoneID":"","parentStation":""},"881561":{"stopID":"881561","stopName":"Railroad Ave & N St","stopLat":37.68169,"stopLon":-121.77468,"zoneID":"","parentStation":""},"881562":{"stopID":"881562","stopName":"Railroad Ave & Station Square","stopLat":37.68247,"stopLon":-121.77282,"zoneID":"","parentStation":""},"881563":{"stopID":"881563","stopName":"Railroad Ave & P St","stopLat":37.68073,"stopLon":-121.77878,"zoneID":"","parentStation":""},"881564":{"stopID":"881564","stopName":"Stanley Blvd & Valley Memorial Hospital","stopLat":37.67926,"stopLon":-121.78155,"zoneID":"","parentStation":""},"881565":{"stopID":"881565","stopName":"Stanley Blvd & Wall St","stopLat":37.67775,"stopLon":-121.79181,"zoneID":"","parentStation":""},"881566":{"stopID":"881566","stopName":"Stanley Blvd & Murdell Ln","stopLat":37.6768,"stopLon":-121.80052,"zoneID":"","parentStation":""},"881567":{"stopID":"881567","stopName":"Fourth St & M St","stopLat":37.6783,"stopLon":-121.772,"zoneID":"","parentStation":""},"881568":{"stopID":"881568","stopName":"Fourth St & P St","stopLat":37.67751,"stopLon":-121.77456,"zoneID":"","parentStation":""},"881586":{"stopID":"881586","stopName":"Fourth St & P St","stopLat":37.67729,"stopLon":-121.7748,"zoneID":"","parentStation":""},"881587":{"stopID":"881587","stopName":"Fourth St & M St","stopLat":37.67823,"stopLon":-121.77162,"zoneID":"","parentStation":""},"881610":{"stopID":"881610","stopName":"East Ave & Seventh St","stopLat":37.67988,"stopLon":-121.761,"zoneID":"","parentStation":""},"881611":{"stopID":"881611","stopName":"East Ave & Dolores St","stopLat":37.67985,"stopLon":-121.75662,"zoneID":"","parentStation":""},"881612":{"stopID":"881612","stopName":"East Ave & East Avenue Middle School","stopLat":37.67983,"stopLon":-121.75067,"zoneID":"","parentStation":""},"881615":{"stopID":"881615","stopName":"East Ave & Buena Vista Ave","stopLat":37.67977,"stopLon":-121.73736,"zoneID":"","parentStation":""},"881616":{"stopID":"881616","stopName":"East Ave & Mines Rd","stopLat":37.67972,"stopLon":-121.73076,"zoneID":"","parentStation":""},"881617":{"stopID":"881617","stopName":"East Ave & Charlotte Wy","stopLat":37.67971,"stopLon":-121.72571,"zoneID":"","parentStation":""},"881618":{"stopID":"881618","stopName":"East Ave & Research Dr EB","stopLat":37.67966,"stopLon":-121.72063,"zoneID":"","parentStation":""},"881620":{"stopID":"881620","stopName":"East Ave & South Vasco Rd","stopLat":37.67928,"stopLon":-121.7177,"zoneID":"","parentStation":""},"881623":{"stopID":"881623","stopName":"East Ave & Research Dr WB","stopLat":37.67997,"stopLon":-121.72192,"zoneID":"","parentStation":""},"881624":{"stopID":"881624","stopName":"East Ave & Charlotte Wy","stopLat":37.68001,"stopLon":-121.72567,"zoneID":"","parentStation":""},"881625":{"stopID":"881625","stopName":"East Ave & Mines Rd","stopLat":37.67997,"stopLon":-121.73183,"zoneID":"","parentStation":""},"881626":{"stopID":"881626","stopName":"East Ave & Buena Vista Ave","stopLat":37.68003,"stopLon":-121.73579,"zoneID":"","parentStation":""},"881627":{"stopID":"881627","stopName":"East Ave & Robert Livermore Park","stopLat":37.68006,"stopLon":-121.74086,"zoneID":"","parentStation":""},"881628":{"stopID":"881628","stopName":"East Ave & Hayes Ave","stopLat":37.68002,"stopLon":-121.74703,"zoneID":"","parentStation":""},"881629":{"stopID":"881629","stopName":"East Ave & Estates St","stopLat":37.68011,"stopLon":-121.75192,"zoneID":"","parentStation":""},"881630":{"stopID":"881630","stopName":"East Ave & Dolores St","stopLat":37.68004,"stopLon":-121.7557,"zoneID":"","parentStation":""},"881633":{"stopID":"881633","stopName":"Fourth St  & J St","stopLat":37.67943,"stopLon":-121.76819,"zoneID":"","parentStation":""},"881634":{"stopID":"881634","stopName":"Fourth St & K St","stopLat":37.67912,"stopLon":-121.76869,"zoneID":"","parentStation":""},"881641":{"stopID":"881641","stopName":"Vasco Rd & East Ave","stopLat":37.68044,"stopLon":-121.71848,"zoneID":"","parentStation":""},"881642":{"stopID":"881642","stopName":"Vasco Rd & Mesquite Wy","stopLat":37.68476,"stopLon":-121.7184,"zoneID":"","parentStation":""},"881643":{"stopID":"881643","stopName":"Vasco Rd & Westgate","stopLat":37.69011,"stopLon":-121.7184,"zoneID":"","parentStation":""},"881644":{"stopID":"881644","stopName":"Vasco Rd & Patterson Pass Rd","stopLat":37.69378,"stopLon":-121.71833,"zoneID":"","parentStation":""},"881645":{"stopID":"881645","stopName":"Vasco Rd & Brisa St","stopLat":37.7003,"stopLon":-121.7185,"zoneID":"","parentStation":""},"881647":{"stopID":"881647","stopName":"Vasco Rd & Industrial Wy","stopLat":37.70453,"stopLon":-121.72183,"zoneID":"","parentStation":""},"881649":{"stopID":"881649","stopName":"Maple St & Fourth St","stopLat":37.68201,"stopLon":-121.76401,"zoneID":"","parentStation":""},"881654":{"stopID":"881654","stopName":"Pacific & Dolores EB","stopLat":37.67618,"stopLon":-121.75821,"zoneID":"","parentStation":""},"881655":{"stopID":"881655","stopName":"Dolores St & Pacific Ave","stopLat":37.67669,"stopLon":-121.75695,"zoneID":"","parentStation":""},"881656":{"stopID":"881656","stopName":"Dolores & Carrigan","stopLat":37.67919,"stopLon":-121.75694,"zoneID":"","parentStation":""},"881661":{"stopID":"881661","stopName":"Village Pkwy & Amador Valley Blvd","stopLat":37.7106,"stopLon":-121.92703,"zoneID":"","parentStation":""},"881662":{"stopID":"881662","stopName":"Village Pkwy & Tamarack  Dr","stopLat":37.71523,"stopLon":-121.92681,"zoneID":"","parentStation":""},"881663":{"stopID":"881663","stopName":"Dhs - Village Pkwy & Brighton Dr","stopLat":37.71912,"stopLon":-121.92649,"zoneID":"","parentStation":""},"881664":{"stopID":"881664","stopName":"Dhs - Village Pkwy & Davona Dr","stopLat":37.72163,"stopLon":-121.92632,"zoneID":"","parentStation":""},"881665":{"stopID":"881665","stopName":"Davona Dr & Briarwood Ln","stopLat":37.72162,"stopLon":-121.92883,"zoneID":"","parentStation":""},"881666":{"stopID":"881666","stopName":"Davona Dr & Lucania St","stopLat":37.72149,"stopLon":-121.93161,"zoneID":"","parentStation":""},"881667":{"stopID":"881667","stopName":"Davona Dr & Wicklow Ln","stopLat":37.72101,"stopLon":-121.93485,"zoneID":"","parentStation":""},"881668":{"stopID":"881668","stopName":"Davona Dr & Wicklow Ln","stopLat":37.72268,"stopLon":-121.93624,"zoneID":"","parentStation":""},"881679":{"stopID":"881679","stopName":"Amador Valley Blvd & Stagecoach Rd","stopLat":37.71732,"stopLon":-121.9144,"zoneID":"","parentStation":""},"881687":{"stopID":"881687","stopName":"Dougherty Rd & Mariposa Cir","stopLat":37.71561,"stopLon":-121.9104,"zoneID":"","parentStation":""},"881688":{"stopID":"881688","stopName":"Dougherty Rd & North Apartments","stopLat":37.71182,"stopLon":-121.91048,"zoneID":"","parentStation":""},"881689":{"stopID":"881689","stopName":"Dougherty Rd & Sierra Ln","stopLat":37.70689,"stopLon":-121.91048,"zoneID":"","parentStation":""},"881690":{"stopID":"881690","stopName":"Dougherty Rd & Dublin Blvd","stopLat":37.70544,"stopLon":-121.90989,"zoneID":"","parentStation":""},"881696":{"stopID":"881696","stopName":"Amador Valley Blvd & Wildwood Rd","stopLat":37.71834,"stopLon":-121.91301,"zoneID":"","parentStation":""},"881697":{"stopID":"881697","stopName":"Amador Valley Blvd & Stagecoach Rd","stopLat":37.71739,"stopLon":-121.91457,"zoneID":"","parentStation":""},"881710":{"stopID":"881710","stopName":"Davona Dr & Wicklow Ln","stopLat":37.7229,"stopLon":-121.93656,"zoneID":"","parentStation":""},"881711":{"stopID":"881711","stopName":"Davona Dr & Wicklow Ln","stopLat":37.72101,"stopLon":-121.93513,"zoneID":"","parentStation":""},"881713":{"stopID":"881713","stopName":"Davona Dr & Luciana St","stopLat":37.72137,"stopLon":-121.93146,"zoneID":"","parentStation":""},"881714":{"stopID":"881714","stopName":"Village Pkwy & Davona Dr","stopLat":37.72166,"stopLon":-121.92661,"zoneID":"","parentStation":""},"881715":{"stopID":"881715","stopName":"Village Pkwy & Brighton Dr","stopLat":37.71829,"stopLon":-121.92685,"zoneID":"","parentStation":""},"881723":{"stopID":"881723","stopName":"Silvergate Dr & Betlen Dr NB","stopLat":37.70104,"stopLon":-121.94489,"zoneID":"","parentStation":""},"881724":{"stopID":"881724","stopName":"Silvergate Dr & Hansen Dr EB","stopLat":37.70364,"stopLon":-121.94584,"zoneID":"","parentStation":""},"881726":{"stopID":"881726","stopName":"Silvergate Dr & Rolling Hills Cir EB","stopLat":37.70663,"stopLon":-121.94647,"zoneID":"","parentStation":""},"881728":{"stopID":"881728","stopName":"Peppertree Rd & Silvergate Dr WB","stopLat":37.71036,"stopLon":-121.94182,"zoneID":"","parentStation":""},"881729":{"stopID":"881729","stopName":"Peppertree Rd & Shannon Ave","stopLat":37.71337,"stopLon":-121.94286,"zoneID":"","parentStation":""},"881730":{"stopID":"881730","stopName":"Shannon Park","stopLat":37.71364,"stopLon":-121.94142,"zoneID":"","parentStation":""},"881732":{"stopID":"881732","stopName":"Shannon Park WB","stopLat":37.71375,"stopLon":-121.9415,"zoneID":"","parentStation":""},"881733":{"stopID":"881733","stopName":"Peppertree Rd & Juarez Rd","stopLat":37.71269,"stopLon":-121.94296,"zoneID":"","parentStation":""},"881734":{"stopID":"881734","stopName":"Peppertree Rd & Silvergate Dr","stopLat":37.70952,"stopLon":-121.94189,"zoneID":"","parentStation":""},"881735":{"stopID":"881735","stopName":"Silvergate Dr & Amarillo Rd","stopLat":37.70935,"stopLon":-121.94397,"zoneID":"","parentStation":""},"881736":{"stopID":"881736","stopName":"Silvergate Dr & Rolling Hills Dr WB","stopLat":37.70687,"stopLon":-121.94668,"zoneID":"","parentStation":""},"881737":{"stopID":"881737","stopName":"Silvergate Dr & Hansen Dr","stopLat":37.70359,"stopLon":-121.94605,"zoneID":"","parentStation":""},"881738":{"stopID":"881738","stopName":"Silvergate Dr & Betlen Dr SB","stopLat":37.7011,"stopLon":-121.94522,"zoneID":"","parentStation":""},"881740":{"stopID":"881740","stopName":"Dublin Blvd & Golden Gate Dr EB","stopLat":37.70414,"stopLon":-121.92909,"zoneID":"","parentStation":""},"881741":{"stopID":"881741","stopName":"Dublin Blvd & Clark Ave EB","stopLat":37.70543,"stopLon":-121.92095,"zoneID":"","parentStation":""},"881742":{"stopID":"881742","stopName":"Dublin Blvd & Civic Plaza","stopLat":37.70406,"stopLon":-121.91486,"zoneID":"","parentStation":""},"881743":{"stopID":"881743","stopName":"Dublin Blvd & Dublin Ct EB","stopLat":37.70384,"stopLon":-121.91128,"zoneID":"","parentStation":""},"881744":{"stopID":"881744","stopName":"Dublin Blvd & Dublin Ct WB","stopLat":37.70448,"stopLon":-121.91087,"zoneID":"","parentStation":""},"881745":{"stopID":"881745","stopName":"Dublin Blvd & Sierra Ct","stopLat":37.70475,"stopLon":-121.91674,"zoneID":"","parentStation":""},"881747":{"stopID":"881747","stopName":"Dublin Blvd & Village Pkwy WB","stopLat":37.70581,"stopLon":-121.92469,"zoneID":"","parentStation":""},"881748":{"stopID":"881748","stopName":"Hacienda Dr & Dublin Blvd","stopLat":37.70694,"stopLon":-121.88782,"zoneID":"","parentStation":""},"881749":{"stopID":"881749","stopName":"Hacienda Dr & Summer Glen Dr","stopLat":37.71081,"stopLon":-121.88786,"zoneID":"","parentStation":""},"881750":{"stopID":"881750","stopName":"Hacienda Dr & Gleason Dr","stopLat":37.7136,"stopLon":-121.88782,"zoneID":"","parentStation":""},"881751":{"stopID":"881751","stopName":"Madigan Ave & Broder Blvd","stopLat":37.71579,"stopLon":-121.88331,"zoneID":"","parentStation":""},"881752":{"stopID":"881752","stopName":"Broder Blvd & Santa Rita Jail","stopLat":37.71603,"stopLon":-121.88797,"zoneID":"","parentStation":""},"881753":{"stopID":"881753","stopName":"Gleason Dr & Arnold Rd","stopLat":37.71382,"stopLon":-121.89181,"zoneID":"","parentStation":""},"881754":{"stopID":"881754","stopName":"Gleason Dr & Hacienda Dr","stopLat":37.71381,"stopLon":-121.88949,"zoneID":"","parentStation":""},"881755":{"stopID":"881755","stopName":"Hacienda Dr & Central Pkwy","stopLat":37.70933,"stopLon":-121.88819,"zoneID":"","parentStation":""},"881757":{"stopID":"881757","stopName":"Dublin Blvd & Myrtle Dr","stopLat":37.70619,"stopLon":-121.8814,"zoneID":"","parentStation":""},"881758":{"stopID":"881758","stopName":"Dublin Blvd & Hybernia","stopLat":37.70639,"stopLon":-121.886,"zoneID":"","parentStation":""},"881759":{"stopID":"881759","stopName":"Dublin Blvd & Hibernia Dr","stopLat":37.70609,"stopLon":-121.8846,"zoneID":"","parentStation":""},"881760":{"stopID":"881760","stopName":"Dublin Blvd & Myrtle Dr","stopLat":37.70548,"stopLon":-121.87955,"zoneID":"","parentStation":""},"881761":{"stopID":"881761","stopName":"Dublin Blvd & John Monego Ct","stopLat":37.70549,"stopLon":-121.87631,"zoneID":"","parentStation":""},"881763":{"stopID":"881763","stopName":"Stoneridge Mall","stopLat":37.69637,"stopLon":-121.93035,"zoneID":"","parentStation":""},"881764":{"stopID":"881764","stopName":"5526   Springdale Ave","stopLat":37.69116,"stopLon":-121.92577,"zoneID":"","parentStation":""},"881766":{"stopID":"881766","stopName":"Stoneridge Mall Rd & Embarcadero Ct","stopLat":37.69594,"stopLon":-121.92535,"zoneID":"","parentStation":""},"881778":{"stopID":"881778","stopName":"Stoneridge Dr & Franklin Dr","stopLat":37.69094,"stopLon":-121.90766,"zoneID":"","parentStation":""},"881779":{"stopID":"881779","stopName":"Stoneridge Dr & Hopyard Rd","stopLat":37.69166,"stopLon":-121.90537,"zoneID":"","parentStation":""},"881799":{"stopID":"881799","stopName":"Rosewood Dr & Owens Dr","stopLat":37.69671,"stopLon":-121.8858,"zoneID":"","parentStation":""},"881803":{"stopID":"881803","stopName":"Owens Dr & Chabot Dr","stopLat":37.6996,"stopLon":-121.90223,"zoneID":"","parentStation":""},"881804":{"stopID":"881804","stopName":"Willow Rd  & Owens Dr","stopLat":37.69839,"stopLon":-121.89802,"zoneID":"","parentStation":""},"881806":{"stopID":"881806","stopName":"Owens Dr & Chabot Dr","stopLat":37.7001,"stopLon":-121.9005,"zoneID":"","parentStation":""},"881809":{"stopID":"881809","stopName":"Owens Dr & Hacienda Dr EB","stopLat":37.69691,"stopLon":-121.88847,"zoneID":"","parentStation":""},"881810":{"stopID":"881810","stopName":"Owens Dr & Rosewood Dr EB","stopLat":37.69553,"stopLon":-121.8865,"zoneID":"","parentStation":""},"881811":{"stopID":"881811","stopName":"Owens Dr & Las Positas Blvd EB","stopLat":37.6924,"stopLon":-121.88327,"zoneID":"","parentStation":""},"881812":{"stopID":"881812","stopName":"Las Positas Blvd & Santa Rita Rd EB","stopLat":37.69194,"stopLon":-121.87971,"zoneID":"","parentStation":""},"881813":{"stopID":"881813","stopName":"Santa Rita Rd & Stoneridge Dr EB","stopLat":37.68684,"stopLon":-121.87766,"zoneID":"","parentStation":""},"881814":{"stopID":"881814","stopName":"Santa Rita Rd & Mohr Ave EB","stopLat":37.68123,"stopLon":-121.8757,"zoneID":"","parentStation":""},"881816":{"stopID":"881816","stopName":"Santa Rita Rd & Valley Ave EB","stopLat":37.67587,"stopLon":-121.8738,"zoneID":"","parentStation":""},"881817":{"stopID":"881817","stopName":"Santa Rita Rd & Nevis St","stopLat":37.67156,"stopLon":-121.87279,"zoneID":"","parentStation":""},"881818":{"stopID":"881818","stopName":"Santa Rita Rd & Amador Valley High School EB","stopLat":37.66832,"stopLon":-121.87326,"zoneID":"","parentStation":""},"881819":{"stopID":"881819","stopName":"Santa Rita Rd & Del Valle Pkwy","stopLat":37.6657,"stopLon":-121.87383,"zoneID":"","parentStation":""},"881820":{"stopID":"881820","stopName":"Peters Ave & Division St","stopLat":37.66177,"stopLon":-121.87687,"zoneID":"","parentStation":""},"881821":{"stopID":"881821","stopName":"Neal St & First St EB","stopLat":37.6598,"stopLon":-121.87405,"zoneID":"","parentStation":""},"881822":{"stopID":"881822","stopName":"First St & Kottinger Dr","stopLat":37.66216,"stopLon":-121.87082,"zoneID":"","parentStation":""},"881823":{"stopID":"881823","stopName":"Stanley Blvd & California Ave","stopLat":37.66871,"stopLon":-121.86278,"zoneID":"","parentStation":""},"881824":{"stopID":"881824","stopName":"Stanley Blvd & Bernal Ave","stopLat":37.67035,"stopLon":-121.85619,"zoneID":"","parentStation":""},"881825":{"stopID":"881825","stopName":"Stanley Blvd & Shadow Cliffs","stopLat":37.67182,"stopLon":-121.84433,"zoneID":"","parentStation":""},"881826":{"stopID":"881826","stopName":"Stanley Blvd & Shadow Cliffs","stopLat":37.67198,"stopLon":-121.84482,"zoneID":"","parentStation":""},"881827":{"stopID":"881827","stopName":"Stanley Blvd & California Ave","stopLat":37.66895,"stopLon":-121.86296,"zoneID":"","parentStation":""},"881828":{"stopID":"881828","stopName":"First St & Ray St","stopLat":37.66252,"stopLon":-121.87069,"zoneID":"","parentStation":""},"881829":{"stopID":"881829","stopName":"Neal St & First St","stopLat":37.6598,"stopLon":-121.87397,"zoneID":"","parentStation":""},"881830":{"stopID":"881830","stopName":"Peters St & St Mary St","stopLat":37.66269,"stopLon":-121.87631,"zoneID":"","parentStation":""},"881831":{"stopID":"881831","stopName":"Main St & Vervais Ave","stopLat":37.66555,"stopLon":-121.87355,"zoneID":"","parentStation":""},"881832":{"stopID":"881832","stopName":"Santa Rita Rd & Amador High","stopLat":37.66859,"stopLon":-121.87306,"zoneID":"","parentStation":""},"881833":{"stopID":"881833","stopName":"Santa Rita Rd & Black Ave","stopLat":37.67254,"stopLon":-121.87243,"zoneID":"","parentStation":""},"881835":{"stopID":"881835","stopName":"Santa Rita Rd & Valley Ave","stopLat":37.67757,"stopLon":-121.87401,"zoneID":"","parentStation":""},"881836":{"stopID":"881836","stopName":"Santa Rita Rd & Mohr Ave","stopLat":37.68229,"stopLon":-121.87567,"zoneID":"","parentStation":""},"881837":{"stopID":"881837","stopName":"Santa Rita Rd & Sutter Gate Ave","stopLat":37.68569,"stopLon":-121.87686,"zoneID":"","parentStation":""},"881838":{"stopID":"881838","stopName":"Santa Rita Rd & Stoneridge Dr","stopLat":37.68841,"stopLon":-121.8777,"zoneID":"","parentStation":""},"881839":{"stopID":"881839","stopName":"Las Positas Blvd & Santa Rita Rd","stopLat":37.69221,"stopLon":-121.87967,"zoneID":"","parentStation":""},"881840":{"stopID":"881840","stopName":"Owens & Andrews","stopLat":37.69335,"stopLon":-121.8837,"zoneID":"","parentStation":""},"881841":{"stopID":"881841","stopName":"Owens & Rosewood","stopLat":37.69662,"stopLon":-121.88732,"zoneID":"","parentStation":""},"881842":{"stopID":"881842","stopName":"Owens & Hacienda","stopLat":37.69847,"stopLon":-121.88983,"zoneID":"","parentStation":""},"881843":{"stopID":"881843","stopName":"Rosewood Commons","stopLat":37.69799,"stopLon":-121.88409,"zoneID":"","parentStation":""},"881844":{"stopID":"881844","stopName":"5057   Hopyard Rd","stopLat":37.69557,"stopLon":-121.90384,"zoneID":"","parentStation":""},"881845":{"stopID":"881845","stopName":"4861   Hopyard Rd","stopLat":37.69269,"stopLon":-121.90388,"zoneID":"","parentStation":""},"881846":{"stopID":"881846","stopName":"4393   Hopyard Rd","stopLat":37.68717,"stopLon":-121.90391,"zoneID":"","parentStation":""},"881847":{"stopID":"881847","stopName":"Hopyard Rd & Las Positas Blvd","stopLat":37.68241,"stopLon":-121.90413,"zoneID":"","parentStation":""},"881848":{"stopID":"881848","stopName":"Hopyard Rd & Valley Trails Dr","stopLat":37.67792,"stopLon":-121.90051,"zoneID":"","parentStation":""},"881851":{"stopID":"881851","stopName":"Harvest Park Middle School","stopLat":37.67657,"stopLon":-121.882,"zoneID":"","parentStation":""},"881852":{"stopID":"881852","stopName":"Sunol Blvd & Mission Pkwy","stopLat":37.6524,"stopLon":-121.88029,"zoneID":"","parentStation":""},"881853":{"stopID":"881853","stopName":"5220 Case Ave","stopLat":37.65255,"stopLon":-121.88416,"zoneID":"","parentStation":""},"881854":{"stopID":"881854","stopName":"Case Ave  & Bernal Ave","stopLat":37.65628,"stopLon":-121.88155,"zoneID":"","parentStation":""},"881855":{"stopID":"881855","stopName":"7052   Valley Ave","stopLat":37.66051,"stopLon":-121.89691,"zoneID":"","parentStation":""},"881856":{"stopID":"881856","stopName":"6917   Valley Ave","stopLat":37.66341,"stopLon":-121.89715,"zoneID":"","parentStation":""},"881857":{"stopID":"881857","stopName":"6269   Valley Ave","stopLat":37.66745,"stopLon":-121.89767,"zoneID":"","parentStation":""},"881858":{"stopID":"881858","stopName":"Valley Ave  & Hansen Dr","stopLat":37.67027,"stopLon":-121.89897,"zoneID":"","parentStation":""},"881859":{"stopID":"881859","stopName":"Hopyard Rd & Parkside Dr","stopLat":37.6773,"stopLon":-121.89893,"zoneID":"","parentStation":""},"881860":{"stopID":"881860","stopName":"Hopyard Rd & Las Positas Blvd","stopLat":37.68274,"stopLon":-121.90357,"zoneID":"","parentStation":""},"881861":{"stopID":"881861","stopName":"4837   Hopyard Rd","stopLat":37.69092,"stopLon":-121.90346,"zoneID":"","parentStation":""},"881862":{"stopID":"881862","stopName":"Hopyard Rd & Stoneridge Dr","stopLat":37.69251,"stopLon":-121.90342,"zoneID":"","parentStation":""},"881863":{"stopID":"881863","stopName":"Hopyard Rd & Gibraltar Dr","stopLat":37.69654,"stopLon":-121.90334,"zoneID":"","parentStation":""},"881864":{"stopID":"881864","stopName":"Las Positas Blvd & Stoneridge Dr","stopLat":37.68822,"stopLon":-121.88627,"zoneID":"","parentStation":""},"881865":{"stopID":"881865","stopName":"Kottinger Dr & Adams Wy","stopLat":37.65932,"stopLon":-121.86416,"zoneID":"","parentStation":""},"881866":{"stopID":"881866","stopName":"5753 Las Positas Blvd","stopLat":37.68621,"stopLon":-121.89165,"zoneID":"","parentStation":""},"881867":{"stopID":"881867","stopName":"Las Positas Blvd & Tassajara Creek","stopLat":37.68706,"stopLon":-121.88945,"zoneID":"","parentStation":""},"881868":{"stopID":"881868","stopName":"Las Positas Blvd & Hacienda Dr","stopLat":37.68484,"stopLon":-121.89545,"zoneID":"","parentStation":""},"881869":{"stopID":"881869","stopName":"Las Positas Blvd & Willow Rd","stopLat":37.68362,"stopLon":-121.89914,"zoneID":"","parentStation":""},"881870":{"stopID":"881870","stopName":"Las Positas Blvd & Hopyard Rd","stopLat":37.68204,"stopLon":-121.90262,"zoneID":"","parentStation":""},"881871":{"stopID":"881871","stopName":"Valley Ave & Paseo Santa Cruz","stopLat":37.67458,"stopLon":-121.89859,"zoneID":"","parentStation":""},"881872":{"stopID":"881872","stopName":"Valley Ave & Via De Los Cerros","stopLat":37.67107,"stopLon":-121.89949,"zoneID":"","parentStation":""},"881873":{"stopID":"881873","stopName":"Valley Ave & Hansen Dr","stopLat":37.66943,"stopLon":-121.899,"zoneID":"","parentStation":""},"881874":{"stopID":"881874","stopName":"Valley Ave & Koll Center Pkwy","stopLat":37.66079,"stopLon":-121.89723,"zoneID":"","parentStation":""},"881875":{"stopID":"881875","stopName":"Case Ave & Bernal Ave","stopLat":37.65642,"stopLon":-121.88178,"zoneID":"","parentStation":""},"881877":{"stopID":"881877","stopName":"Sunol Blvd & Mission Dr","stopLat":37.65299,"stopLon":-121.87985,"zoneID":"","parentStation":""},"881878":{"stopID":"881878","stopName":"Vineyard Ave & Regalia Ct","stopLat":37.66303,"stopLon":-121.86784,"zoneID":"","parentStation":""},"881880":{"stopID":"881880","stopName":"Vineyard Ave & Mavis Dr","stopLat":37.66283,"stopLon":-121.86078,"zoneID":"","parentStation":""},"881881":{"stopID":"881881","stopName":"Bernal Ave & Palomino Dr","stopLat":37.66129,"stopLon":-121.85751,"zoneID":"","parentStation":""},"881882":{"stopID":"881882","stopName":"Kottinger Dr & Bernal Ave","stopLat":37.65683,"stopLon":-121.85972,"zoneID":"","parentStation":""},"881883":{"stopID":"881883","stopName":"Kottinger & Salvador","stopLat":37.6583,"stopLon":-121.86043,"zoneID":"","parentStation":""},"881884":{"stopID":"881884","stopName":"Kottinger Dr & Sharab Ct","stopLat":37.65848,"stopLon":-121.86198,"zoneID":"","parentStation":""},"881886":{"stopID":"881886","stopName":"Kottinger Dr & Amaral Cir","stopLat":37.66034,"stopLon":-121.86652,"zoneID":"","parentStation":""},"881887":{"stopID":"881887","stopName":"Kottinger Dr & Second St","stopLat":37.66164,"stopLon":-121.86958,"zoneID":"","parentStation":""},"881888":{"stopID":"881888","stopName":"Valley Ave & Santa Rita Rd","stopLat":37.67679,"stopLon":-121.87582,"zoneID":"","parentStation":""},"881892":{"stopID":"881892","stopName":"Las Positas Blvd & Hopyard Rd","stopLat":37.68171,"stopLon":-121.90261,"zoneID":"","parentStation":""},"881893":{"stopID":"881893","stopName":"Las Positas Blvd & Willow Rd","stopLat":37.68376,"stopLon":-121.89781,"zoneID":"","parentStation":""},"881894":{"stopID":"881894","stopName":"Las Positas Blvd & Hacienda Dr","stopLat":37.68501,"stopLon":-121.89385,"zoneID":"","parentStation":""},"881895":{"stopID":"881895","stopName":"Las Positas Blvd & Stoneridge Dr","stopLat":37.68901,"stopLon":-121.88449,"zoneID":"","parentStation":""},"881896":{"stopID":"881896","stopName":"Hacienda Dr & Owens Dr","stopLat":37.69729,"stopLon":-121.89024,"zoneID":"","parentStation":""},"881897":{"stopID":"881897","stopName":"Hacienda Dr & Gibraltar Dr","stopLat":37.69478,"stopLon":-121.8947,"zoneID":"","parentStation":""},"881898":{"stopID":"881898","stopName":"Stoneridge Dr & Hacienda Dr","stopLat":37.69149,"stopLon":-121.89354,"zoneID":"","parentStation":""},"881901":{"stopID":"881901","stopName":"Willow Rd & Gibralter Dr","stopLat":37.68592,"stopLon":-121.89832,"zoneID":"","parentStation":""},"881903":{"stopID":"881903","stopName":"Stoneridge Dr & Chabot Dr","stopLat":37.69131,"stopLon":-121.90077,"zoneID":"","parentStation":""},"881904":{"stopID":"881904","stopName":"Willow Rd & Stoneridge Dr NB","stopLat":37.69189,"stopLon":-121.89821,"zoneID":"","parentStation":""},"881905":{"stopID":"881905","stopName":"Willow Rd & Gibraltar Dr","stopLat":37.69626,"stopLon":-121.89814,"zoneID":"","parentStation":""},"881908":{"stopID":"881908","stopName":"Willow Rd & Owens Dr","stopLat":37.69887,"stopLon":-121.89836,"zoneID":"","parentStation":""},"881911":{"stopID":"881911","stopName":"Stoneridge Dr & Willow Rd","stopLat":37.69158,"stopLon":-121.89907,"zoneID":"","parentStation":""},"881914":{"stopID":"881914","stopName":"Willow Rd & Gibralter Dr","stopLat":37.69538,"stopLon":-121.89839,"zoneID":"","parentStation":""},"881917":{"stopID":"881917","stopName":"Stoneridge Dr & Gibraltar Dr","stopLat":37.69204,"stopLon":-121.8927,"zoneID":"","parentStation":""},"881918":{"stopID":"881918","stopName":"Hacienda Dr & Stoneridge Dr","stopLat":37.69234,"stopLon":-121.89471,"zoneID":"","parentStation":""},"881919":{"stopID":"881919","stopName":"Hacienda Dr & Gibraltar Dr","stopLat":37.69585,"stopLon":-121.89303,"zoneID":"","parentStation":""},"881935":{"stopID":"881935","stopName":"Olivina Ave & P St","stopLat":37.68308,"stopLon":-121.77925,"zoneID":"","parentStation":""},"881937":{"stopID":"881937","stopName":"Olivina Ave & Rincon Ave","stopLat":37.68301,"stopLon":-121.78365,"zoneID":"","parentStation":""},"881940":{"stopID":"881940","stopName":"Olivina Ave & Meadowlark St","stopLat":37.68294,"stopLon":-121.78877,"zoneID":"","parentStation":""},"881946":{"stopID":"881946","stopName":"First St & Portola Ave","stopLat":37.6901,"stopLon":-121.75378,"zoneID":"","parentStation":""},"881951":{"stopID":"881951","stopName":"South P St & Railroad Ave","stopLat":37.68083,"stopLon":-121.77692,"zoneID":"","parentStation":""},"881952":{"stopID":"881952","stopName":"First St & Neal St","stopLat":37.65934,"stopLon":-121.87394,"zoneID":"","parentStation":""},"881957":{"stopID":"881957","stopName":"Scenic Ave & Ridgestone Rd","stopLat":37.71708,"stopLon":-121.72142,"zoneID":"","parentStation":""},"882005":{"stopID":"882005","stopName":"Pleasant Hill BART","stopLat":37.92891,"stopLon":-122.05518,"zoneID":"","parentStation":""},"882019":{"stopID":"882019","stopName":"Ruby Hill Dr & Varese Ct","stopLat":37.64985,"stopLon":-121.81063,"zoneID":"","parentStation":""},"882050":{"stopID":"882050","stopName":"Stoneridge Dr & Las Positas Blvd","stopLat":37.68926,"stopLon":-121.88551,"zoneID":"","parentStation":""},"882063":{"stopID":"882063","stopName":"Foothill High School","stopLat":37.67179,"stopLon":-121.91996,"zoneID":"","parentStation":""},"882101":{"stopID":"882101","stopName":"Jorgensen Ln & Lylewood Dr","stopLat":37.65749,"stopLon":-121.90817,"zoneID":"","parentStation":""},"882143":{"stopID":"882143","stopName":"Dublin Blvd & Hacienda Dr","stopLat":37.70643,"stopLon":-121.88857,"zoneID":"","parentStation":""},"882151":{"stopID":"882151","stopName":"Mines Rd & First St","stopLat":37.69371,"stopLon":-121.7465,"zoneID":"","parentStation":""},"882159":{"stopID":"882159","stopName":"North Dublin Ranch Dr & Shadow  Hill Dr","stopLat":37.71962,"stopLon":-121.87073,"zoneID":"","parentStation":""},"882163":{"stopID":"882163","stopName":"Pleasanton Middle School","stopLat":37.65291,"stopLon":-121.8842,"zoneID":"","parentStation":""},"882166":{"stopID":"882166","stopName":"Harvest Park Middle School & Greenwood Rd","stopLat":37.67539,"stopLon":-121.88052,"zoneID":"","parentStation":""},"882197":{"stopID":"882197","stopName":"Vasco Rd & Patterson Pass Rd","stopLat":37.69375,"stopLon":-121.71882,"zoneID":"","parentStation":""},"882198":{"stopID":"882198","stopName":"Vasco Rd & Daphne Dr","stopLat":37.68841,"stopLon":-121.71882,"zoneID":"","parentStation":""},"882199":{"stopID":"882199","stopName":"Vasco Rd & Emily Wy","stopLat":37.68307,"stopLon":-121.71884,"zoneID":"","parentStation":""},"882201":{"stopID":"882201","stopName":"Mines Rd & Dana Cir NB","stopLat":37.68146,"stopLon":-121.73332,"zoneID":"","parentStation":""},"882202":{"stopID":"882202","stopName":"Mines Rd & Patterson Pass Rd","stopLat":37.6892,"stopLon":-121.74132,"zoneID":"","parentStation":""},"882203":{"stopID":"882203","stopName":"Mines Rd & Patterson Pass Rd","stopLat":37.68874,"stopLon":-121.74093,"zoneID":"","parentStation":""},"882204":{"stopID":"882204","stopName":"Mines Rd & Dana Cir SB","stopLat":37.68463,"stopLon":-121.73571,"zoneID":"","parentStation":""},"882205":{"stopID":"882205","stopName":"Mines Rd & Dana South","stopLat":37.68175,"stopLon":-121.73388,"zoneID":"","parentStation":""},"882206":{"stopID":"882206","stopName":"Garaventa Ranch Rd & Periwinkle Com","stopLat":37.72266,"stopLon":-121.72141,"zoneID":"","parentStation":""},"882207":{"stopID":"882207","stopName":"Garaventa Ranch Rd & Maralisa Ln","stopLat":37.72231,"stopLon":-121.71864,"zoneID":"","parentStation":""},"882208":{"stopID":"882208","stopName":"Garaventa Ranch Rd & Scenic Ave","stopLat":37.7172,"stopLon":-121.71749,"zoneID":"","parentStation":""},"882210":{"stopID":"882210","stopName":"Ruby Hill Dr & Brindisi Pl","stopLat":37.6324,"stopLon":-121.80437,"zoneID":"","parentStation":""},"882211":{"stopID":"882211","stopName":"Ruby Hill Dr & Donata Ct","stopLat":37.63656,"stopLon":-121.79997,"zoneID":"","parentStation":""},"882212":{"stopID":"882212","stopName":"Ruby Hill Rd & Vantini Wy","stopLat":37.6429,"stopLon":-121.80308,"zoneID":"","parentStation":""},"882214":{"stopID":"882214","stopName":"Vineyard Ave & El Capitan Dr","stopLat":37.66499,"stopLon":-121.84539,"zoneID":"","parentStation":""},"882215":{"stopID":"882215","stopName":"Vinyard Ave & Touriga Dr","stopLat":37.6649,"stopLon":-121.8525,"zoneID":"","parentStation":""},"882216":{"stopID":"882216","stopName":"Bernal Ave & Kottinger Dr","stopLat":37.65595,"stopLon":-121.85937,"zoneID":"","parentStation":""},"882217":{"stopID":"882217","stopName":"Bernal Ave & Independence St","stopLat":37.65241,"stopLon":-121.86924,"zoneID":"","parentStation":""},"882218":{"stopID":"882218","stopName":"Ruby Hill Dr &  Romano Cir","stopLat":37.64044,"stopLon":-121.81736,"zoneID":"","parentStation":""},"882219":{"stopID":"882219","stopName":"Ruby Hill Dr & Romano Cir","stopLat":37.63826,"stopLon":-121.81478,"zoneID":"","parentStation":""},"882228":{"stopID":"882228","stopName":"Willow Rd & Gibraltar Dr","stopLat":37.69616,"stopLon":-121.89837,"zoneID":"","parentStation":""},"882232":{"stopID":"882232","stopName":"Mines Rd & Charlotte Wy","stopLat":37.68653,"stopLon":-121.73743,"zoneID":"","parentStation":""},"882233":{"stopID":"882233","stopName":"Stanley Blvd & Stanley Blvd","stopLat":37.66636,"stopLon":-121.86679,"zoneID":"","parentStation":""},"882234":{"stopID":"882234","stopName":"Las Positas Blvd & Hacienda Dr","stopLat":37.68541,"stopLon":-121.89371,"zoneID":"","parentStation":""},"882237":{"stopID":"882237","stopName":"Tawny Dr & Norton Wy","stopLat":37.66288,"stopLon":-121.85575,"zoneID":"","parentStation":""},"882238":{"stopID":"882238","stopName":"Madeira Dr & Sylvaner Dr","stopLat":37.66012,"stopLon":-121.84994,"zoneID":"","parentStation":""},"882239":{"stopID":"882239","stopName":"Crellin  Rd & Cresta Blanca Dr","stopLat":37.65849,"stopLon":-121.84505,"zoneID":"","parentStation":""},"882241":{"stopID":"882241","stopName":"Tawny Dr & Tawny Park","stopLat":37.66319,"stopLon":-121.85468,"zoneID":"","parentStation":""},"882242":{"stopID":"882242","stopName":"Hansen Dr & Calle Reynoso","stopLat":37.66864,"stopLon":-121.90267,"zoneID":"","parentStation":""},"882244":{"stopID":"882244","stopName":"Hansen Dr & Del Prado Park","stopLat":37.66842,"stopLon":-121.90689,"zoneID":"","parentStation":""},"882248":{"stopID":"882248","stopName":"Hansen Dr & Valley Ave","stopLat":37.66967,"stopLon":-121.89939,"zoneID":"","parentStation":""},"882251":{"stopID":"882251","stopName":"Hansen Dr & Valley Ave","stopLat":37.66896,"stopLon":-121.90139,"zoneID":"","parentStation":""},"882253":{"stopID":"882253","stopName":"Bernal Ave & Independence St","stopLat":37.65248,"stopLon":-121.86995,"zoneID":"","parentStation":""},"882255":{"stopID":"882255","stopName":"Bernal Ave & Palomino Dr","stopLat":37.66087,"stopLon":-121.85741,"zoneID":"","parentStation":""},"882256":{"stopID":"882256","stopName":"Vinyard Ave & Touriga Dr","stopLat":37.66474,"stopLon":-121.85182,"zoneID":"","parentStation":""},"882257":{"stopID":"882257","stopName":"Vineyard Ave & Montevino Dr","stopLat":37.66473,"stopLon":-121.84813,"zoneID":"","parentStation":""},"882273":{"stopID":"882273","stopName":"Pleasanton Ave & Fairgrounds Rd","stopLat":37.65885,"stopLon":-121.8826,"zoneID":"","parentStation":""},"882274":{"stopID":"882274","stopName":"Walnut Creek BART Station","stopLat":37.90543,"stopLon":-122.06857,"zoneID":"","parentStation":""},"882275":{"stopID":"882275","stopName":"Gleason Dr & Emerald Glen Park","stopLat":37.71275,"stopLon":-121.87446,"zoneID":"","parentStation":""},"882276":{"stopID":"882276","stopName":"Paseo Santa Cruz & Valley Ave","stopLat":37.67443,"stopLon":-121.89928,"zoneID":"","parentStation":""},"882277":{"stopID":"882277","stopName":"Paseo Santa Cruz & Valley Ave","stopLat":37.66687,"stopLon":-121.89876,"zoneID":"","parentStation":""},"882278":{"stopID":"882278","stopName":"Paseo Santa Cruz & Calle Altamira","stopLat":37.6653,"stopLon":-121.90533,"zoneID":"","parentStation":""},"882280":{"stopID":"882280","stopName":"Paseo Santa Cruz  & Corte Mercado","stopLat":37.6664,"stopLon":-121.90647,"zoneID":"","parentStation":""},"882281":{"stopID":"882281","stopName":"Paseo Santa Cruz  & Hansen Dr","stopLat":37.66873,"stopLon":-121.90716,"zoneID":"","parentStation":""},"882283":{"stopID":"882283","stopName":"Paseo Santa Cruz  & Paseo Catalina","stopLat":37.67232,"stopLon":-121.90591,"zoneID":"","parentStation":""},"882292":{"stopID":"882292","stopName":"Paseo Santa Cruz  & Calle Reynoso","stopLat":37.66566,"stopLon":-121.90213,"zoneID":"","parentStation":""},"882293":{"stopID":"882293","stopName":"Paseo Santa Cruz  & Paseo San Leon","stopLat":37.67373,"stopLon":-121.90296,"zoneID":"","parentStation":""},"882294":{"stopID":"882294","stopName":"Paseo Santa Cruz  & Corte Santa Maria","stopLat":37.67217,"stopLon":-121.9071,"zoneID":"","parentStation":""},"882295":{"stopID":"882295","stopName":"Paseo Santa Cruz  & Corte Barcelona","stopLat":37.66875,"stopLon":-121.90732,"zoneID":"","parentStation":""},"882297":{"stopID":"882297","stopName":"Paseo Santa Cruz  & Calle Reynoso","stopLat":37.66547,"stopLon":-121.90229,"zoneID":"","parentStation":""},"882298":{"stopID":"882298","stopName":"Paseo Santa Cruz & Calle Altamira","stopLat":37.66515,"stopLon":-121.90497,"zoneID":"","parentStation":""},"882305":{"stopID":"882305","stopName":"Springdale Ave & Chestnut Wy","stopLat":37.68901,"stopLon":-121.92463,"zoneID":"","parentStation":""},"882306":{"stopID":"882306","stopName":"Springdale Ave & Glenbrook Ct","stopLat":37.68676,"stopLon":-121.92235,"zoneID":"","parentStation":""},"882307":{"stopID":"882307","stopName":"Muirwood Park","stopLat":37.68403,"stopLon":-121.91869,"zoneID":"","parentStation":""},"882308":{"stopID":"882308","stopName":"Muirwood Dr & Sandalwood Dr","stopLat":37.67978,"stopLon":-121.91638,"zoneID":"","parentStation":""},"882309":{"stopID":"882309","stopName":"Muirwood Dr & Las Positas Blvd","stopLat":37.67732,"stopLon":-121.91649,"zoneID":"","parentStation":""},"882310":{"stopID":"882310","stopName":"Las Positas Blvd & Dmv","stopLat":37.68074,"stopLon":-121.90576,"zoneID":"","parentStation":""},"882311":{"stopID":"882311","stopName":"Las Positas Blvd & Dorman Rd","stopLat":37.68074,"stopLon":-121.90616,"zoneID":"","parentStation":""},"882312":{"stopID":"882312","stopName":"Las Positas Blvd & Muirwood Dr","stopLat":37.6773,"stopLon":-121.91614,"zoneID":"","parentStation":""},"882321":{"stopID":"882321","stopName":"Muirwood Dr & Oak Hill Park","stopLat":37.67473,"stopLon":-121.91419,"zoneID":"","parentStation":""},"882326":{"stopID":"882326","stopName":"Muirwood Dr & Eastwood Wy","stopLat":37.67034,"stopLon":-121.91398,"zoneID":"","parentStation":""},"882327":{"stopID":"882327","stopName":"Muirwood Dr & Foothill Rd","stopLat":37.66959,"stopLon":-121.91734,"zoneID":"","parentStation":""},"882329":{"stopID":"882329","stopName":"Gibralter Dr & Hart Middle School","stopLat":37.68702,"stopLon":-121.89698,"zoneID":"","parentStation":""},"882331":{"stopID":"882331","stopName":"Stoneridge Dr & Santa Rita Rd","stopLat":37.68793,"stopLon":-121.87445,"zoneID":"","parentStation":""},"882332":{"stopID":"882332","stopName":"Kamp Dr & Eilene Dr","stopLat":37.68817,"stopLon":-121.86969,"zoneID":"","parentStation":""},"882333":{"stopID":"882333","stopName":"Kamp Dr & Cameron Ave","stopLat":37.68521,"stopLon":-121.86828,"zoneID":"","parentStation":""},"882335":{"stopID":"882335","stopName":"Mohr Ave & Kolln St","stopLat":37.68199,"stopLon":-121.87325,"zoneID":"","parentStation":""},"882338":{"stopID":"882338","stopName":"Lylewood Dr & Regency Dr","stopLat":37.65677,"stopLon":-121.90648,"zoneID":"","parentStation":""},"882339":{"stopID":"882339","stopName":"Regency Dr & Tudor Ct","stopLat":37.65959,"stopLon":-121.90727,"zoneID":"","parentStation":""},"882340":{"stopID":"882340","stopName":"Regency Dr & Lylewood Dr","stopLat":37.66171,"stopLon":-121.90757,"zoneID":"","parentStation":""},"882342":{"stopID":"882342","stopName":"Vomac Rd & Hollanda Ln","stopLat":37.71523,"stopLon":-121.93731,"zoneID":"","parentStation":""},"882343":{"stopID":"882343","stopName":"Jorgensen Ln & Lylewood Dr","stopLat":37.65778,"stopLon":-121.90859,"zoneID":"","parentStation":""},"882344":{"stopID":"882344","stopName":"Vomac Rd & Deervale Rd","stopLat":37.7173,"stopLon":-121.93854,"zoneID":"","parentStation":""},"882345":{"stopID":"882345","stopName":"Muirwood Dr & Palm Ct","stopLat":37.67605,"stopLon":-121.91549,"zoneID":"","parentStation":""},"882346":{"stopID":"882346","stopName":"Muirwood Dr & Pecan Ct","stopLat":37.67474,"stopLon":-121.91432,"zoneID":"","parentStation":""},"882347":{"stopID":"882347","stopName":"Muirwood Dr & Sundrop Ct","stopLat":37.67292,"stopLon":-121.91358,"zoneID":"","parentStation":""},"882348":{"stopID":"882348","stopName":"Muirwood Dr & Lemonwood Wy","stopLat":37.6711,"stopLon":-121.91366,"zoneID":"","parentStation":""},"882349":{"stopID":"882349","stopName":"Muirwood Dr & Arrowwood Ct","stopLat":37.66992,"stopLon":-121.9153,"zoneID":"","parentStation":""},"882350":{"stopID":"882350","stopName":"Muirwood Dr & Foothill Rd","stopLat":37.66956,"stopLon":-121.9182,"zoneID":"","parentStation":""},"882351":{"stopID":"882351","stopName":"Vomac Rd & San Ramon Rd","stopLat":37.71715,"stopLon":-121.94101,"zoneID":"","parentStation":""},"882352":{"stopID":"882352","stopName":"Vomac Rd & Peppertree Rd","stopLat":37.71601,"stopLon":-121.94232,"zoneID":"","parentStation":""},"882353":{"stopID":"882353","stopName":"Southwick Dr & Southwick Ct","stopLat":37.71989,"stopLon":-121.9455,"zoneID":"","parentStation":""},"882354":{"stopID":"882354","stopName":"Southwick Dr & Westside Dr","stopLat":37.72243,"stopLon":-121.94379,"zoneID":"","parentStation":""},"882355":{"stopID":"882355","stopName":"Alcosta Blvd & San Ramon Rd","stopLat":37.72302,"stopLon":-121.94175,"zoneID":"","parentStation":""},"882356":{"stopID":"882356","stopName":"Amador Valley Blvd & Village Pkwy","stopLat":37.71042,"stopLon":-121.92578,"zoneID":"","parentStation":""},"882357":{"stopID":"882357","stopName":"Wells Middle School","stopLat":37.71053,"stopLon":-121.91872,"zoneID":"","parentStation":""},"882358":{"stopID":"882358","stopName":"Southwick Dr & Westside Dr WB","stopLat":37.72226,"stopLon":-121.94405,"zoneID":"","parentStation":""},"882359":{"stopID":"882359","stopName":"Southwick Dr & Beckett Wy","stopLat":37.71897,"stopLon":-121.94613,"zoneID":"","parentStation":""},"882360":{"stopID":"882360","stopName":"Vomac Rd & Peppertree Rd","stopLat":37.7161,"stopLon":-121.94274,"zoneID":"","parentStation":""},"882361":{"stopID":"882361","stopName":"Vomac Rd & San Ramon Rd","stopLat":37.71707,"stopLon":-121.9408,"zoneID":"","parentStation":""},"882362":{"stopID":"882362","stopName":"Vomac Rd & Countess St","stopLat":37.71742,"stopLon":-121.939,"zoneID":"","parentStation":""},"882363":{"stopID":"882363","stopName":"Vomac Rd & Hollanda Ln","stopLat":37.71501,"stopLon":-121.93737,"zoneID":"","parentStation":""},"882375":{"stopID":"882375","stopName":"Tassajara Rd & Dublin Ranch Dr","stopLat":37.71469,"stopLon":-121.87179,"zoneID":"","parentStation":""},"882376":{"stopID":"882376","stopName":"Dublin Ranch Dr & Cedar Crest Ter","stopLat":37.72109,"stopLon":-121.86792,"zoneID":"","parentStation":""},"882377":{"stopID":"882377","stopName":"Dublin Ranch Dr & Groveland Ln","stopLat":37.72015,"stopLon":-121.86545,"zoneID":"","parentStation":""},"882378":{"stopID":"882378","stopName":"Antone Wy & Dublin Ranch Dr","stopLat":37.71799,"stopLon":-121.86491,"zoneID":"","parentStation":""},"882379":{"stopID":"882379","stopName":"Anotne Wy & Fallon Rd","stopLat":37.7185,"stopLon":-121.8595,"zoneID":"","parentStation":""},"882381":{"stopID":"882381","stopName":"Regency Dr & Milleford Ct","stopLat":37.66399,"stopLon":-121.90887,"zoneID":"","parentStation":""},"882382":{"stopID":"882382","stopName":"Regency Dr & Belvedere Ct","stopLat":37.66081,"stopLon":-121.91156,"zoneID":"","parentStation":""},"882383":{"stopID":"882383","stopName":"Valley Trails Dr & Carlsbad Wy","stopLat":37.67845,"stopLon":-121.90352,"zoneID":"","parentStation":""},"882384":{"stopID":"882384","stopName":"Valley Trails Dr & Platt Ct","stopLat":37.67767,"stopLon":-121.90778,"zoneID":"","parentStation":""},"882385":{"stopID":"882385","stopName":"Valley Trails Dr & Hot Springs Ct","stopLat":37.67398,"stopLon":-121.90979,"zoneID":"","parentStation":""},"882386":{"stopID":"882386","stopName":"Valley Trails Dr & Hopyard Rd","stopLat":37.67688,"stopLon":-121.90089,"zoneID":"","parentStation":""},"882387":{"stopID":"882387","stopName":"Mohr Ave & Kolln St","stopLat":37.68188,"stopLon":-121.87369,"zoneID":"","parentStation":""},"882388":{"stopID":"882388","stopName":"Kamp Dr & Mohr Ave","stopLat":37.68243,"stopLon":-121.86887,"zoneID":"","parentStation":""},"882389":{"stopID":"882389","stopName":"Kamp Dr & Cameron Ave","stopLat":37.68497,"stopLon":-121.86815,"zoneID":"","parentStation":""},"882390":{"stopID":"882390","stopName":"Kamp Dr & Eilene Dr","stopLat":37.68855,"stopLon":-121.86993,"zoneID":"","parentStation":""},"882391":{"stopID":"882391","stopName":"Stoneridge Dr & Nielsen Park WB","stopLat":37.68841,"stopLon":-121.8722,"zoneID":"","parentStation":""},"882392":{"stopID":"882392","stopName":"Touriga Dr & Tawny Dr","stopLat":37.66358,"stopLon":-121.85237,"zoneID":"","parentStation":""},"882393":{"stopID":"882393","stopName":"Rhine Wy &  Arbor Dr","stopLat":37.65694,"stopLon":-121.84427,"zoneID":"","parentStation":""},"882394":{"stopID":"882394","stopName":"Arbor Dr & Vintage Hills Park","stopLat":37.657,"stopLon":-121.85044,"zoneID":"","parentStation":""},"882395":{"stopID":"882395","stopName":"Arbor Dr & Touriga Dr","stopLat":37.65784,"stopLon":-121.85278,"zoneID":"","parentStation":""},"882397":{"stopID":"882397","stopName":"Vineyard Ave & Vineyard Pl","stopLat":37.66296,"stopLon":-121.86128,"zoneID":"","parentStation":""},"882399":{"stopID":"882399","stopName":"Pimlico Dr & Santa Rita Rd","stopLat":37.70019,"stopLon":-121.87008,"zoneID":"","parentStation":""},"882400":{"stopID":"882400","stopName":"Pimlico Dr & Brockton Dr","stopLat":37.70014,"stopLon":-121.86905,"zoneID":"","parentStation":""},"882401":{"stopID":"882401","stopName":"Pimlico Dr & Belmont Wy","stopLat":37.70091,"stopLon":-121.86688,"zoneID":"","parentStation":""},"882402":{"stopID":"882402","stopName":"3798 Pimlico Dr","stopLat":37.70093,"stopLon":-121.86398,"zoneID":"","parentStation":""},"882403":{"stopID":"882403","stopName":"Kircaldy St & Stacey Wy","stopLat":37.69989,"stopLon":-121.85993,"zoneID":"","parentStation":""},"882404":{"stopID":"882404","stopName":"Las Positas Blvd & Meadows Park","stopLat":37.69679,"stopLon":-121.85854,"zoneID":"","parentStation":""},"882405":{"stopID":"882405","stopName":"Las Positas Blvd  & Melbourne Ct","stopLat":37.69561,"stopLon":-121.85974,"zoneID":"","parentStation":""},"882406":{"stopID":"882406","stopName":"Las Positas Blvd & Gulfstream St","stopLat":37.69539,"stopLon":-121.86529,"zoneID":"","parentStation":""},"882407":{"stopID":"882407","stopName":"Las Positas Blvd & Rockingham Dr","stopLat":37.69397,"stopLon":-121.86866,"zoneID":"","parentStation":""},"882409":{"stopID":"882409","stopName":"Las Positas Blvd & Fairlands School","stopLat":37.69185,"stopLon":-121.8741,"zoneID":"","parentStation":""},"882412":{"stopID":"882412","stopName":"Regency Dr & Meadowlark Park","stopLat":37.66468,"stopLon":-121.91046,"zoneID":"","parentStation":""},"882420":{"stopID":"882420","stopName":"Rancho Las Positas School","stopLat":37.68898,"stopLon":-121.79655,"zoneID":"","parentStation":""},"882421":{"stopID":"882421","stopName":"Jack London Blvd & Turino St","stopLat":37.68892,"stopLon":-121.7932,"zoneID":"","parentStation":""},"882424":{"stopID":"882424","stopName":"Stoneridge Dr & Santa Rita Rd","stopLat":37.68821,"stopLon":-121.87632,"zoneID":"","parentStation":""},"882478":{"stopID":"882478","stopName":"Fallon Rd & Bent Tree Dr","stopLat":37.71564,"stopLon":-121.85454,"zoneID":"","parentStation":""},"882481":{"stopID":"882481","stopName":"Dublin Ranch Dr & Oak Bluff Ln","stopLat":37.71955,"stopLon":-121.86523,"zoneID":"","parentStation":""},"882484":{"stopID":"882484","stopName":"Tassajara Rd & Gleason Dr","stopLat":37.71336,"stopLon":-121.87223,"zoneID":"","parentStation":""},"882489":{"stopID":"882489","stopName":"Paseo Santa Cruz & Valley Ave","stopLat":37.66675,"stopLon":-121.89875,"zoneID":"","parentStation":""},"882490":{"stopID":"882490","stopName":"Dennis Dr & Trevor Pkwy","stopLat":37.6925,"stopLon":-121.85726,"zoneID":"","parentStation":""},"882491":{"stopID":"882491","stopName":"Dennis Dr & Guzman Pkwy","stopLat":37.69276,"stopLon":-121.86235,"zoneID":"","parentStation":""},"882492":{"stopID":"882492","stopName":"Stoneridge Dr & Stone Pointe Wy","stopLat":37.69049,"stopLon":-121.86871,"zoneID":"","parentStation":""},"882494":{"stopID":"882494","stopName":"Central Pkwy & Hacienda Dr","stopLat":37.70896,"stopLon":-121.88943,"zoneID":"","parentStation":""},"882495":{"stopID":"882495","stopName":"Central Pkwy & Sybase Dr","stopLat":37.70887,"stopLon":-121.891,"zoneID":"","parentStation":""},"882496":{"stopID":"882496","stopName":"Stoneridge Dr & Rialto Wy","stopLat":37.69188,"stopLon":-121.88909,"zoneID":"","parentStation":""},"882497":{"stopID":"882497","stopName":"Stoneridge Mall Rd & Mc Williams Ln","stopLat":37.69292,"stopLon":-121.92373,"zoneID":"","parentStation":""},"882501":{"stopID":"882501","stopName":"Stoneridge Dr & Gibraltar Dr","stopLat":37.69217,"stopLon":-121.89081,"zoneID":"","parentStation":""},"882502":{"stopID":"882502","stopName":"Stoneridge Dr & Courthouse","stopLat":37.69062,"stopLon":-121.88796,"zoneID":"","parentStation":""},"882573":{"stopID":"882573","stopName":"Martin Ave & Mohr Ave","stopLat":37.68224,"stopLon":-121.86268,"zoneID":"","parentStation":""},"882575":{"stopID":"882575","stopName":"Martin Ave & Mohr Ave","stopLat":37.68224,"stopLon":-121.86259,"zoneID":"","parentStation":""},"882593":{"stopID":"882593","stopName":"Santa Rita Rd & Pickens Ln","stopLat":37.69483,"stopLon":-121.87772,"zoneID":"","parentStation":""},"882631":{"stopID":"882631","stopName":"Valley Ave & Via De Los Milagros NB","stopLat":37.67443,"stopLon":-121.89834,"zoneID":"","parentStation":""},"882634":{"stopID":"882634","stopName":"Cameron Ave & Palmer Dr","stopLat":37.68515,"stopLon":-121.86777,"zoneID":"","parentStation":""},"882639":{"stopID":"882639","stopName":"Bernal Ave & Angela St","stopLat":37.65375,"stopLon":-121.86189,"zoneID":"","parentStation":""},"882662":{"stopID":"882662","stopName":"Bernal Ave & Kottinger Dr","stopLat":37.65487,"stopLon":-121.85962,"zoneID":"","parentStation":""},"882665":{"stopID":"882665","stopName":"Ruby Hill Dr & Piemonte Dr","stopLat":37.64731,"stopLon":-121.81838,"zoneID":"","parentStation":""},"882671":{"stopID":"882671","stopName":"Central Pkwy & Hibernia Dr","stopLat":37.70855,"stopLon":-121.88559,"zoneID":"","parentStation":""},"882672":{"stopID":"882672","stopName":"Central Pkwy & Killian St","stopLat":37.70853,"stopLon":-121.87811,"zoneID":"","parentStation":""},"882673":{"stopID":"882673","stopName":"Central Pkwy & Glynnis Rose Dr","stopLat":37.70934,"stopLon":-121.87516,"zoneID":"","parentStation":""},"882675":{"stopID":"882675","stopName":"Central Pkwy & Glynnis Rose Dr","stopLat":37.70977,"stopLon":-121.87436,"zoneID":"","parentStation":""},"882676":{"stopID":"882676","stopName":"Central Pkwy & Aspen St","stopLat":37.70873,"stopLon":-121.88276,"zoneID":"","parentStation":""},"882681":{"stopID":"882681","stopName":"Central Pkwy & Chancery Ln","stopLat":37.70927,"stopLon":-121.86573,"zoneID":"","parentStation":""},"882682":{"stopID":"882682","stopName":"Central Pkwy & Grafton St EB","stopLat":37.70869,"stopLon":-121.86311,"zoneID":"","parentStation":""},"882683":{"stopID":"882683","stopName":"Dublin Blvd & Keegan St","stopLat":37.70477,"stopLon":-121.86122,"zoneID":"","parentStation":""},"882684":{"stopID":"882684","stopName":"Dublin Blvd & Grafton St WB","stopLat":37.70583,"stopLon":-121.86833,"zoneID":"","parentStation":""},"882696":{"stopID":"882696","stopName":"Koll Center Pkwy & Koll Center Dr","stopLat":37.65863,"stopLon":-121.90002,"zoneID":"","parentStation":""},"882698":{"stopID":"882698","stopName":"6700 Koll Center Pkwy","stopLat":37.66034,"stopLon":-121.90203,"zoneID":"","parentStation":""},"882699":{"stopID":"882699","stopName":"6900 Koll Center Pkwy","stopLat":37.66217,"stopLon":-121.9007,"zoneID":"","parentStation":""},"882700":{"stopID":"882700","stopName":"Parkside Dr & Cheryl Cir","stopLat":37.68051,"stopLon":-121.89721,"zoneID":"","parentStation":""},"882701":{"stopID":"882701","stopName":"Parkside Dr & Marilyn Ct","stopLat":37.68101,"stopLon":-121.8957,"zoneID":"","parentStation":""},"882702":{"stopID":"882702","stopName":"Parkside Dr & Curtis Cir","stopLat":37.68182,"stopLon":-121.89396,"zoneID":"","parentStation":""},"882703":{"stopID":"882703","stopName":"Parkside Dr & Melanie Cir","stopLat":37.68252,"stopLon":-121.89232,"zoneID":"","parentStation":""},"882704":{"stopID":"882704","stopName":"Parkside Dr & Anastacia Ct","stopLat":37.68332,"stopLon":-121.89078,"zoneID":"","parentStation":""},"882705":{"stopID":"882705","stopName":"Parkside Dr & Joanne Cir","stopLat":37.6836,"stopLon":-121.88998,"zoneID":"","parentStation":""},"882706":{"stopID":"882706","stopName":"Parkside Dr & Glenda Ct","stopLat":37.68454,"stopLon":-121.88739,"zoneID":"","parentStation":""},"882707":{"stopID":"882707","stopName":"Muirwood Dr & Las Positas Blvd NB","stopLat":37.67755,"stopLon":-121.9164,"zoneID":"","parentStation":""},"882708":{"stopID":"882708","stopName":"Muirwood Park","stopLat":37.68408,"stopLon":-121.91855,"zoneID":"","parentStation":""},"882709":{"stopID":"882709","stopName":"Springdale Dr & Chestnut Wy","stopLat":37.68921,"stopLon":-121.92454,"zoneID":"","parentStation":""},"882710":{"stopID":"882710","stopName":"Stoneridge Mall Rd & Sheraton Hotel","stopLat":37.69775,"stopLon":-121.93064,"zoneID":"","parentStation":""},"882712":{"stopID":"882712","stopName":"Dublin Blvd & Clark Ave WB","stopLat":37.70587,"stopLon":-121.92141,"zoneID":"","parentStation":""},"882714":{"stopID":"882714","stopName":"Las Positas Rd & North Mines Rd","stopLat":37.69938,"stopLon":-121.76369,"zoneID":"","parentStation":""},"882717":{"stopID":"882717","stopName":"Valley Trails Dr & National Park  Rd","stopLat":37.67691,"stopLon":-121.90102,"zoneID":"","parentStation":""},"882718":{"stopID":"882718","stopName":"Valley Trails Dr & Kings Canyon Ct","stopLat":37.6743,"stopLon":-121.90634,"zoneID":"","parentStation":""},"882719":{"stopID":"882719","stopName":"Valley Trails Dr & Mesa Verde Ct.","stopLat":37.67629,"stopLon":-121.91015,"zoneID":"","parentStation":""},"882724":{"stopID":"882724","stopName":"Maple St & Second St","stopLat":37.68289,"stopLon":-121.76578,"zoneID":"","parentStation":""},"882726":{"stopID":"882726","stopName":"First St & Inman St","stopLat":37.68474,"stopLon":-121.76274,"zoneID":"","parentStation":""},"882727":{"stopID":"882727","stopName":"Valley Trails Dr & National Park Rd","stopLat":37.67833,"stopLon":-121.90356,"zoneID":"","parentStation":""},"882728":{"stopID":"882728","stopName":"4500 Tassajara","stopLat":37.70878,"stopLon":-121.87228,"zoneID":"","parentStation":""},"882729":{"stopID":"882729","stopName":"Las Positas Rd & North Mines Rd","stopLat":37.69972,"stopLon":-121.76116,"zoneID":"","parentStation":""},"882769":{"stopID":"882769","stopName":"Walmart Outbound","stopLat":37.69822,"stopLon":-121.76917,"zoneID":"","parentStation":""},"882784":{"stopID":"882784","stopName":"First St & Neal St","stopLat":37.65948,"stopLon":-121.87403,"zoneID":"","parentStation":""},"882785":{"stopID":"882785","stopName":"Willow Rd & Las Positas Blvd","stopLat":37.68449,"stopLon":-121.89856,"zoneID":"","parentStation":""},"882789":{"stopID":"882789","stopName":"Hacienda Dr & Stoneridge Dr","stopLat":37.69053,"stopLon":-121.89476,"zoneID":"","parentStation":""},"882790":{"stopID":"882790","stopName":"Hacienda Dr & Gibralter Dr","stopLat":37.68766,"stopLon":-121.89438,"zoneID":"","parentStation":""},"882794":{"stopID":"882794","stopName":"Dougherty Rd  & Houston  Pl","stopLat":37.70796,"stopLon":-121.91015,"zoneID":"","parentStation":""},"882797":{"stopID":"882797","stopName":"Fallon Middle School","stopLat":37.71494,"stopLon":-121.86607,"zoneID":"","parentStation":""},"882798":{"stopID":"882798","stopName":"Stoneridge Dr & Franklin Dr","stopLat":37.69078,"stopLon":-121.9101,"zoneID":"","parentStation":""},"882799":{"stopID":"882799","stopName":"Concord St & Bordeaux NB","stopLat":37.65388,"stopLon":-121.85349,"zoneID":"","parentStation":""},"882807":{"stopID":"882807","stopName":"Jack London Blvd & Troy  St","stopLat":37.68917,"stopLon":-121.79372,"zoneID":"","parentStation":""},"882808":{"stopID":"882808","stopName":"Jack London Blvd & Murietta  Blvd","stopLat":37.68915,"stopLon":-121.79172,"zoneID":"","parentStation":""},"882809":{"stopID":"882809","stopName":"Jack London Blvd & Arlington Rd","stopLat":37.68917,"stopLon":-121.79738,"zoneID":"","parentStation":""},"882818":{"stopID":"882818","stopName":"Olivina Ave & Mariposa Ave EB","stopLat":37.68281,"stopLon":-121.78946,"zoneID":"","parentStation":""},"882819":{"stopID":"882819","stopName":"Olivina Ave & Albatross  Ave EB","stopLat":37.68287,"stopLon":-121.78652,"zoneID":"","parentStation":""},"882820":{"stopID":"882820","stopName":"Olivina Ave & Adelle St EB","stopLat":37.68297,"stopLon":-121.77915,"zoneID":"","parentStation":""},"882837":{"stopID":"882837","stopName":"Central Pkwy &  Hacienda Dr","stopLat":37.70878,"stopLon":-121.8875,"zoneID":"","parentStation":""},"882838":{"stopID":"882838","stopName":"Stanley Blvd & Murrieta Blvd","stopLat":37.67827,"stopLon":-121.78684,"zoneID":"","parentStation":""},"882844":{"stopID":"882844","stopName":"East Pleasanton BART Station","stopLat":37.70094,"stopLon":-121.89638,"zoneID":"","parentStation":""},"882846":{"stopID":"882846","stopName":"East Dublin BART Station","stopLat":37.7026,"stopLon":-121.89935,"zoneID":"","parentStation":""},"882847":{"stopID":"882847","stopName":"Livermore Transit Center","stopLat":37.68515,"stopLon":-121.76657,"zoneID":"","parentStation":""},"882850":{"stopID":"882850","stopName":"Ruby Hill  Dr & Palermo Pl","stopLat":37.63145,"stopLon":-121.81217,"zoneID":"","parentStation":""},"882855":{"stopID":"882855","stopName":"Tassajara Rd & Cascade Creek Ln","stopLat":37.71775,"stopLon":-121.87208,"zoneID":"","parentStation":""},"882856":{"stopID":"882856","stopName":"Dublin Blvd & Scarlett Ct EB","stopLat":37.70567,"stopLon":-121.90701,"zoneID":"","parentStation":""},"882867":{"stopID":"882867","stopName":"Amador Valley Blvd & Penn Dr","stopLat":37.71431,"stopLon":-121.92001,"zoneID":"","parentStation":""},"882870":{"stopID":"882870","stopName":"Silvergate Dr & Amarillo Rd EB","stopLat":37.7091,"stopLon":-121.94422,"zoneID":"","parentStation":""},"882871":{"stopID":"882871","stopName":"Amador Valley Blvd & Penn Dr","stopLat":37.71408,"stopLon":-121.92013,"zoneID":"","parentStation":""},"882872":{"stopID":"882872","stopName":"Dublin Blvd & Grafton St","stopLat":37.70481,"stopLon":-121.8645,"zoneID":"","parentStation":""},"882873":{"stopID":"882873","stopName":"Dublin Blvd & Keegan EB","stopLat":37.70441,"stopLon":-121.85914,"zoneID":"","parentStation":""},"882874":{"stopID":"882874","stopName":"Dublin Blvd & Lockhart St","stopLat":37.70479,"stopLon":-121.85785,"zoneID":"","parentStation":""},"882876":{"stopID":"882876","stopName":"Dublin Blvd & Hacienda Dr","stopLat":37.70605,"stopLon":-121.88701,"zoneID":"","parentStation":""},"882877":{"stopID":"882877","stopName":"Railroad Ave & L St","stopLat":37.68261,"stopLon":-121.77161,"zoneID":"","parentStation":""},"882878":{"stopID":"882878","stopName":"Railroad Ave & Bankhead Theater","stopLat":37.68373,"stopLon":-121.76816,"zoneID":"","parentStation":""},"882879":{"stopID":"882879","stopName":"East Ave &  Madison Ave","stopLat":37.67981,"stopLon":-121.74233,"zoneID":"","parentStation":""},"882880":{"stopID":"882880","stopName":"Railroad Ave & Maple Ave WB","stopLat":37.6841,"stopLon":-121.76749,"zoneID":"","parentStation":""},"882881":{"stopID":"882881","stopName":"West Pleasanton BART Station","stopLat":37.69805,"stopLon":-121.92722,"zoneID":"","parentStation":""},"882888":{"stopID":"882888","stopName":"Junction Ave & North Livermore Ave","stopLat":37.68952,"stopLon":-121.77217,"zoneID":"","parentStation":""},"882897":{"stopID":"882897","stopName":"Muirwood Dr & Elmwood Cir","stopLat":37.67233,"stopLon":-121.91356,"zoneID":"","parentStation":""},"882899":{"stopID":"882899","stopName":"Valley Trails Dr & Gettysburg Ct","stopLat":37.6774,"stopLon":-121.90864,"zoneID":"","parentStation":""},"882900":{"stopID":"882900","stopName":"Paseo Santa Cruz & Camino Segura","stopLat":37.6748,"stopLon":-121.89985,"zoneID":"","parentStation":""},"882902":{"stopID":"882902","stopName":"Las Positas Blvd & Santa Rita Rd","stopLat":37.69216,"stopLon":-121.87757,"zoneID":"","parentStation":""},"882903":{"stopID":"882903","stopName":"Ruby Hill Dr & Sangro Ct","stopLat":37.64014,"stopLon":-121.79978,"zoneID":"","parentStation":""},"882906":{"stopID":"882906","stopName":"West Dublin BART Station","stopLat":37.7007,"stopLon":-121.92718,"zoneID":"","parentStation":""},"882907":{"stopID":"882907","stopName":"Gibralter Dr & Willow Rd","stopLat":37.69576,"stopLon":-121.89737,"zoneID":"","parentStation":""},"882908":{"stopID":"882908","stopName":"Gibralter Dr  & Willow Rd","stopLat":37.696,"stopLon":-121.89906,"zoneID":"","parentStation":""},"882911":{"stopID":"882911","stopName":"Ruby Hill Dr & Piemonte Dr","stopLat":37.64693,"stopLon":-121.80674,"zoneID":"","parentStation":""},"882913":{"stopID":"882913","stopName":"Ruby Hill Dr & Piemonte Dr","stopLat":37.64824,"stopLon":-121.80766,"zoneID":"","parentStation":""},"882914":{"stopID":"882914","stopName":"Dublin Blvd & Fallon Gateway","stopLat":37.70612,"stopLon":-121.85286,"zoneID":"","parentStation":""},"882916":{"stopID":"882916","stopName":"Dublin Blvd & Fallon Gateway","stopLat":37.70604,"stopLon":-121.85401,"zoneID":"","parentStation":""},"882918":{"stopID":"882918","stopName":"Fallon Rd & Antone Wy","stopLat":37.71919,"stopLon":-121.85915,"zoneID":"","parentStation":""},"882919":{"stopID":"882919","stopName":"Fallon Rd & Signal Hill Dr","stopLat":37.72649,"stopLon":-121.85816,"zoneID":"","parentStation":""},"882920":{"stopID":"882920","stopName":"Fallon Rd & Silvera Ranch Dr","stopLat":37.73204,"stopLon":-121.86607,"zoneID":"","parentStation":""},"882921":{"stopID":"882921","stopName":"Fallon Rd & Signal Hill Dr","stopLat":37.72575,"stopLon":-121.85851,"zoneID":"","parentStation":""},"882922":{"stopID":"882922","stopName":"Fallon Rd & Antone Wy","stopLat":37.72001,"stopLon":-121.85953,"zoneID":"","parentStation":""},"882923":{"stopID":"882923","stopName":"Tassajara Rd & Bridgestone Cir","stopLat":37.72365,"stopLon":-121.87134,"zoneID":"","parentStation":""},"882924":{"stopID":"882924","stopName":"Tassajara Rd & Quarry Lane School","stopLat":37.72766,"stopLon":-121.87126,"zoneID":"","parentStation":""},"882925":{"stopID":"882925","stopName":"Tassajara Rd & Silvera Ranch Dr","stopLat":37.73055,"stopLon":-121.87096,"zoneID":"","parentStation":""},"882926":{"stopID":"882926","stopName":"Gleason Dr & Madden Wy","stopLat":37.71456,"stopLon":-121.85872,"zoneID":"","parentStation":""},"882927":{"stopID":"882927","stopName":"Fallon Rd & Gleason Dr","stopLat":37.71598,"stopLon":-121.85619,"zoneID":"","parentStation":""},"882928":{"stopID":"882928","stopName":"2605 Central Pkwy","stopLat":37.71016,"stopLon":-121.85482,"zoneID":"","parentStation":""},"882929":{"stopID":"882929","stopName":"Fallon Rd & Silvera Ranch Dr","stopLat":37.7325,"stopLon":-121.86631,"zoneID":"","parentStation":""},"882930":{"stopID":"882930","stopName":"Valley Ave & Wild Rose Pl","stopLat":37.65445,"stopLon":-121.89512,"zoneID":"","parentStation":""},"882931":{"stopID":"882931","stopName":"Valley Ave & Wild Rose Pl","stopLat":37.65567,"stopLon":-121.89582,"zoneID":"","parentStation":""},"882932":{"stopID":"882932","stopName":"Gleason Dr & Grafton St","stopLat":37.71364,"stopLon":-121.86439,"zoneID":"","parentStation":""},"882934":{"stopID":"882934","stopName":"Jack London Blvd & Outlets WB","stopLat":37.69752,"stopLon":-121.84568,"zoneID":"","parentStation":""},"882935":{"stopID":"882935","stopName":"Jack London Blvd & Outlets EB","stopLat":37.69688,"stopLon":-121.8443,"zoneID":"","parentStation":""},"882937":{"stopID":"882937","stopName":"Willow Rd & S Gibralter Dr","stopLat":37.68682,"stopLon":-121.89854,"zoneID":"","parentStation":""},"882943":{"stopID":"882943","stopName":"Stoneridge Dr & Hacienda Dr","stopLat":37.69155,"stopLon":-121.896,"zoneID":"","parentStation":""},"882946":{"stopID":"882946","stopName":"Positano Pkwy & Valentano Dr EB","stopLat":37.71948,"stopLon":-121.84506,"zoneID":"","parentStation":""},"882947":{"stopID":"882947","stopName":"Positano Pkwy & Valentano Dr WB","stopLat":37.71974,"stopLon":-121.84521,"zoneID":"","parentStation":""},"882951":{"stopID":"882951","stopName":"Positano Pkwy & Vinton Ave EB","stopLat":37.71596,"stopLon":-121.85045,"zoneID":"","parentStation":""},"882955":{"stopID":"882955","stopName":"Dublin Blvd & Campus Drive EB","stopLat":37.70615,"stopLon":-121.89633,"zoneID":"","parentStation":""},"882956":{"stopID":"882956","stopName":"Dublin Blvd & Arnold Rd","stopLat":37.70654,"stopLon":-121.89452,"zoneID":"","parentStation":""},"882957":{"stopID":"882957","stopName":"Bordeaux St & Bordeaux  Pl","stopLat":37.65582,"stopLon":-121.85129,"zoneID":"","parentStation":""},"882959":{"stopID":"882959","stopName":"Springdale Ave  & Maywood Dr NB","stopLat":37.68653,"stopLon":-121.9219,"zoneID":"","parentStation":""},"882960":{"stopID":"882960","stopName":"Las Positas Blvd & Belleza Ln","stopLat":37.68772,"stopLon":-121.8862,"zoneID":"","parentStation":""},"882961":{"stopID":"882961","stopName":"Stoneridge Dr & Willow Rd EB","stopLat":37.69126,"stopLon":-121.8976,"zoneID":"","parentStation":""},"882962":{"stopID":"882962","stopName":"Dublin & Arnold EB","stopLat":37.70615,"stopLon":-121.89178,"zoneID":"","parentStation":""},"882963":{"stopID":"882963","stopName":"First St & Inman St","stopLat":37.68517,"stopLon":-121.76219,"zoneID":"","parentStation":""},"882964":{"stopID":"882964","stopName":"Jack London & Discovery EB","stopLat":37.68926,"stopLon":-121.81108,"zoneID":"","parentStation":""},"882966":{"stopID":"882966","stopName":"Gleason Dr & Brannigan EB","stopLat":37.71252,"stopLon":-121.8681,"zoneID":"","parentStation":""},"882967":{"stopID":"882967","stopName":"Gleason & Brannigan WB","stopLat":37.71277,"stopLon":-121.86797,"zoneID":"","parentStation":""},"882968":{"stopID":"882968","stopName":"Gleason & Lockhart","stopLat":37.71434,"stopLon":-121.85858,"zoneID":"","parentStation":""},"882969":{"stopID":"882969","stopName":"Gleason & Grafton EB","stopLat":37.71354,"stopLon":-121.86292,"zoneID":"","parentStation":""},"882970":{"stopID":"882970","stopName":"Fallon & Antone WB","stopLat":37.71838,"stopLon":-121.86037,"zoneID":"","parentStation":""},"882971":{"stopID":"882971","stopName":"Antone & Dublin Ranch WB","stopLat":37.71827,"stopLon":-121.86536,"zoneID":"","parentStation":""},"882972":{"stopID":"882972","stopName":"Dublin Ranch & Round Hill WB","stopLat":37.72125,"stopLon":-121.86781,"zoneID":"","parentStation":""},"882973":{"stopID":"882973","stopName":"Dublin Ranch And Shadow Hill WB","stopLat":37.71972,"stopLon":-121.87038,"zoneID":"","parentStation":""},"882974":{"stopID":"882974","stopName":"Livermore Ave & Park St WB","stopLat":37.68726,"stopLon":-121.7712,"zoneID":"","parentStation":""},"882975":{"stopID":"882975","stopName":"Portola Ave And Livermore WB","stopLat":37.69133,"stopLon":-121.77502,"zoneID":"","parentStation":""},"882980":{"stopID":"882980","stopName":"N Livermore & Portola Ave","stopLat":37.69043,"stopLon":-121.77299,"zoneID":"","parentStation":""},"882981":{"stopID":"882981","stopName":"Livermore & Walnut","stopLat":37.68766,"stopLon":-121.77163,"zoneID":"","parentStation":""},"882982":{"stopID":"882982","stopName":"Stoneridge & Newton EB","stopLat":37.69049,"stopLon":-121.86829,"zoneID":"","parentStation":""},"882983":{"stopID":"882983","stopName":"Stoneridge & Stonridge Creek WB","stopLat":37.6957,"stopLon":-121.85355,"zoneID":"","parentStation":""},"882984":{"stopID":"882984","stopName":"Stoneridge & Stonridge Creek  EB","stopLat":37.69638,"stopLon":-121.85244,"zoneID":"","parentStation":""},"882985":{"stopID":"882985","stopName":"Stoneridge & Fallon WB","stopLat":37.69725,"stopLon":-121.85167,"zoneID":"","parentStation":""},"882986":{"stopID":"882986","stopName":"Stoneridge & Fallon EB","stopLat":37.6972,"stopLon":-121.85012,"zoneID":"","parentStation":""},"882989":{"stopID":"882989","stopName":"Gleason Dr & Emerald Glen Park EB","stopLat":37.71253,"stopLon":-121.87909,"zoneID":"","parentStation":""},"882992":{"stopID":"882992","stopName":"Jack London & Hagemann WB","stopLat":37.6892,"stopLon":-121.8014,"zoneID":"","parentStation":""},"882993":{"stopID":"882993","stopName":"Portola & P Street EB","stopLat":37.69407,"stopLon":-121.78181,"zoneID":"","parentStation":""},"882995":{"stopID":"882995","stopName":"Portola & P Street WB","stopLat":37.69421,"stopLon":-121.78158,"zoneID":"","parentStation":""},"882996":{"stopID":"882996","stopName":"South P Street & First Street","stopLat":37.67976,"stopLon":-121.77621,"zoneID":"","parentStation":""},"882997":{"stopID":"882997","stopName":"Jack London & Hagemann EB","stopLat":37.68894,"stopLon":-121.8003,"zoneID":"","parentStation":""},"882999":{"stopID":"882999","stopName":"Dublin Blvd & Amador Plaza Rd","stopLat":37.70484,"stopLon":-121.92771,"zoneID":"","parentStation":""},"883001":{"stopID":"883001","stopName":"Alameda County Hoj","stopLat":37.71516,"stopLon":-121.88805,"zoneID":"","parentStation":""},"883002":{"stopID":"883002","stopName":"Pacific & Dolores WB","stopLat":37.6762,"stopLon":-121.75727,"zoneID":"","parentStation":""},"883003":{"stopID":"883003","stopName":"Portola & Campus Hill WB","stopLat":37.70687,"stopLon":-121.79617,"zoneID":"","parentStation":""},"883004":{"stopID":"883004","stopName":"Portola & Tranquility EB","stopLat":37.70543,"stopLon":-121.7933,"zoneID":"","parentStation":""},"883026":{"stopID":"883026","stopName":"Gibraltar Dr & Hopyard Rd EB","stopLat":37.69582,"stopLon":-121.90275,"zoneID":"","parentStation":""},"883027":{"stopID":"883027","stopName":"Willow & Stoneridge SB","stopLat":37.69091,"stopLon":-121.89847,"zoneID":"","parentStation":""},"883091":{"stopID":"883091","stopName":"Stoneridge & Belleza EB","stopLat":37.68795,"stopLon":-121.88368,"zoneID":"","parentStation":""},"883100":{"stopID":"883100","stopName":"Tassajara Rd & Wallis Ranch Dr SB","stopLat":37.7298,"stopLon":-121.87144,"zoneID":"","parentStation":""},"883103":{"stopID":"883103","stopName":"Central Pkwy & Lockhart St  EB","stopLat":37.70911,"stopLon":-121.85661,"zoneID":"","parentStation":""},"883112":{"stopID":"883112","stopName":"Cottonwood Creek School","stopLat":37.70957,"stopLon":-121.84567,"zoneID":"","parentStation":""},"883114":{"stopID":"883114","stopName":"Valley Ave & Case WB","stopLat":37.65051,"stopLon":-121.88531,"zoneID":"","parentStation":""},"883115":{"stopID":"883115","stopName":"Stanley Blvd & Valley Ave WB","stopLat":37.67015,"stopLon":-121.85984,"zoneID":"","parentStation":""},"883118":{"stopID":"883118","stopName":"Dublin Blvd & Brigadoon Wy WB","stopLat":37.69895,"stopLon":-121.95741,"zoneID":"","parentStation":""},"883119":{"stopID":"883119","stopName":"Dublin Blvd & Marshall Canyon Dr WB","stopLat":37.70092,"stopLon":-121.97592,"zoneID":"","parentStation":""},"883120":{"stopID":"883120","stopName":"Dublin Blvd & Schaefer Heights Dr WB","stopLat":37.70439,"stopLon":-121.98229,"zoneID":"","parentStation":""},"883121":{"stopID":"883121","stopName":"Kelly Canyon Dr & Reimers Wy SB","stopLat":37.70478,"stopLon":-121.97928,"zoneID":"","parentStation":""},"883122":{"stopID":"883122","stopName":"Dublin Blvd & Marshall Canyon Dr EB","stopLat":37.70082,"stopLon":-121.97622,"zoneID":"","parentStation":""},"883123":{"stopID":"883123","stopName":"Jack London & Voyager WB","stopLat":37.68958,"stopLon":-121.80937,"zoneID":"","parentStation":""},"883124":{"stopID":"883124","stopName":"Valley Ave & Case EB","stopLat":37.6504,"stopLon":-121.88513,"zoneID":"","parentStation":""},"883125":{"stopID":"883125","stopName":"Stanley Blvd And Nevada St","stopLat":37.66688,"stopLon":-121.86592,"zoneID":"","parentStation":""},"883127":{"stopID":"883127","stopName":"Jack London & Wolf House Drive WB","stopLat":37.69568,"stopLon":-121.84054,"zoneID":"","parentStation":""},"883128":{"stopID":"883128","stopName":"Jack London & Wolf House Drive EB","stopLat":37.69544,"stopLon":-121.8408,"zoneID":"","parentStation":""},"883129":{"stopID":"883129","stopName":"Las Positas & Pimlico WB","stopLat":37.69564,"stopLon":-121.86335,"zoneID":"","parentStation":""},"883130":{"stopID":"883130","stopName":"Delores & Arbor SB","stopLat":37.67935,"stopLon":-121.75718,"zoneID":"","parentStation":""},"883131":{"stopID":"883131","stopName":"Dougherty Rd & Camp Parks Blvd","stopLat":37.71564,"stopLon":-121.91005,"zoneID":"","parentStation":""}}