{"75001":{"stopID":"75001","stopName":"Tabor Ave and Bristol Ln","stopLat":38.26547,"stopLon":-122.04826,"zoneID":"72427","parentStation":""},"75003":{"stopID":"75003","stopName":"Veterans Park - Fairfield Ave","stopLat":38.26726,"stopLon":-122.04515,"zoneID":"72427","parentStation":""},"75005":{"stopID":"75005","stopName":"Heath Dr and Breton Dr","stopLat":38.27088,"stopLon":-122.04288,"zoneID":"72427","parentStation":""},"75007":{"stopID":"75007","stopName":"N Texas St and Alaska Ave","stopLat":38.2711,"stopLon":-122.03422,"zoneID":"72427","parentStation":""},"75008":{"stopID":"75008","stopName":"N Texas St and Pacific Ave","stopLat":38.26817,"stopLon":-122.0343,"zoneID":"72427","parentStation":""},"75009":{"stopID":"75009","stopName":"N Texas St and E Tabor Ave","stopLat":38.26601,"stopLon":-122.03431,"zoneID":"72427","parentStation":""},"75010":{"stopID":"75010","stopName":"N Texas St and Acacia Street","stopLat":38.26356,"stopLon":-122.03429,"zoneID":"72427","parentStation":""},"75012":{"stopID":"75012","stopName":"N Texas St and Travis Blvd","stopLat":38.25882,"stopLon":-122.03436,"zoneID":"72427","parentStation":""},"75013":{"stopID":"75013","stopName":"Travis Blvd and Clay St","stopLat":38.25838,"stopLon":-122.03854,"zoneID":"72427","parentStation":""},"75014":{"stopID":"75014","stopName":"Union Ave and Kennedy Ct","stopLat":38.25721,"stopLon":-122.0405,"zoneID":"72427","parentStation":""},"75015":{"stopID":"75015","stopName":"Union Ave and Carpenter St","stopLat":38.25328,"stopLon":-122.04058,"zoneID":"72427","parentStation":""},"75016":{"stopID":"75016","stopName":"Kentucky St and Union Ave","stopLat":38.2515,"stopLon":-122.04083,"zoneID":"72427","parentStation":""},"75017":{"stopID":"75017","stopName":"Kentucky St and Webster St","stopLat":38.25154,"stopLon":-122.04389,"zoneID":"72427","parentStation":""},"75018":{"stopID":"75018","stopName":"Fairfield Civic Center","stopLat":38.25153,"stopLon":-122.04637,"zoneID":"72427","parentStation":""},"75020":{"stopID":"75020","stopName":"Pennsylvania Ave and Kansas St","stopLat":38.2574,"stopLon":-122.05005,"zoneID":"72427","parentStation":""},"75024":{"stopID":"75024","stopName":"Union Ave and Louisiana St","stopLat":38.25272,"stopLon":-122.04036,"zoneID":"72427","parentStation":""},"75025":{"stopID":"75025","stopName":"Lee Bell Park","stopLat":38.25821,"stopLon":-122.03942,"zoneID":"72427","parentStation":""},"75026":{"stopID":"75026","stopName":"Travis Blvd and Clay St","stopLat":38.25822,"stopLon":-122.03777,"zoneID":"72427","parentStation":""},"75027":{"stopID":"75027","stopName":"N Texas St and E Travis Blvd","stopLat":38.25912,"stopLon":-122.03406,"zoneID":"72427","parentStation":""},"75029":{"stopID":"75029","stopName":"N Texas Street and Acacia Street","stopLat":38.26388,"stopLon":-122.03414,"zoneID":"72427","parentStation":""},"75030":{"stopID":"75030","stopName":"N Texas St and E Tabor Ave","stopLat":38.26699,"stopLon":-122.03406,"zoneID":"72427","parentStation":""},"75031":{"stopID":"75031","stopName":"N Texas St and E Pacific Ave","stopLat":38.26949,"stopLon":-122.03403,"zoneID":"72427","parentStation":""},"75032":{"stopID":"75032","stopName":"N Texas St and Alaska Ave","stopLat":38.27179,"stopLon":-122.03404,"zoneID":"72427","parentStation":""},"75033":{"stopID":"75033","stopName":"N Texas St and Air Base Parkway","stopLat":38.27464,"stopLon":-122.03398,"zoneID":"72427","parentStation":""},"75034":{"stopID":"75034","stopName":"Heath Dr and Breton Dr","stopLat":38.27096,"stopLon":-122.04297,"zoneID":"72427","parentStation":""},"75035":{"stopID":"75035","stopName":"Pacific Ave and Fairfield Ave","stopLat":38.26859,"stopLon":-122.04477,"zoneID":"72427","parentStation":""},"75036":{"stopID":"75036","stopName":"Tabor Ave and Cambridge Dr","stopLat":38.26559,"stopLon":-122.04821,"zoneID":"72427","parentStation":""},"75038":{"stopID":"75038","stopName":"E Tabor Ave and Kidder Ave","stopLat":38.2655,"stopLon":-122.02992,"zoneID":"72427","parentStation":""},"75039":{"stopID":"75039","stopName":"E Tabor Ave and Dover Ave","stopLat":38.26539,"stopLon":-122.02456,"zoneID":"72427","parentStation":""},"75040":{"stopID":"75040","stopName":"E Tabor Ave and Sunset Ave","stopLat":38.26531,"stopLon":-122.02027,"zoneID":"72427","parentStation":""},"75041":{"stopID":"75041","stopName":"Grange Middle School","stopLat":38.26524,"stopLon":-122.01687,"zoneID":"72427","parentStation":""},"75043":{"stopID":"75043","stopName":"E Tabor Ave and Manor Place","stopLat":38.26519,"stopLon":-122.01275,"zoneID":"72427","parentStation":""},"75044":{"stopID":"75044","stopName":"E Tabor Ave and Grande Cir","stopLat":38.26516,"stopLon":-122.00886,"zoneID":"72427","parentStation":""},"75046":{"stopID":"75046","stopName":"E Tabor Ave and Tolenas Rd","stopLat":38.26496,"stopLon":-121.99682,"zoneID":"72427","parentStation":""},"75047":{"stopID":"75047","stopName":"E Tabor Ave and Solano Rd","stopLat":38.26492,"stopLon":-121.9928,"zoneID":"72427","parentStation":""},"75048":{"stopID":"75048","stopName":"Walters Rd and E Tabor Ave","stopLat":38.26545,"stopLon":-121.98788,"zoneID":"72427","parentStation":""},"75050":{"stopID":"75050","stopName":"Huntington Ct & Walters Rd","stopLat":38.27233,"stopLon":-121.98823,"zoneID":"72427","parentStation":""},"75051":{"stopID":"75051","stopName":"Walters Rd and Walters Ct","stopLat":38.26924,"stopLon":-121.98812,"zoneID":"72427","parentStation":""},"75052":{"stopID":"75052","stopName":"Walters Rd and Granada Dr","stopLat":38.26709,"stopLon":-121.98815,"zoneID":"72427","parentStation":""},"75053":{"stopID":"75053","stopName":"E Tabor Ave and Solano Rd","stopLat":38.26501,"stopLon":-121.99385,"zoneID":"72427","parentStation":""},"75054":{"stopID":"75054","stopName":"E Tabor Ave and Tolenas Rd","stopLat":38.26506,"stopLon":-121.999,"zoneID":"72427","parentStation":""},"75055":{"stopID":"75055","stopName":"E Tabor Ave and Davis Dr","stopLat":38.26509,"stopLon":-122.002,"zoneID":"72427","parentStation":""},"75056":{"stopID":"75056","stopName":"E Tabor Ave and Villa Ct","stopLat":38.26522,"stopLon":-122.00874,"zoneID":"72427","parentStation":""},"75057":{"stopID":"75057","stopName":"Tabor Park","stopLat":38.26528,"stopLon":-122.01341,"zoneID":"72427","parentStation":""},"75058":{"stopID":"75058","stopName":"Grange Middle School","stopLat":38.26537,"stopLon":-122.0178,"zoneID":"72427","parentStation":""},"75059":{"stopID":"75059","stopName":"E Tabor Ave and Cardinal Way","stopLat":38.26541,"stopLon":-122.02187,"zoneID":"72427","parentStation":""},"75060":{"stopID":"75060","stopName":"E Tabor Ave and Dover Ave","stopLat":38.26547,"stopLon":-122.0255,"zoneID":"72427","parentStation":""},"75061":{"stopID":"75061","stopName":"E Tabor Ave and San Salvador St","stopLat":38.26554,"stopLon":-122.02934,"zoneID":"72427","parentStation":""},"75065":{"stopID":"75065","stopName":"E Travis Blvd and Dover Avenue","stopLat":38.25831,"stopLon":-122.02575,"zoneID":"72427","parentStation":""},"75066":{"stopID":"75066","stopName":"E Travis Blvd and Kidder Ave","stopLat":38.25829,"stopLon":-122.02967,"zoneID":"72427","parentStation":""},"75067":{"stopID":"75067","stopName":"E Travis Blvd and Chamberlain Dr","stopLat":38.25832,"stopLon":-122.03212,"zoneID":"72427","parentStation":""},"75069":{"stopID":"75069","stopName":"N Texas Street and Bell Avenue","stopLat":38.25467,"stopLon":-122.03442,"zoneID":"72427","parentStation":""},"75070":{"stopID":"75070","stopName":"N Texas St and E Tennessee St","stopLat":38.25283,"stopLon":-122.03433,"zoneID":"72427","parentStation":""},"75071":{"stopID":"75071","stopName":"Texas St and Clay St","stopLat":38.24929,"stopLon":-122.03731,"zoneID":"72427","parentStation":""},"75074":{"stopID":"75074","stopName":"Webster St and Kentucky St","stopLat":38.2508,"stopLon":-122.04329,"zoneID":"72427","parentStation":""},"75076":{"stopID":"75076","stopName":"W Texas St and Pennsylvania Ave","stopLat":38.24935,"stopLon":-122.05057,"zoneID":"72427","parentStation":""},"75080":{"stopID":"75080","stopName":"Woolner Ave and Vine Dr","stopLat":38.24528,"stopLon":-122.0638,"zoneID":"72427","parentStation":""},"75081":{"stopID":"75081","stopName":"Beck Ave and Woolner Ave","stopLat":38.24571,"stopLon":-122.06613,"zoneID":"72427","parentStation":""},"75083":{"stopID":"75083","stopName":"W Texas St and Beck Ave","stopLat":38.24917,"stopLon":-122.0642,"zoneID":"72427","parentStation":""},"75088":{"stopID":"75088","stopName":"Texas St and State St","stopLat":38.24917,"stopLon":-122.0366,"zoneID":"72427","parentStation":""},"75089":{"stopID":"75089","stopName":"N Texas St and  Empire Place","stopLat":38.25172,"stopLon":-122.03409,"zoneID":"72427","parentStation":""},"75090":{"stopID":"75090","stopName":"N Texas St and  E Bell St","stopLat":38.25412,"stopLon":-122.03409,"zoneID":"72427","parentStation":""},"75092":{"stopID":"75092","stopName":"East Travis Blvd and N Texas St","stopLat":38.25819,"stopLon":-122.03279,"zoneID":"72427","parentStation":""},"75093":{"stopID":"75093","stopName":"E Travis Blvd and Eisenhower St","stopLat":38.25819,"stopLon":-122.02981,"zoneID":"72427","parentStation":""},"75101":{"stopID":"75101","stopName":"Cement Hill Rd and Dover Ave","stopLat":38.27997,"stopLon":-122.02558,"zoneID":"72427","parentStation":""},"75103":{"stopID":"75103","stopName":"Cement Hill Rd and Camrose Ave","stopLat":38.2781,"stopLon":-122.02951,"zoneID":"72427","parentStation":""},"75104":{"stopID":"75104","stopName":"Cement Hill Rd and  Elmhurst Cir","stopLat":38.27637,"stopLon":-122.0326,"zoneID":"72427","parentStation":""},"75105":{"stopID":"75105","stopName":"Fairfield Walmart","stopLat":38.27638,"stopLon":-122.03597,"zoneID":"72427","parentStation":""},"75106":{"stopID":"75106","stopName":"Atlantic Ave and Heather Dr","stopLat":38.27643,"stopLon":-122.04037,"zoneID":"72427","parentStation":""},"75107":{"stopID":"75107","stopName":"Heather Dr and Dahlia St","stopLat":38.2738,"stopLon":-122.0407,"zoneID":"72427","parentStation":""},"75117":{"stopID":"75117","stopName":"Raley'S","stopLat":38.25822,"stopLon":-122.06586,"zoneID":"72427","parentStation":""},"75118":{"stopID":"75118","stopName":"Gateway Blvd and Gateway Court","stopLat":38.25992,"stopLon":-122.05741,"zoneID":"72427","parentStation":""},"75119":{"stopID":"75119","stopName":"Gateway Blvd and Kaiser Medical","stopLat":38.26232,"stopLon":-122.05649,"zoneID":"72427","parentStation":""},"75131":{"stopID":"75131","stopName":"Clay Bank Rd and Horizon Dr","stopLat":38.27489,"stopLon":-122.0064,"zoneID":"72427","parentStation":""},"75132":{"stopID":"75132","stopName":"Clay Bank Rd and Canal St","stopLat":38.27733,"stopLon":-122.00641,"zoneID":"72427","parentStation":""},"75133":{"stopID":"75133","stopName":"Cement Hill Rd and Bay Tree Dr","stopLat":38.27994,"stopLon":-122.00978,"zoneID":"72427","parentStation":""},"75134":{"stopID":"75134","stopName":"Cement Hill Rd At Laurel Creek Park","stopLat":38.27998,"stopLon":-122.01376,"zoneID":"72427","parentStation":""},"75135":{"stopID":"75135","stopName":"Cement Hill Rd At Laurel Creek Park #2","stopLat":38.27992,"stopLon":-122.01649,"zoneID":"72427","parentStation":""},"75148":{"stopID":"75148","stopName":"Hawthorne Dr and N Texas St","stopLat":38.28004,"stopLon":-122.03504,"zoneID":"72427","parentStation":""},"75150":{"stopID":"75150","stopName":"Orchid St and Larkspur Ln","stopLat":38.27808,"stopLon":-122.03704,"zoneID":"72427","parentStation":""},"75153":{"stopID":"75153","stopName":"Cordelia Rd and West St","stopLat":38.23584,"stopLon":-122.04418,"zoneID":"72427","parentStation":""},"75156":{"stopID":"75156","stopName":"Civic Center Dr At Suisun City Hall","stopLat":38.23785,"stopLon":-122.03656,"zoneID":"72427","parentStation":""},"75158":{"stopID":"75158","stopName":"Driftwood Dr and Marina Blvd","stopLat":38.24139,"stopLon":-122.03132,"zoneID":"72427","parentStation":""},"75159":{"stopID":"75159","stopName":"Buena Vista Ave and Marina Blvd","stopLat":38.24651,"stopLon":-122.03105,"zoneID":"72427","parentStation":""},"75160":{"stopID":"75160","stopName":"Buena Vista Ave and Pittier Way","stopLat":38.24836,"stopLon":-122.02746,"zoneID":"72427","parentStation":""},"75162":{"stopID":"75162","stopName":"Heritage Park At Pintail Drive","stopLat":38.24956,"stopLon":-122.02351,"zoneID":"72427","parentStation":""},"75163":{"stopID":"75163","stopName":"Suisun City Senior Center","stopLat":38.24671,"stopLon":-122.01845,"zoneID":"72427","parentStation":""},"75165":{"stopID":"75165","stopName":"Buena Vista Ave and Village Dr","stopLat":38.24956,"stopLon":-122.02549,"zoneID":"72427","parentStation":""},"75166":{"stopID":"75166","stopName":"Buena Vista Ave and Pittier Way","stopLat":38.24864,"stopLon":-122.02683,"zoneID":"72427","parentStation":""},"75168":{"stopID":"75168","stopName":"Buena Vista Ave and Marina Blvd","stopLat":38.24645,"stopLon":-122.03151,"zoneID":"72427","parentStation":""},"75169":{"stopID":"75169","stopName":"Marina Blvd and Lotz Way","stopLat":38.24278,"stopLon":-122.03145,"zoneID":"72427","parentStation":""},"75170":{"stopID":"75170","stopName":"Driftwood Dr and Josiah Circle","stopLat":38.24137,"stopLon":-122.03429,"zoneID":"72427","parentStation":""},"75171":{"stopID":"75171","stopName":"Driftwood Dr and Josiah Circle","stopLat":38.2415,"stopLon":-122.03443,"zoneID":"72427","parentStation":""},"75172":{"stopID":"75172","stopName":"Main Street and Lotz Way","stopLat":38.24308,"stopLon":-122.04048,"zoneID":"72427","parentStation":""},"75173":{"stopID":"75173","stopName":"Railroad Ave At Suisun City Amtrak Station","stopLat":38.24296,"stopLon":-122.04149,"zoneID":"72427","parentStation":""},"75174":{"stopID":"75174","stopName":"Main St and Driftwood Dr","stopLat":38.24131,"stopLon":-122.04066,"zoneID":"72427","parentStation":""},"75176":{"stopID":"75176","stopName":"Main St and California St","stopLat":38.23758,"stopLon":-122.04068,"zoneID":"72427","parentStation":""},"75177":{"stopID":"75177","stopName":"Cordelia St and West St","stopLat":38.23598,"stopLon":-122.04381,"zoneID":"72427","parentStation":""},"75178":{"stopID":"75178","stopName":"Pennsylvania Ave and Woolner Ave","stopLat":38.24446,"stopLon":-122.05015,"zoneID":"72427","parentStation":""},"75186":{"stopID":"75186","stopName":"Blossom Ave and Canvasback Dr","stopLat":38.25243,"stopLon":-122.01486,"zoneID":"72427","parentStation":""},"75193":{"stopID":"75193","stopName":"Kroc Center","stopLat":38.24904,"stopLon":-122.00829,"zoneID":"72427","parentStation":""},"75194":{"stopID":"75194","stopName":"Pintail Dr and Emperor Dr","stopLat":38.24772,"stopLon":-122.00462,"zoneID":"72427","parentStation":""},"75206":{"stopID":"75206","stopName":"Potrero Cir and Lawler Ranch Pkwy","stopLat":38.23881,"stopLon":-121.99201,"zoneID":"72427","parentStation":""},"75207":{"stopID":"75207","stopName":"Mayfield Circle and Engell Drive","stopLat":38.23968,"stopLon":-122.00027,"zoneID":"72427","parentStation":""},"75208":{"stopID":"75208","stopName":"Mayfield Way and Lawler Ranch Pkwy","stopLat":38.24087,"stopLon":-122.00514,"zoneID":"72427","parentStation":""},"75215":{"stopID":"75215","stopName":"Sunset Avenue and Pintail Drive","stopLat":38.24988,"stopLon":-122.02023,"zoneID":"72427","parentStation":""},"75217":{"stopID":"75217","stopName":"Sunset Ave and Canvasback Dr","stopLat":38.2534,"stopLon":-122.01971,"zoneID":"72427","parentStation":""},"75219":{"stopID":"75219","stopName":"Dover Park","stopLat":38.25827,"stopLon":-122.02324,"zoneID":"72427","parentStation":""},"75222":{"stopID":"75222","stopName":"Travis Blvd and Webster St","stopLat":38.25817,"stopLon":-122.04707,"zoneID":"72427","parentStation":""},"75224":{"stopID":"75224","stopName":"E Travis Blvd and Sunset Ave","stopLat":38.25804,"stopLon":-122.02058,"zoneID":"72427","parentStation":""},"75225":{"stopID":"75225","stopName":"Sunset Ave and Railroad Ave","stopLat":38.25332,"stopLon":-122.02011,"zoneID":"72427","parentStation":""},"75232":{"stopID":"75232","stopName":"Pintail Dr and Harrier Dr","stopLat":38.24839,"stopLon":-121.99535,"zoneID":"72427","parentStation":""},"75234":{"stopID":"75234","stopName":"Scoter Way and Canvasback Dr.","stopLat":38.25237,"stopLon":-122.01074,"zoneID":"72427","parentStation":""},"75235":{"stopID":"75235","stopName":"Pintail Dr and Scoter Way","stopLat":38.24932,"stopLon":-122.01018,"zoneID":"72427","parentStation":""},"75237":{"stopID":"75237","stopName":"Pennsylvania Ave and Kentucky St","stopLat":38.25095,"stopLon":-122.04978,"zoneID":"72427","parentStation":""},"75238":{"stopID":"75238","stopName":"Pintail Dr and Woodlark Dr","stopLat":38.24729,"stopLon":-121.99989,"zoneID":"72427","parentStation":""},"75239":{"stopID":"75239","stopName":"Pintail Dr and Seagull Dr","stopLat":38.24813,"stopLon":-121.99577,"zoneID":"72427","parentStation":""},"75242":{"stopID":"75242","stopName":"Montebello Dr and El Mar Ct","stopLat":38.24674,"stopLon":-121.98541,"zoneID":"72427","parentStation":""},"75247":{"stopID":"75247","stopName":"Dover Ave and Amherst Way","stopLat":38.27461,"stopLon":-122.02505,"zoneID":"72427","parentStation":""},"75248":{"stopID":"75248","stopName":"Dover Ave and Sunrise Dr","stopLat":38.27828,"stopLon":-122.025,"zoneID":"72427","parentStation":""},"75251":{"stopID":"75251","stopName":"Cement Hill Rd and Camrose Ave","stopLat":38.27823,"stopLon":-122.02896,"zoneID":"72427","parentStation":""},"75252":{"stopID":"75252","stopName":"Fairfield High School","stopLat":38.27644,"stopLon":-122.0315,"zoneID":"72427","parentStation":""},"75254":{"stopID":"75254","stopName":"Heather Dr and Dahlia St","stopLat":38.27377,"stopLon":-122.04056,"zoneID":"72427","parentStation":""},"75255":{"stopID":"75255","stopName":"Heather Dr and Jasmine St","stopLat":38.27604,"stopLon":-122.04053,"zoneID":"72427","parentStation":""},"75256":{"stopID":"75256","stopName":"SMART and Final","stopLat":38.27625,"stopLon":-122.03496,"zoneID":"72427","parentStation":""},"75259":{"stopID":"75259","stopName":"Pintail Dr and Walters Rd","stopLat":38.249,"stopLon":-121.9888,"zoneID":"72427","parentStation":""},"75261":{"stopID":"75261","stopName":"E Travis Blvd and Phoenix Dr","stopLat":38.25811,"stopLon":-122.02243,"zoneID":"72427","parentStation":""},"75265":{"stopID":"75265","stopName":"Travis Blvd and Fairfield Ave","stopLat":38.25829,"stopLon":-122.04567,"zoneID":"72427","parentStation":""},"75266":{"stopID":"75266","stopName":"W Texas St and Gregory St","stopLat":38.24939,"stopLon":-122.05699,"zoneID":"72427","parentStation":""},"75267":{"stopID":"75267","stopName":"W Texas St and 5th St","stopLat":38.24938,"stopLon":-122.06111,"zoneID":"72427","parentStation":""},"75268":{"stopID":"75268","stopName":"Fairfield Transportation Center","stopLat":38.24877,"stopLon":-122.06848,"zoneID":"72431","parentStation":""},"75269":{"stopID":"75269","stopName":"Beck Ave and Woolner Ave","stopLat":38.24473,"stopLon":-122.06654,"zoneID":"72427","parentStation":""},"75270":{"stopID":"75270","stopName":"Solano County Health and Human Services","stopLat":38.23597,"stopLon":-122.06751,"zoneID":"72427","parentStation":""},"75272":{"stopID":"75272","stopName":"Courage Dr and North Watney Way","stopLat":38.23436,"stopLon":-122.07947,"zoneID":"72427","parentStation":""},"75273":{"stopID":"75273","stopName":"Courage Dr and Chadbourne Rd","stopLat":38.23433,"stopLon":-122.08248,"zoneID":"72427","parentStation":""},"75274":{"stopID":"75274","stopName":"Chadbourne and Busch Dr","stopLat":38.23719,"stopLon":-122.08388,"zoneID":"72427","parentStation":""},"75275":{"stopID":"75275","stopName":"Suisun Valley Rd and Snowberry Way","stopLat":38.23642,"stopLon":-122.12579,"zoneID":"72427","parentStation":""},"75276":{"stopID":"75276","stopName":"Solano Community College","stopLat":38.23488,"stopLon":-122.12504,"zoneID":"72427","parentStation":""},"75280":{"stopID":"75280","stopName":"Lopes Rd and West Cordelia Rd","stopLat":38.20938,"stopLon":-122.13858,"zoneID":"72427","parentStation":""},"75281":{"stopID":"75281","stopName":"Fulton Dr and  Edison Ct","stopLat":38.2071,"stopLon":-122.14216,"zoneID":"72427","parentStation":""},"75282":{"stopID":"75282","stopName":"Watt Dr and Watt Ct","stopLat":38.20669,"stopLon":-122.14723,"zoneID":"72427","parentStation":""},"75283":{"stopID":"75283","stopName":"Oakbrook and Red Top Rd","stopLat":38.19754,"stopLon":-122.14664,"zoneID":"72427","parentStation":""},"75285":{"stopID":"75285","stopName":"Silverado Dr and Meadows Ct","stopLat":38.19493,"stopLon":-122.14067,"zoneID":"72427","parentStation":""},"75286":{"stopID":"75286","stopName":"Lopes Rd and Silver Creek Rd","stopLat":38.18987,"stopLon":-122.13826,"zoneID":"72427","parentStation":""},"75287":{"stopID":"75287","stopName":"Lopes Rd and Gold Hill Rd","stopLat":38.18098,"stopLon":-122.13786,"zoneID":"72427","parentStation":""},"75288":{"stopID":"75288","stopName":"Lopes Rd and Sonata Dr","stopLat":38.17876,"stopLon":-122.13265,"zoneID":"72427","parentStation":""},"75289":{"stopID":"75289","stopName":"Lopes Rd and Woodside Way","stopLat":38.17598,"stopLon":-122.13113,"zoneID":"72427","parentStation":""},"75290":{"stopID":"75290","stopName":"Lopes Rd and Canyon Hills Dr","stopLat":38.1733,"stopLon":-122.1296,"zoneID":"72427","parentStation":""},"75291":{"stopID":"75291","stopName":"Canyon Hills Dr and Firwood Way","stopLat":38.1715,"stopLon":-122.13259,"zoneID":"72427","parentStation":""},"75292":{"stopID":"75292","stopName":"Gold Hill Rd and Canyon Hills Dr","stopLat":38.1686,"stopLon":-122.13562,"zoneID":"72427","parentStation":""},"75293":{"stopID":"75293","stopName":"Gold Hill Rd and Northwood Dr","stopLat":38.17288,"stopLon":-122.13629,"zoneID":"72427","parentStation":""},"75294":{"stopID":"75294","stopName":"Green Valley Middle School","stopLat":38.1756,"stopLon":-122.13691,"zoneID":"72427","parentStation":""},"75295":{"stopID":"75295","stopName":"Gold Hill Rd and Cordelia Community Park","stopLat":38.17787,"stopLon":-122.13859,"zoneID":"72427","parentStation":""},"75296":{"stopID":"75296","stopName":"Lopes Rd and Gold Hill Rd","stopLat":38.18257,"stopLon":-122.13823,"zoneID":"72427","parentStation":""},"75297":{"stopID":"75297","stopName":"Oakbrook Dr and Lopes Rd","stopLat":38.18384,"stopLon":-122.13918,"zoneID":"72427","parentStation":""},"75298":{"stopID":"75298","stopName":"Oakbrook Dr and Rainier Ct","stopLat":38.1874,"stopLon":-122.14215,"zoneID":"72427","parentStation":""},"75300":{"stopID":"75300","stopName":"Oakbrook Dr and Oakbrook Ct","stopLat":38.19173,"stopLon":-122.14402,"zoneID":"72427","parentStation":""},"75301":{"stopID":"75301","stopName":"Oakbrook Dr and Oakbrook Cir","stopLat":38.19336,"stopLon":-122.14596,"zoneID":"72427","parentStation":""},"75302":{"stopID":"75302","stopName":"Oakbrook Dr and Amberwood Cir","stopLat":38.19565,"stopLon":-122.14664,"zoneID":"72427","parentStation":""},"75304":{"stopID":"75304","stopName":"Watt Dr and Fermi Dr","stopLat":38.19963,"stopLon":-122.1487,"zoneID":"72427","parentStation":""},"75305":{"stopID":"75305","stopName":"Watt Dr and Watt Ct","stopLat":38.20592,"stopLon":-122.14707,"zoneID":"72427","parentStation":""},"75306":{"stopID":"75306","stopName":"Fulton Dr and Edison Ct","stopLat":38.20716,"stopLon":-122.14203,"zoneID":"72427","parentStation":""},"75310":{"stopID":"75310","stopName":"Central Way and Ritchie Rd","stopLat":38.21364,"stopLon":-122.13716,"zoneID":"72427","parentStation":""},"75311":{"stopID":"75311","stopName":"Central Way and Ritchie Rd","stopLat":38.21461,"stopLon":-122.1374,"zoneID":"72427","parentStation":""},"75312":{"stopID":"75312","stopName":"Central Way and Grobric Ct","stopLat":38.21685,"stopLon":-122.13642,"zoneID":"72427","parentStation":""},"75313":{"stopID":"75313","stopName":"Pittman Rd and Central Way","stopLat":38.22009,"stopLon":-122.1271,"zoneID":"72427","parentStation":""},"75314":{"stopID":"75314","stopName":"Chadbourne and Busch Dr","stopLat":38.23731,"stopLon":-122.0843,"zoneID":"72427","parentStation":""},"75315":{"stopID":"75315","stopName":"Chadbourne Rd and Low Ct","stopLat":38.23536,"stopLon":-122.08408,"zoneID":"72427","parentStation":""},"75316":{"stopID":"75316","stopName":"Courage Dr and South Watney Way","stopLat":38.23409,"stopLon":-122.07976,"zoneID":"72427","parentStation":""},"75319":{"stopID":"75319","stopName":"Allan Witt Park","stopLat":38.24919,"stopLon":-122.06023,"zoneID":"72427","parentStation":""},"75320":{"stopID":"75320","stopName":"David Grant Usaf Medical Center","stopLat":38.26872,"stopLon":-121.96389,"zoneID":"72427","parentStation":""},"75322":{"stopID":"75322","stopName":"Pennsylvania Ave and B Gale Wilson Blvd","stopLat":38.2606,"stopLon":-122.0501,"zoneID":"72427","parentStation":""},"75325":{"stopID":"75325","stopName":"Solano Town Center","stopLat":38.26291,"stopLon":-122.05271,"zoneID":"72427","parentStation":""},"75327":{"stopID":"75327","stopName":"Solano Town Center  North Entrance","stopLat":38.26194,"stopLon":-122.0543,"zoneID":"72427","parentStation":""},"75329":{"stopID":"75329","stopName":"Pintail Dr and Wigeon Way","stopLat":38.2496,"stopLon":-122.01782,"zoneID":"72427","parentStation":""},"75330":{"stopID":"75330","stopName":"Pintail Dr and White Wing Lane","stopLat":38.24941,"stopLon":-122.00984,"zoneID":"72427","parentStation":""},"75334":{"stopID":"75334","stopName":"Woolner Ave and Gregory St","stopLat":38.24508,"stopLon":-122.0572,"zoneID":"72427","parentStation":""},"75335":{"stopID":"75335","stopName":"Woolner Ave and Enterprise Dr","stopLat":38.24508,"stopLon":-122.059,"zoneID":"72427","parentStation":""},"75336":{"stopID":"75336","stopName":"Woolner Ave At Sheldon Elementary School","stopLat":38.24514,"stopLon":-122.06418,"zoneID":"72427","parentStation":""},"75388":{"stopID":"75388","stopName":"Vacaville Transportation Center","stopLat":38.35848,"stopLon":-121.96474,"zoneID":"72428","parentStation":""},"75391":{"stopID":"75391","stopName":"Davis St. Park and Ride","stopLat":38.35119,"stopLon":-121.987,"zoneID":"72428","parentStation":""},"75392":{"stopID":"75392","stopName":"Dixon Park and Ride","stopLat":38.45548,"stopLon":-121.84201,"zoneID":"72432","parentStation":""},"75393":{"stopID":"75393","stopName":"Uc Davis Silo","stopLat":38.53931,"stopLon":-121.75333,"zoneID":"72433","parentStation":""},"75395":{"stopID":"75395","stopName":"Capitol Mall At Embassy Suites","stopLat":38.57998,"stopLon":-121.50651,"zoneID":"72429","parentStation":""},"75397":{"stopID":"75397","stopName":"Park Rd and Industrial Way","stopLat":38.06842,"stopLon":-122.12906,"zoneID":"72434","parentStation":""},"75398":{"stopID":"75398","stopName":"Pleasant Hill BART Station","stopLat":37.92815,"stopLon":-122.05601,"zoneID":"72430","parentStation":""},"75399":{"stopID":"75399","stopName":"Walnut Creek BART","stopLat":37.90547,"stopLon":-122.06862,"zoneID":"72430","parentStation":""},"75400":{"stopID":"75400","stopName":"El Cerrito Del Norte BART","stopLat":37.9252,"stopLon":-122.31731,"zoneID":"72435","parentStation":""},"75405":{"stopID":"75405","stopName":"J St and 6th St","stopLat":38.5816,"stopLon":-121.49866,"zoneID":"72429","parentStation":""},"75406":{"stopID":"75406","stopName":"9th St and  L St","stopLat":38.57812,"stopLon":-121.49599,"zoneID":"72429","parentStation":""},"75407":{"stopID":"75407","stopName":"9th St and O St","stopLat":38.57496,"stopLon":-121.49738,"zoneID":"72429","parentStation":""},"75419":{"stopID":"75419","stopName":"Air Force Inn and Bowling Alley","stopLat":38.27207,"stopLon":-121.93535,"zoneID":"72427","parentStation":""},"75500":{"stopID":"75500","stopName":"Pintail Dr and Walters Rd","stopLat":38.24886,"stopLon":-121.98892,"zoneID":"72427","parentStation":""},"75502":{"stopID":"75502","stopName":"W Texas St and 2nd St","stopLat":38.24918,"stopLon":-122.05521,"zoneID":"72427","parentStation":""},"75503":{"stopID":"75503","stopName":"W Texas St and 1st St","stopLat":38.24917,"stopLon":-122.05249,"zoneID":"72427","parentStation":""},"75504":{"stopID":"75504","stopName":"Fairfield Civic Center","stopLat":38.2514,"stopLon":-122.04691,"zoneID":"72427","parentStation":""},"75505":{"stopID":"75505","stopName":"Armijo High School","stopLat":38.24995,"stopLon":-122.03929,"zoneID":"72427","parentStation":""},"75506":{"stopID":"75506","stopName":"N Texas St and Marigold Dr","stopLat":38.28471,"stopLon":-122.03392,"zoneID":"72427","parentStation":""},"75507":{"stopID":"75507","stopName":"Dickson Hill Rd and N Texas St","stopLat":38.29064,"stopLon":-122.03356,"zoneID":"72427","parentStation":""},"75508":{"stopID":"75508","stopName":"Dickson Hill Rd and El Camino Dr","stopLat":38.29021,"stopLon":-122.02888,"zoneID":"72427","parentStation":""},"75509":{"stopID":"75509","stopName":"Dover Ave and Dickson Hill Rd","stopLat":38.28853,"stopLon":-122.02494,"zoneID":"72427","parentStation":""},"75510":{"stopID":"75510","stopName":"Doverwood Apartments","stopLat":38.28163,"stopLon":-122.02497,"zoneID":"72427","parentStation":""},"75511":{"stopID":"75511","stopName":"Armijo High School","stopLat":38.25006,"stopLon":-122.03906,"zoneID":"72427","parentStation":""},"75512":{"stopID":"75512","stopName":"Civic Center Dr and Pennsylvania Ave","stopLat":38.2534,"stopLon":-122.04871,"zoneID":"72427","parentStation":""},"75513":{"stopID":"75513","stopName":"Webster St and Civic Center Dr.","stopLat":38.2535,"stopLon":-122.04496,"zoneID":"72427","parentStation":""},"75515":{"stopID":"75515","stopName":"Webster St and Kentucky St","stopLat":38.25179,"stopLon":-122.04334,"zoneID":"72427","parentStation":""},"75516":{"stopID":"75516","stopName":"Civic Center Dr and Pennsylvania Ave","stopLat":38.25358,"stopLon":-122.04903,"zoneID":"72427","parentStation":""},"75517":{"stopID":"75517","stopName":"Pennsylvania Ave and Grant St","stopLat":38.25593,"stopLon":-122.04973,"zoneID":"72427","parentStation":""},"75518":{"stopID":"75518","stopName":"Oliver Rd and Holiday Lane","stopLat":38.2569,"stopLon":-122.06787,"zoneID":"72427","parentStation":""},"75519":{"stopID":"75519","stopName":"Cement Hill Rd and Dover Ave","stopLat":38.27984,"stopLon":-122.02457,"zoneID":"72427","parentStation":""},"75520":{"stopID":"75520","stopName":"Cement Hill Rd and Peppertree Dr","stopLat":38.27971,"stopLon":-122.01228,"zoneID":"72427","parentStation":""},"75521":{"stopID":"75521","stopName":"Clay Bank Rd and Western Dr","stopLat":38.27413,"stopLon":-122.00666,"zoneID":"72427","parentStation":""},"75522":{"stopID":"75522","stopName":"Travis Ave and Ragsdale St","stopLat":38.27179,"stopLon":-121.95057,"zoneID":"72427","parentStation":""},"75523":{"stopID":"75523","stopName":"Travis Ave and Airmen Drive","stopLat":38.27204,"stopLon":-121.94621,"zoneID":"72427","parentStation":""},"75524":{"stopID":"75524","stopName":"Travis Ave and 1st St","stopLat":38.27207,"stopLon":-121.94049,"zoneID":"72427","parentStation":""},"75525":{"stopID":"75525","stopName":"Burgan Blvd and Airlift Dr  Passenger Terminal","stopLat":38.26693,"stopLon":-121.93169,"zoneID":"72427","parentStation":""},"75526":{"stopID":"75526","stopName":"Hickam Ave and Windward Dr","stopLat":38.26805,"stopLon":-121.93591,"zoneID":"72427","parentStation":""},"75527":{"stopID":"75527","stopName":"Hickam Ave and Skymaster Dr","stopLat":38.26839,"stopLon":-121.94883,"zoneID":"72427","parentStation":""},"75528":{"stopID":"75528","stopName":"Air Base Pkwy and Parker Rd","stopLat":38.27218,"stopLon":-121.95955,"zoneID":"72427","parentStation":""},"75529":{"stopID":"75529","stopName":"Main St and Morgan St","stopLat":38.23744,"stopLon":-122.04051,"zoneID":"72427","parentStation":""},"75530":{"stopID":"75530","stopName":"Main St and Sacramento St","stopLat":38.23952,"stopLon":-122.04048,"zoneID":"72427","parentStation":""},"75531":{"stopID":"75531","stopName":"Suisun City Post Office","stopLat":38.24654,"stopLon":-122.01782,"zoneID":"72427","parentStation":""},"75532":{"stopID":"75532","stopName":"Pennsylvania Ave and Ohio St","stopLat":38.24443,"stopLon":-122.0498,"zoneID":"72427","parentStation":""},"75533":{"stopID":"75533","stopName":"Woolner Ave and Gregory St","stopLat":38.24525,"stopLon":-122.05639,"zoneID":"72427","parentStation":""},"75534":{"stopID":"75534","stopName":"Bella Vista and Ventura Way","stopLat":38.24962,"stopLon":-121.9821,"zoneID":"72427","parentStation":""},"75535":{"stopID":"75535","stopName":"Bella Vista and Charleston St","stopLat":38.25307,"stopLon":-121.98626,"zoneID":"72427","parentStation":""},"75537":{"stopID":"75537","stopName":"Cordelia Library","stopLat":38.21764,"stopLon":-122.14445,"zoneID":"72427","parentStation":""},"75538":{"stopID":"75538","stopName":"Central Way","stopLat":38.21924,"stopLon":-122.13239,"zoneID":"72427","parentStation":""},"75540":{"stopID":"75540","stopName":"Pintail Dr and Woodlark Dr","stopLat":38.24748,"stopLon":-121.99951,"zoneID":"72427","parentStation":""},"75541":{"stopID":"75541","stopName":"Rodriquez High School","stopLat":38.19874,"stopLon":-122.1467,"zoneID":"72427","parentStation":""},"75542":{"stopID":"75542","stopName":"Air Base Pkwy and Parker Rd","stopLat":38.27197,"stopLon":-121.95955,"zoneID":"72427","parentStation":""},"75543":{"stopID":"75543","stopName":"Suisun City Walmart","stopLat":38.24155,"stopLon":-121.98859,"zoneID":"72427","parentStation":""},"75544":{"stopID":"75544","stopName":"Suisun City Walmart and 7-11","stopLat":38.24117,"stopLon":-121.98849,"zoneID":"72427","parentStation":""},"75545":{"stopID":"75545","stopName":"Lawler Ranch Pwky and Spinney Way","stopLat":38.23868,"stopLon":-122.00342,"zoneID":"72427","parentStation":""},"75546":{"stopID":"75546","stopName":"Lawler Ranch Pkwy and Fennie Way","stopLat":38.23697,"stopLon":-121.9997,"zoneID":"72427","parentStation":""},"75547":{"stopID":"75547","stopName":"Lawler Ranch Pkwy and Peytonia Lane","stopLat":38.23676,"stopLon":-121.99303,"zoneID":"72427","parentStation":""},"75548":{"stopID":"75548","stopName":"5th St and P St","stopLat":38.57577,"stopLon":-121.5025,"zoneID":"72429","parentStation":""},"75549":{"stopID":"75549","stopName":"Capitol Mall and 2nd St","stopLat":38.58011,"stopLon":-121.50612,"zoneID":"72429","parentStation":""},"75550":{"stopID":"75550","stopName":"Park Rd and Industrial Way","stopLat":38.06842,"stopLon":-122.12881,"zoneID":"72434","parentStation":""},"75552":{"stopID":"75552","stopName":"Pennsylvania Ave and Civic Center Dr","stopLat":38.25369,"stopLon":-122.0497,"zoneID":"72427","parentStation":""},"75555":{"stopID":"75555","stopName":"Fairfield Vacaville Train Station","stopLat":38.28576,"stopLon":-121.96847,"zoneID":"72427","parentStation":""},"75556":{"stopID":"75556","stopName":"Montebello Vista Park","stopLat":38.24861,"stopLon":-121.98227,"zoneID":"72427","parentStation":""},"75557":{"stopID":"75557","stopName":"Pennsylvania Ave and Utah St","stopLat":38.25434,"stopLon":-122.05006,"zoneID":"72427","parentStation":""},"75558":{"stopID":"75558","stopName":"Buena Vista Ave and Rio Verde","stopLat":38.24738,"stopLon":-122.02975,"zoneID":"72427","parentStation":""},"75559":{"stopID":"75559","stopName":"Northbay Medical Center","stopLat":38.2611,"stopLon":-122.04702,"zoneID":"72427","parentStation":""},"75560":{"stopID":"75560","stopName":"B Gale Wilson Boulevard and Dana Drive","stopLat":38.26107,"stopLon":-122.0462,"zoneID":"72427","parentStation":""},"75561":{"stopID":"75561","stopName":"Business Center Dr and Westamerica Dr","stopLat":38.22514,"stopLon":-122.13245,"zoneID":"72427","parentStation":""},"75562":{"stopID":"75562","stopName":"Dover Avenue and San Marco Street","stopLat":38.26201,"stopLon":-122.02495,"zoneID":"72427","parentStation":""},"75576":{"stopID":"75576","stopName":"Suisun Valley Rd and Westamerica Dr","stopLat":38.22954,"stopLon":-122.12914,"zoneID":"72427","parentStation":""},"75577":{"stopID":"75577","stopName":"Suisun Valley Rd and Kaiser Dr","stopLat":38.22921,"stopLon":-122.12879,"zoneID":"72427","parentStation":""},"75578":{"stopID":"75578","stopName":"Vaca Valley Parkway","stopLat":38.39178,"stopLon":-121.94315,"zoneID":"72428","parentStation":""},"75579":{"stopID":"75579","stopName":"Vaca Valley Parkway","stopLat":38.39225,"stopLon":-121.94301,"zoneID":"72428","parentStation":""},"75580":{"stopID":"75580","stopName":"Sacramento Valley Station","stopLat":38.58466,"stopLon":-121.50156,"zoneID":"72429","parentStation":""}}