{"s1":{"stopID":"s1","stopName":"Millennium Station","stopLat":41.88417,"stopLon":-87.62306,"zoneID":"1","parentStation":""},"s2":{"stopID":"s2","stopName":"Van Buren St.","stopLat":41.87694,"stopLon":-87.62306,"zoneID":"1","parentStation":""},"s3":{"stopID":"s3","stopName":"Museum Campus/11th St.","stopLat":41.86861,"stopLon":-87.62139,"zoneID":"1","parentStation":""},"s4":{"stopID":"s4","stopName":"McCormick Place","stopLat":41.85139,"stopLon":-87.61639,"zoneID":"1","parentStation":""},"s5":{"stopID":"s5","stopName":"57th St.","stopLat":41.79333,"stopLon":-87.5875,"zoneID":"2","parentStation":""},"s6":{"stopID":"s6","stopName":"63rd St.","stopLat":41.78028,"stopLon":-87.59056,"zoneID":"2","parentStation":""},"s7":{"stopID":"s7","stopName":"Hegewisch","stopLat":41.64619,"stopLon":-87.54347,"zoneID":"3","parentStation":""},"s8":{"stopID":"s8","stopName":"Hammond","stopLat":41.63101,"stopLon":-87.51556,"zoneID":"4","parentStation":""},"s9":{"stopID":"s9","stopName":"East Chicago","stopLat":41.61178,"stopLon":-87.4793,"zoneID":"4","parentStation":""},"s10":{"stopID":"s10","stopName":"Gary/Chicago Airport","stopLat":41.6055,"stopLon":-87.39424,"zoneID":"5","parentStation":""},"s11":{"stopID":"s11","stopName":"Gary Metro Center","stopLat":41.60473,"stopLon":-87.33792,"zoneID":"5","parentStation":""},"s12":{"stopID":"s12","stopName":"Miller","stopLat":41.59786,"stopLon":-87.26797,"zoneID":"5","parentStation":""},"s13":{"stopID":"s13","stopName":"Portage/Ogden Dunes","stopLat":41.61733,"stopLon":-87.18687,"zoneID":"6","parentStation":""},"s14":{"stopID":"s14","stopName":"Dune Park","stopLat":41.6449,"stopLon":-87.06082,"zoneID":"6","parentStation":""},"s15":{"stopID":"s15","stopName":"Beverly Shores","stopLat":41.67321,"stopLon":-86.98552,"zoneID":"7","parentStation":""},"s17":{"stopID":"s17","stopName":"Carroll Ave. (Michigan City)","stopLat":41.71327,"stopLon":-86.86769,"zoneID":"8","parentStation":""},"s18":{"stopID":"s18","stopName":"Hudson Lake","stopLat":41.70945,"stopLon":-86.53766,"zoneID":"10","parentStation":""},"s19":{"stopID":"s19","stopName":"South Bend Airport","stopLat":41.70076,"stopLon":-86.31095,"zoneID":"11","parentStation":""}}