{"57762":{"stopID":"57762","stopName":"Willow Rd & Coleman Ave","stopLat":37.46119,"stopLon":-122.15999,"zoneID":"","parentStation":""},"340007":{"stopID":"340007","stopName":"Broadway Caltrain Station","stopLat":37.58712,"stopLon":-122.36208,"zoneID":"","parentStation":""},"341620":{"stopID":"341620","stopName":"256 37th Ave (San Mateo Medical Ctr)","stopLat":37.53183,"stopLon":-122.30073,"zoneID":"","parentStation":""},"346183":{"stopID":"346183","stopName":"Willow Rd & Coleman Ave","stopLat":37.4611,"stopLon":-122.16034,"zoneID":"","parentStation":""},"3241536":{"stopID":"3241536","stopName":"Bayshore Caltrain Station","stopLat":37.70875,"stopLon":-122.40152,"zoneID":"","parentStation":""},"3241537":{"stopID":"3241537","stopName":"Old County / Bayshore","stopLat":37.68512,"stopLon":-122.39946,"zoneID":"","parentStation":""},"3241538":{"stopID":"3241538","stopName":"Old County / San Francisco (USPS Office)","stopLat":37.68488,"stopLon":-122.4024,"zoneID":"","parentStation":""},"3241996":{"stopID":"3241996","stopName":"Bayshore & Leland","stopLat":37.71111,"stopLon":-122.40389,"zoneID":"","parentStation":""},"3241997":{"stopID":"3241997","stopName":"Bayshore & Geneva","stopLat":37.70387,"stopLon":-122.40759,"zoneID":"","parentStation":""},"3241998":{"stopID":"3241998","stopName":"Bayshore & Guadalupe","stopLat":37.69192,"stopLon":-122.40449,"zoneID":"","parentStation":""},"3241999":{"stopID":"3241999","stopName":"140 Valley","stopLat":37.68738,"stopLon":-122.40264,"zoneID":"","parentStation":""},"3242000":{"stopID":"3242000","stopName":"240 Valley","stopLat":37.68817,"stopLon":-122.40471,"zoneID":"","parentStation":""},"3242001":{"stopID":"3242001","stopName":"380 Valley","stopLat":37.68832,"stopLon":-122.41042,"zoneID":"","parentStation":""},"3242002":{"stopID":"3242002","stopName":"422 Valley","stopLat":37.68867,"stopLon":-122.4119,"zoneID":"","parentStation":""},"3242003":{"stopID":"3242003","stopName":"440 Valley","stopLat":37.6901,"stopLon":-122.4141,"zoneID":"","parentStation":""},"3242004":{"stopID":"3242004","stopName":"460 Valley","stopLat":37.69099,"stopLon":-122.41638,"zoneID":"","parentStation":""},"3242005":{"stopID":"3242005","stopName":"480 Valley","stopLat":37.69187,"stopLon":-122.41933,"zoneID":"","parentStation":""},"3242006":{"stopID":"3242006","stopName":"W. Hill Dr. & W. Hill PL","stopLat":37.69265,"stopLon":-122.42221,"zoneID":"","parentStation":""},"3242007":{"stopID":"3242007","stopName":"150 West Hill Pl.","stopLat":37.69283,"stopLon":-122.42405,"zoneID":"","parentStation":""},"3242008":{"stopID":"3242008","stopName":"175 South Hill","stopLat":37.68968,"stopLon":-122.41935,"zoneID":"","parentStation":""},"3242009":{"stopID":"3242009","stopName":"155 South Hill","stopLat":37.68934,"stopLon":-122.41816,"zoneID":"","parentStation":""},"3242010":{"stopID":"3242010","stopName":"101 South Hill","stopLat":37.68804,"stopLon":-122.41486,"zoneID":"","parentStation":""},"3242011":{"stopID":"3242011","stopName":"99 South Hill","stopLat":37.68747,"stopLon":-122.41384,"zoneID":"","parentStation":""},"3242012":{"stopID":"3242012","stopName":"San Bruno / Mendocino","stopLat":37.68272,"stopLon":-122.40065,"zoneID":"","parentStation":""},"3242013":{"stopID":"3242013","stopName":"San Bruno / Alvarado","stopLat":37.6814,"stopLon":-122.39956,"zoneID":"","parentStation":""},"3242014":{"stopID":"3242014","stopName":"San Bruno / Glen Park Way","stopLat":37.6799,"stopLon":-122.39843,"zoneID":"","parentStation":""},"3242015":{"stopID":"3242015","stopName":"3745 Bayshore","stopLat":37.68028,"stopLon":-122.39418,"zoneID":"","parentStation":""},"3242016":{"stopID":"3242016","stopName":"Bayshore & Tunnel","stopLat":37.68525,"stopLon":-122.39768,"zoneID":"","parentStation":""},"3242017":{"stopID":"3242017","stopName":"Bayshore & Guadalupe","stopLat":37.69299,"stopLon":-122.40473,"zoneID":"","parentStation":""},"3242018":{"stopID":"3242018","stopName":"Bayshore Blvd & Geneva","stopLat":37.70512,"stopLon":-122.40659,"zoneID":"","parentStation":""},"3242019":{"stopID":"3242019","stopName":"Bayshore & Visitacion","stopLat":37.71068,"stopLon":-122.40385,"zoneID":"","parentStation":""},"3242020":{"stopID":"3242020","stopName":"Bayshore & Blanken","stopLat":37.71227,"stopLon":-122.40164,"zoneID":"","parentStation":""},"3243100":{"stopID":"3243100","stopName":"Bayshore/Hinckley","stopLat":37.59909,"stopLon":-122.36731,"zoneID":"","parentStation":""},"3243101":{"stopID":"3243101","stopName":"Millbrae Intermodal Station (East)","stopLat":37.60077,"stopLon":-122.38619,"zoneID":"","parentStation":""},"3243102":{"stopID":"3243102","stopName":"1649 Adrian Road","stopLat":37.59779,"stopLon":-122.374,"zoneID":"","parentStation":""},"3243103":{"stopID":"3243103","stopName":"1600 Rollins Road","stopLat":37.59485,"stopLon":-122.37383,"zoneID":"","parentStation":""},"3243104":{"stopID":"3243104","stopName":"Rollins/Guittard","stopLat":37.59759,"stopLon":-122.37909,"zoneID":"","parentStation":""},"3243105":{"stopID":"3243105","stopName":"1799 Old Bayshore Hwy (AM Only)","stopLat":37.60245,"stopLon":-122.37202,"zoneID":"","parentStation":""},"3243106":{"stopID":"3243106","stopName":"1600 Bayshore Hwy (PM Only)","stopLat":37.59961,"stopLon":-122.36756,"zoneID":"","parentStation":""},"3243107":{"stopID":"3243107","stopName":"1333 Bayshore Hwy (AM Only)","stopLat":37.59399,"stopLon":-122.36442,"zoneID":"","parentStation":""},"3243109":{"stopID":"3243109","stopName":"Airport/Bayview","stopLat":37.59034,"stopLon":-122.34078,"zoneID":"","parentStation":""},"3243110":{"stopID":"3243110","stopName":"600 Airport Blvd.","stopLat":37.58951,"stopLon":-122.34342,"zoneID":"","parentStation":""},"3243111":{"stopID":"3243111","stopName":"700 Airport Blvd.","stopLat":37.58974,"stopLon":-122.34742,"zoneID":"","parentStation":""},"3243406":{"stopID":"3243406","stopName":"800 Airport Blvd.","stopLat":37.59083,"stopLon":-122.34997,"zoneID":"","parentStation":""},"3243407":{"stopID":"3243407","stopName":"1350 Bayshore Hwy (PM Only)","stopLat":37.59457,"stopLon":-122.36443,"zoneID":"","parentStation":""},"3243409":{"stopID":"3243409","stopName":"1800 Old Bayshore Hwy (PM)","stopLat":37.60287,"stopLon":-122.37243,"zoneID":"","parentStation":""},"3243410":{"stopID":"3243410","stopName":"David/Rollins","stopLat":37.5935,"stopLon":-122.37103,"zoneID":"","parentStation":""},"3244682":{"stopID":"3244682","stopName":"Millbrae Intermodal Station (West)","stopLat":37.59946,"stopLon":-122.38652,"zoneID":"","parentStation":""},"3245056":{"stopID":"3245056","stopName":"San Mateo Medical Center","stopLat":37.53054,"stopLon":-122.30071,"zoneID":"","parentStation":""},"3245060":{"stopID":"3245060","stopName":"Alameda de las Pulgas/20th Ave. (AM Stop)","stopLat":37.54583,"stopLon":-122.32099,"zoneID":"","parentStation":""},"3245061":{"stopID":"3245061","stopName":"Laurelwood Shopping Ctr (AM Stop)","stopLat":37.53371,"stopLon":-122.32761,"zoneID":"","parentStation":""},"3245062":{"stopID":"3245062","stopName":"Peninsula Office Park  (Top)","stopLat":37.53654,"stopLon":-122.32728,"zoneID":"","parentStation":""},"3245063":{"stopID":"3245063","stopName":"Peninsula Office Park  (End of Cul-De-Sac)","stopLat":37.5366,"stopLon":-122.32363,"zoneID":"","parentStation":""},"3245064":{"stopID":"3245064","stopName":"W. Hillsdale/31st Avenue (AM Stop)","stopLat":37.53216,"stopLon":-122.32364,"zoneID":"","parentStation":""},"3245065":{"stopID":"3245065","stopName":"W. Hillsdale/Del Monte Street (AM Stop)","stopLat":37.52992,"stopLon":-122.31409,"zoneID":"","parentStation":""},"3245066":{"stopID":"3245066","stopName":"Laurelwood Shopping Ctr (PM Stop)","stopLat":37.53432,"stopLon":-122.32825,"zoneID":"","parentStation":""},"3245067":{"stopID":"3245067","stopName":"W. Hillsdale/Del Monte Street (PM Stop)","stopLat":37.53,"stopLon":-122.31415,"zoneID":"","parentStation":""},"3245068":{"stopID":"3245068","stopName":"W. Hillsdale/31st Avenue (PM Stop)","stopLat":37.53242,"stopLon":-122.32392,"zoneID":"","parentStation":""},"3245353":{"stopID":"3245353","stopName":"W. Hillsdale/Alameda de las Pulgas (AM Stop)","stopLat":37.53173,"stopLon":-122.30836,"zoneID":"","parentStation":""},"3245354":{"stopID":"3245354","stopName":"W. Hillsdale/Alameda de las Pulgas (PM Stop)","stopLat":37.53197,"stopLon":-122.30809,"zoneID":"","parentStation":""},"3245355":{"stopID":"3245355","stopName":"Alameda de las Pulgas/20th Ave. (PM Stop)","stopLat":37.54524,"stopLon":-122.32059,"zoneID":"","parentStation":""},"3245475":{"stopID":"3245475","stopName":"W. Hillsdale/Glendora Dr. (AM Only)","stopLat":37.53294,"stopLon":-122.32675,"zoneID":"","parentStation":""},"3249689":{"stopID":"3249689","stopName":"Balboa Park BART (Geneva/Delano)","stopLat":37.72018,"stopLon":-122.44545,"zoneID":"","parentStation":""},"3251041":{"stopID":"3251041","stopName":"Hillsdale Caltrain Station","stopLat":37.54344,"stopLon":-122.30226,"zoneID":"","parentStation":""},"3251043":{"stopID":"3251043","stopName":"777 Mariners Island","stopLat":37.56137,"stopLon":-122.28757,"zoneID":"","parentStation":""},"3251044":{"stopID":"3251044","stopName":"300-310 Lakeside","stopLat":37.56969,"stopLon":-122.28333,"zoneID":"","parentStation":""},"3251045":{"stopID":"3251045","stopName":"353 Lakeside","stopLat":37.56587,"stopLon":-122.28216,"zoneID":"","parentStation":""},"3251046":{"stopID":"3251046","stopName":"303 Velocity Way","stopLat":37.56951,"stopLon":-122.28037,"zoneID":"","parentStation":""},"3251047":{"stopID":"3251047","stopName":"4000/4100 E. 3rd Ave.","stopLat":37.57134,"stopLon":-122.26631,"zoneID":"","parentStation":""},"3251048":{"stopID":"3251048","stopName":"E. 3rd Ave. & Lincoln Centre","stopLat":37.57085,"stopLon":-122.26947,"zoneID":"","parentStation":""},"3251049":{"stopID":"3251049","stopName":"Mariners' Island & Fashion Island","stopLat":37.55836,"stopLon":-122.2874,"zoneID":"","parentStation":""},"3251771":{"stopID":"3251771","stopName":"1800-1820 Gateway","stopLat":37.55712,"stopLon":-122.28114,"zoneID":"","parentStation":""},"3251772":{"stopID":"3251772","stopName":"Shell & E. Hillsdale Blvd.","stopLat":37.55906,"stopLon":-122.272,"zoneID":"","parentStation":""},"3251773":{"stopID":"3251773","stopName":"The Plaza at Triton Park","stopLat":37.56513,"stopLon":-122.26946,"zoneID":"","parentStation":""},"3251774":{"stopID":"3251774","stopName":"One Hundred Grand","stopLat":37.56339,"stopLon":-122.26919,"zoneID":"","parentStation":""},"3251775":{"stopID":"3251775","stopName":"393 Vintage Park","stopLat":37.5628,"stopLon":-122.27727,"zoneID":"","parentStation":""},"3251776":{"stopID":"3251776","stopName":"951 Mariners' Island","stopLat":37.55952,"stopLon":-122.28731,"zoneID":"","parentStation":""},"3255004":{"stopID":"3255004","stopName":"800/900 Concar Dr","stopLat":37.55521,"stopLon":-122.29975,"zoneID":"","parentStation":""},"3255006":{"stopID":"3255006","stopName":"400 Concar Dr","stopLat":37.5533,"stopLon":-122.30773,"zoneID":"","parentStation":""},"3255007":{"stopID":"3255007","stopName":"1700 S. Amphlett Blvd","stopLat":37.55862,"stopLon":-122.30202,"zoneID":"","parentStation":""},"3255546":{"stopID":"3255546","stopName":"Redwood City Caltrain Station","stopLat":37.48562,"stopLon":-122.23086,"zoneID":"","parentStation":""},"3642688":{"stopID":"3642688","stopName":"South San Francisco Caltrain","stopLat":37.65486,"stopLon":-122.40559,"zoneID":"","parentStation":""},"3642689":{"stopID":"3642689","stopName":"The Cove","stopLat":37.66322,"stopLon":-122.3945,"zoneID":"","parentStation":""},"3642690":{"stopID":"3642690","stopName":"1120 Veterans Blvd.","stopLat":37.66344,"stopLon":-122.39207,"zoneID":"","parentStation":""},"3642691":{"stopID":"3642691","stopName":"220 Oyster Point","stopLat":37.66206,"stopLon":-122.3915,"zoneID":"","parentStation":""},"3642692":{"stopID":"3642692","stopName":"200 Oyster Point","stopLat":37.66165,"stopLon":-122.39279,"zoneID":"","parentStation":""},"3642693":{"stopID":"3642693","stopName":"Oyster Point Blvd / Eccles (EB)","stopLat":37.66245,"stopLon":-122.38858,"zoneID":"","parentStation":""},"3642694":{"stopID":"3642694","stopName":"384 Oyster Point","stopLat":37.66466,"stopLon":-122.3843,"zoneID":"","parentStation":""},"3642695":{"stopID":"3642695","stopName":"Cul-de-Sac (395/400 Oyster Point Blvd)","stopLat":37.66653,"stopLon":-122.38335,"zoneID":"","parentStation":""},"3642696":{"stopID":"3642696","stopName":"Oyster Point Blvd / Gateway","stopLat":37.66223,"stopLon":-122.39479,"zoneID":"","parentStation":""},"3642698":{"stopID":"3642698","stopName":"Eccles / Rozzi","stopLat":37.6593,"stopLon":-122.39177,"zoneID":"","parentStation":""},"3642700":{"stopID":"3642700","stopName":"352 Oyster Point","stopLat":37.66225,"stopLon":-122.3842,"zoneID":"","parentStation":""},"3643000":{"stopID":"3643000","stopName":"South San Francisco BART (UGB/OTP, Bay #6)","stopLat":37.6645,"stopLon":-122.44403,"zoneID":"","parentStation":""},"3643001":{"stopID":"3643001","stopName":"South San Francisco BART (OPB, Bay #1)","stopLat":37.66364,"stopLon":-122.44338,"zoneID":"","parentStation":""},"3643194":{"stopID":"3643194","stopName":"South San Francisco Ferry Terminal","stopLat":37.66259,"stopLon":-122.37737,"zoneID":"","parentStation":""},"3643358":{"stopID":"3643358","stopName":"Maple & Blomquist","stopLat":37.49347,"stopLon":-122.21947,"zoneID":"","parentStation":""},"3643359":{"stopID":"3643359","stopName":"Chesapeake","stopLat":37.5001,"stopLon":-122.21384,"zoneID":"","parentStation":""},"3643360":{"stopID":"3643360","stopName":"100 Cardinal Way","stopLat":37.50417,"stopLon":-122.21987,"zoneID":"","parentStation":""},"3643361":{"stopID":"3643361","stopName":"Saginaw (Cul-de-Sac)","stopLat":37.50159,"stopLon":-122.21842,"zoneID":"","parentStation":""},"3643362":{"stopID":"3643362","stopName":"Galveston","stopLat":37.499,"stopLon":-122.2173,"zoneID":"","parentStation":""},"3643642":{"stopID":"3643642","stopName":"169 Harbor Way (AM Only)","stopLat":37.6528,"stopLon":-122.39974,"zoneID":"","parentStation":""},"3643643":{"stopID":"3643643","stopName":"230 E. Grand Ave. (AM Only)","stopLat":37.65375,"stopLon":-122.3962,"zoneID":"","parentStation":""},"3643644":{"stopID":"3643644","stopName":"Kimball & E. Grand Ave.","stopLat":37.65104,"stopLon":-122.39186,"zoneID":"","parentStation":""},"3643645":{"stopID":"3643645","stopName":"390 Swift Ave.","stopLat":37.65031,"stopLon":-122.38741,"zoneID":"","parentStation":""},"3643646":{"stopID":"3643646","stopName":"400/450 E. Jamie Court","stopLat":37.64881,"stopLon":-122.38555,"zoneID":"","parentStation":""},"3643648":{"stopID":"3643648","stopName":"Cabot/Allerton Ave.","stopLat":37.65392,"stopLon":-122.39015,"zoneID":"","parentStation":""},"3643649":{"stopID":"3643649","stopName":"349 Littlefield Ave. (AM Only)","stopLat":37.64883,"stopLon":-122.39449,"zoneID":"","parentStation":""},"3643652":{"stopID":"3643652","stopName":"SSF Conference Center","stopLat":37.64745,"stopLon":-122.40475,"zoneID":"","parentStation":""},"3643653":{"stopID":"3643653","stopName":"380 Littlefield Ave. (PM Only)","stopLat":37.64856,"stopLon":-122.39437,"zoneID":"","parentStation":""},"3643654":{"stopID":"3643654","stopName":"269 E. Grand Ave. (PM Only)","stopLat":37.65376,"stopLon":-122.39534,"zoneID":"","parentStation":""},"3643655":{"stopID":"3643655","stopName":"213 E. Grand Ave. (PM Only)","stopLat":37.65471,"stopLon":-122.39867,"zoneID":"","parentStation":""},"3645056":{"stopID":"3645056","stopName":"Mills-Peninsula Health Services","stopLat":37.59295,"stopLon":-122.383,"zoneID":"","parentStation":""},"3645057":{"stopID":"3645057","stopName":"Adeline & Balboa","stopLat":37.58831,"stopLon":-122.37573,"zoneID":"","parentStation":""},"3645058":{"stopID":"3645058","stopName":"Adeline & Bernal","stopLat":37.58566,"stopLon":-122.37808,"zoneID":"","parentStation":""},"3645059":{"stopID":"3645059","stopName":"Sisters of Mercy","stopLat":37.58367,"stopLon":-122.38269,"zoneID":"","parentStation":""},"3645060":{"stopID":"3645060","stopName":"Adeline & Bernal","stopLat":37.58574,"stopLon":-122.37789,"zoneID":"","parentStation":""},"3645061":{"stopID":"3645061","stopName":"Adeline & Balboa","stopLat":37.58831,"stopLon":-122.37562,"zoneID":"","parentStation":""},"3645349":{"stopID":"3645349","stopName":"1163 Chess Drive","stopLat":37.56626,"stopLon":-122.27249,"zoneID":"","parentStation":""},"3645350":{"stopID":"3645350","stopName":"1111-1133 Chess Drive","stopLat":37.56796,"stopLon":-122.27453,"zoneID":"","parentStation":""},"3645351":{"stopID":"3645351","stopName":"200 Lincoln Centre","stopLat":37.56941,"stopLon":-122.26932,"zoneID":"","parentStation":""},"3645352":{"stopID":"3645352","stopName":"Bridgepointe Circle & Bridgepointe Pkwy","stopLat":37.56314,"stopLon":-122.28163,"zoneID":"","parentStation":""},"3647463":{"stopID":"3647463","stopName":"Tunnel & Recycle (Bayshore Caltrain)","stopLat":37.70851,"stopLon":-122.40127,"zoneID":"","parentStation":""},"3647464":{"stopID":"3647464","stopName":"Tunnel & Blanken","stopLat":37.71196,"stopLon":-122.40082,"zoneID":"","parentStation":""},"3652492":{"stopID":"3652492","stopName":"Belmont Caltrain Station","stopLat":37.522,"stopLon":-122.27777,"zoneID":"","parentStation":""},"3652493":{"stopID":"3652493","stopName":"800 Bridge Pkwy.","stopLat":37.53319,"stopLon":-122.25896,"zoneID":"","parentStation":""},"3652494":{"stopID":"3652494","stopName":"Bridge Pkwy. & Island Drive","stopLat":37.53569,"stopLon":-122.25897,"zoneID":"","parentStation":""},"3652495":{"stopID":"3652495","stopName":"1600-1800 Bridge Pkwy","stopLat":37.53691,"stopLon":-122.25857,"zoneID":"","parentStation":""},"3652496":{"stopID":"3652496","stopName":"2800-3000 Bridge Pkwy.","stopLat":37.53976,"stopLon":-122.25642,"zoneID":"","parentStation":""},"3652497":{"stopID":"3652497","stopName":"3400-3600 Bridge Pkwy.","stopLat":37.53791,"stopLon":-122.2546,"zoneID":"","parentStation":""},"3652604":{"stopID":"3652604","stopName":"One Tower Place","stopLat":37.66628,"stopLon":-122.39787,"zoneID":"","parentStation":""},"3789574":{"stopID":"3789574","stopName":"Broadway & Douglas","stopLat":37.4859,"stopLon":-122.20732,"zoneID":"","parentStation":""},"3789575":{"stopID":"3789575","stopName":"505 Broadway @ Cardinal Hall","stopLat":37.48516,"stopLon":-122.20447,"zoneID":"","parentStation":""},"3789576":{"stopID":"3789576","stopName":"Barron Ave & Broadway @ Discovery Hall","stopLat":37.48473,"stopLon":-122.20233,"zoneID":"","parentStation":""},"3870773":{"stopID":"3870773","stopName":"475 E. Grand Ave.","stopLat":37.6514,"stopLon":-122.38157,"zoneID":"","parentStation":""},"4208717":{"stopID":"4208717","stopName":"1000 Gateway Blvd.","stopLat":37.66112,"stopLon":-122.39575,"zoneID":"","parentStation":""},"4208718":{"stopID":"4208718","stopName":"701 Gateway Blvd.","stopLat":37.65902,"stopLon":-122.39743,"zoneID":"","parentStation":""},"4208719":{"stopID":"4208719","stopName":"201 Haskins Way","stopLat":37.64995,"stopLon":-122.3872,"zoneID":"","parentStation":""},"4208767":{"stopID":"4208767","stopName":"110 Constitution","stopLat":37.48496,"stopLon":-122.17772,"zoneID":"","parentStation":""},"4208838":{"stopID":"4208838","stopName":"322 Airport Blvd. (BUR 102)","stopLat":37.58986,"stopLon":-122.33625,"zoneID":"","parentStation":""},"4209053":{"stopID":"4209053","stopName":"Oyster Point Blvd / Veterans Blvd (WB)","stopLat":37.66252,"stopLon":-122.39283,"zoneID":"","parentStation":""},"4209054":{"stopID":"4209054","stopName":"499 Forbes Blvd.","stopLat":37.65723,"stopLon":-122.3887,"zoneID":"","parentStation":""},"4209055":{"stopID":"4209055","stopName":"Marine Pkwy / Boardwalk Pl","stopLat":37.5364,"stopLon":-122.25111,"zoneID":"","parentStation":""},"4209056":{"stopID":"4209056","stopName":"Marine Pkwy / Sandpiper Ln","stopLat":37.53259,"stopLon":-122.25707,"zoneID":"","parentStation":""},"4209057":{"stopID":"4209057","stopName":"Marine Pkwy / Twin Dolphin (AM Only)","stopLat":37.52848,"stopLon":-122.26344,"zoneID":"","parentStation":""},"4209058":{"stopID":"4209058","stopName":"Marine Pkwy / Oracle Pkwy (PM Stop)","stopLat":37.52882,"stopLon":-122.26186,"zoneID":"","parentStation":""},"4209064":{"stopID":"4209064","stopName":"E. 3rd Ave & S. Norfolk (SE Corner)","stopLat":37.57363,"stopLon":-122.31044,"zoneID":"","parentStation":""},"4209065":{"stopID":"4209065","stopName":"E. 3rd Ave & S. Norfolk (NE Corner)","stopLat":37.5734,"stopLon":-122.31126,"zoneID":"","parentStation":""},"4209066":{"stopID":"4209066","stopName":"Oyster Point Blvd / Veterans Blvd (EB)","stopLat":37.66229,"stopLon":-122.39322,"zoneID":"","parentStation":""},"4209067":{"stopID":"4209067","stopName":"Oyster Point Blvd / Eccles (WB)","stopLat":37.66264,"stopLon":-122.38908,"zoneID":"","parentStation":""},"4209073":{"stopID":"4209073","stopName":"20th Ave & Alameda de las Pulgas","stopLat":37.54563,"stopLon":-122.32055,"zoneID":"","parentStation":""},"4209721":{"stopID":"4209721","stopName":"California Dr & Broadway (PM Only)","stopLat":37.58728,"stopLon":-122.36297,"zoneID":"","parentStation":""},"4209722":{"stopID":"4209722","stopName":"Saratoga Dr & Park Pl","stopLat":37.54465,"stopLon":-122.29296,"zoneID":"","parentStation":""},"4209723":{"stopID":"4209723","stopName":"Alameda de las Pulgas & Portola Dr","stopLat":37.53947,"stopLon":-122.31319,"zoneID":"","parentStation":""},"4209772":{"stopID":"4209772","stopName":"Seton Medical Center (1900 Sullivan)","stopLat":37.67915,"stopLon":-122.4746,"zoneID":"","parentStation":""},"4209773":{"stopID":"4209773","stopName":"Seton Medical Office Center (1800-1850 Sullivan)","stopLat":37.68109,"stopLon":-122.47428,"zoneID":"","parentStation":""},"4209776":{"stopID":"4209776","stopName":"Daly City BART Station","stopLat":37.70644,"stopLon":-122.46917,"zoneID":"","parentStation":""},"4209777":{"stopID":"4209777","stopName":"Sullivan & 91st St","stopLat":37.69029,"stopLon":-122.47215,"zoneID":"","parentStation":""},"4210101":{"stopID":"4210101","stopName":"Menlo Park Caltrain (Crosstown Shuttle Stop)","stopLat":37.4541,"stopLon":-122.18247,"zoneID":"","parentStation":""},"4210102":{"stopID":"4210102","stopName":"Ravenswood Ave & Pine St","stopLat":37.45621,"stopLon":-122.17868,"zoneID":"","parentStation":""},"4210103":{"stopID":"4210103","stopName":"Santa Cruz & Curtis","stopLat":37.45247,"stopLon":-122.18393,"zoneID":"","parentStation":""},"4210104":{"stopID":"4210104","stopName":"Alameda de las Pulgas & Santa Cruz Ave","stopLat":37.42858,"stopLon":-122.19583,"zoneID":"","parentStation":""},"4210105":{"stopID":"4210105","stopName":"Alameda de las Pulgas & Sharon Rd","stopLat":37.4305,"stopLon":-122.19927,"zoneID":"","parentStation":""},"4210106":{"stopID":"4210106","stopName":"Alameda de las Pulgas & Avy Ave","stopLat":37.43159,"stopLon":-122.20132,"zoneID":"","parentStation":""},"4210107":{"stopID":"4210107","stopName":"Avy Ave & Altschul Ave","stopLat":37.42978,"stopLon":-122.20307,"zoneID":"","parentStation":""},"4210108":{"stopID":"4210108","stopName":"Avy Ave & Monte Rosa Dr","stopLat":37.42799,"stopLon":-122.2053,"zoneID":"","parentStation":""},"4210109":{"stopID":"4210109","stopName":"Monte Rosa Dr & Eastridge Ave","stopLat":37.42559,"stopLon":-122.20074,"zoneID":"","parentStation":""},"4210110":{"stopID":"4210110","stopName":"Welch Rd @ Lucile Packard Children's Hospital","stopLat":37.43716,"stopLon":-122.17452,"zoneID":"","parentStation":""},"4210111":{"stopID":"4210111","stopName":"Welch Rd @ Lucile Packard Children's Hospital","stopLat":37.43719,"stopLon":-122.17374,"zoneID":"","parentStation":""},"4210112":{"stopID":"4210112","stopName":"University Dr & Middle Ave","stopLat":37.44633,"stopLon":-122.18044,"zoneID":"","parentStation":""},"4210113":{"stopID":"4210113","stopName":"University Dr & Middle Ave","stopLat":37.44623,"stopLon":-122.18052,"zoneID":"","parentStation":""},"4210114":{"stopID":"4210114","stopName":"Santa Cruz & Doyle","stopLat":37.45302,"stopLon":-122.1833,"zoneID":"","parentStation":""},"4210115":{"stopID":"4210115","stopName":"Santa Cruz & Evelyn","stopLat":37.45025,"stopLon":-122.18559,"zoneID":"","parentStation":""},"4210116":{"stopID":"4210116","stopName":"Glenwood Ave & El Camino Real","stopLat":37.45623,"stopLon":-122.18711,"zoneID":"","parentStation":""},"4210117":{"stopID":"4210117","stopName":"Glenwood Ave & El Camino Real","stopLat":37.45639,"stopLon":-122.18721,"zoneID":"","parentStation":""},"4210118":{"stopID":"4210118","stopName":"Glenwood Ave & Mills Ct","stopLat":37.4581,"stopLon":-122.18563,"zoneID":"","parentStation":""},"4210119":{"stopID":"4210119","stopName":"Glenwood Ave & Mills Ct","stopLat":37.45811,"stopLon":-122.18585,"zoneID":"","parentStation":""},"4210120":{"stopID":"4210120","stopName":"Ravenswood Ave & Pine St","stopLat":37.45642,"stopLon":-122.17824,"zoneID":"","parentStation":""},"4210121":{"stopID":"4210121","stopName":"Willow Rd & Alma St","stopLat":37.44955,"stopLon":-122.17257,"zoneID":"","parentStation":""},"4210122":{"stopID":"4210122","stopName":"Willow Rd & Alma St","stopLat":37.44954,"stopLon":-122.17285,"zoneID":"","parentStation":""},"4210123":{"stopID":"4210123","stopName":"Linfield Dr & Laurel St","stopLat":37.45169,"stopLon":-122.17104,"zoneID":"","parentStation":""},"4210124":{"stopID":"4210124","stopName":"Linfield Dr & Laurel St","stopLat":37.4517,"stopLon":-122.17119,"zoneID":"","parentStation":""},"4210125":{"stopID":"4210125","stopName":"Willow Rd & Nash Ave","stopLat":37.45881,"stopLon":-122.16177,"zoneID":"","parentStation":""},"4210126":{"stopID":"4210126","stopName":"Willow Rd & Nash Ave","stopLat":37.45872,"stopLon":-122.162,"zoneID":"","parentStation":""},"4210127":{"stopID":"4210127","stopName":"Willow Rd & Newbridge St","stopLat":37.47318,"stopLon":-122.15405,"zoneID":"","parentStation":""},"4210128":{"stopID":"4210128","stopName":"Willow Rd & Newbridge St","stopLat":37.47273,"stopLon":-122.15469,"zoneID":"","parentStation":""},"4210129":{"stopID":"4210129","stopName":"Ivy Dr & Willow Rd","stopLat":37.47619,"stopLon":-122.15328,"zoneID":"","parentStation":""},"4210130":{"stopID":"4210130","stopName":"Ivy Dr & Willow Rd","stopLat":37.476,"stopLon":-122.15305,"zoneID":"","parentStation":""},"4210131":{"stopID":"4210131","stopName":"Ivy Dr & Sevier Ave","stopLat":37.47616,"stopLon":-122.15628,"zoneID":"","parentStation":""},"4210132":{"stopID":"4210132","stopName":"Ivy Dr & Sevier Ave","stopLat":37.4759,"stopLon":-122.15664,"zoneID":"","parentStation":""},"4210133":{"stopID":"4210133","stopName":"Chilco St & Hamilton Ave","stopLat":37.47815,"stopLon":-122.1609,"zoneID":"","parentStation":""},"4210134":{"stopID":"4210134","stopName":"Chilco St & Hamilton Ave","stopLat":37.47835,"stopLon":-122.16111,"zoneID":"","parentStation":""},"4210135":{"stopID":"4210135","stopName":"Terminal Ave & Modoc Ave","stopLat":37.47847,"stopLon":-122.164,"zoneID":"","parentStation":""},"4210136":{"stopID":"4210136","stopName":"Terminal Ave & Modoc Ave","stopLat":37.47864,"stopLon":-122.16367,"zoneID":"","parentStation":""},"4210137":{"stopID":"4210137","stopName":"Menlo Park Caltrain (Marsh Rd. Shuttle Stop)","stopLat":37.45442,"stopLon":-122.18227,"zoneID":"","parentStation":""},"4210138":{"stopID":"4210138","stopName":"3760 Haven (Quicken)","stopLat":37.4861,"stopLon":-122.17965,"zoneID":"","parentStation":""},"4210139":{"stopID":"4210139","stopName":"3639 Haven (Anton Menlo Park)","stopLat":37.48649,"stopLon":-122.18457,"zoneID":"","parentStation":""},"4210140":{"stopID":"4210140","stopName":"3641 Haven (Elan Menlo Park)","stopLat":37.48559,"stopLon":-122.1835,"zoneID":"","parentStation":""},"4210141":{"stopID":"4210141","stopName":"Constitution Dr & Chilco St","stopLat":37.48225,"stopLon":-122.16832,"zoneID":"","parentStation":""},"4210142":{"stopID":"4210142","stopName":"180 Jefferson","stopLat":37.48143,"stopLon":-122.17047,"zoneID":"","parentStation":""},"4210143":{"stopID":"4210143","stopName":"TIDE Academy","stopLat":37.48263,"stopLon":-122.17405,"zoneID":"","parentStation":""},"4210144":{"stopID":"4210144","stopName":"149 Commonwealth","stopLat":37.48141,"stopLon":-122.17431,"zoneID":"","parentStation":""},"4210145":{"stopID":"4210145","stopName":"Chrysler Dr & Independence Dr","stopLat":37.48269,"stopLon":-122.17548,"zoneID":"","parentStation":""},"4210146":{"stopID":"4210146","stopName":"Constitution Dr & Chrysler Dr","stopLat":37.48428,"stopLon":-122.17479,"zoneID":"","parentStation":""},"4210148":{"stopID":"4210148","stopName":"Scott & Marsh Rd (PM Stop)","stopLat":37.48113,"stopLon":-122.18355,"zoneID":"","parentStation":""},"4210149":{"stopID":"4210149","stopName":"Scott & Marsh Rd (AM Stop)","stopLat":37.48132,"stopLon":-122.18334,"zoneID":"","parentStation":""},"4210150":{"stopID":"4210150","stopName":"4100 Bohannon (PM Stop)","stopLat":37.48057,"stopLon":-122.17836,"zoneID":"","parentStation":""},"4210151":{"stopID":"4210151","stopName":"4100 Bohannon (AM Stop)","stopLat":37.48065,"stopLon":-122.17816,"zoneID":"","parentStation":""},"4210152":{"stopID":"4210152","stopName":"Bohannon Dr & Campbell Ave (PM Stop)","stopLat":37.47859,"stopLon":-122.182,"zoneID":"","parentStation":""},"4210153":{"stopID":"4210153","stopName":"Bohannon Dr & Campbell Ave (AM Stop)","stopLat":37.47849,"stopLon":-122.18197,"zoneID":"","parentStation":""},"4210154":{"stopID":"4210154","stopName":"Post Office (PM Stop)","stopLat":37.47859,"stopLon":-122.18477,"zoneID":"","parentStation":""},"4210155":{"stopID":"4210155","stopName":"Post Office (AM Stop)","stopLat":37.47847,"stopLon":-122.18483,"zoneID":"","parentStation":""},"4210157":{"stopID":"4210157","stopName":"Adams Court (AM Stop)","stopLat":37.47861,"stopLon":-122.14362,"zoneID":"","parentStation":""},"4210158":{"stopID":"4210158","stopName":"1505 O'Brien","stopLat":37.47681,"stopLon":-122.1425,"zoneID":"","parentStation":""},"4210159":{"stopID":"4210159","stopName":"1200 O'Brien (PM Stop)","stopLat":37.47616,"stopLon":-122.14687,"zoneID":"","parentStation":""},"4210160":{"stopID":"4210160","stopName":"1200 O'Brien (AM Stop)","stopLat":37.47603,"stopLon":-122.14679,"zoneID":"","parentStation":""},"4210161":{"stopID":"4210161","stopName":"O'Brien Dr & Willow Rd (PM Stop)","stopLat":37.47518,"stopLon":-122.15266,"zoneID":"","parentStation":""},"4210162":{"stopID":"4210162","stopName":"O'Brien Dr & Willow Rd (AM Stop)","stopLat":37.47504,"stopLon":-122.15264,"zoneID":"","parentStation":""},"4210165":{"stopID":"4210165","stopName":"Willow Rd & Clover Ln","stopLat":37.45521,"stopLon":-122.16356,"zoneID":"","parentStation":""},"4210166":{"stopID":"4210166","stopName":"Willow Rd & Clover Ln","stopLat":37.45534,"stopLon":-122.16375,"zoneID":"","parentStation":""},"4210167":{"stopID":"4210167","stopName":"Linfield Dr & Middlefield Rd (PM Stop)","stopLat":37.4561,"stopLon":-122.16767,"zoneID":"","parentStation":""},"4210168":{"stopID":"4210168","stopName":"Linfield Dr & Middlefield Rd (AM Stop)","stopLat":37.45604,"stopLon":-122.16746,"zoneID":"","parentStation":""},"4210169":{"stopID":"4210169","stopName":"Linfield Dr & Waverley St","stopLat":37.45394,"stopLon":-122.16937,"zoneID":"","parentStation":""},"4210170":{"stopID":"4210170","stopName":"Linfield Dr & Waverley St","stopLat":37.45386,"stopLon":-122.16913,"zoneID":"","parentStation":""},"4210171":{"stopID":"4210171","stopName":"Belle Haven Branch Library","stopLat":37.47616,"stopLon":-122.15975,"zoneID":"","parentStation":""},"4210172":{"stopID":"4210172","stopName":"Palo Alto Caltrain (Lytton & Alma)","stopLat":37.44443,"stopLon":-122.16496,"zoneID":"","parentStation":""},"4210173":{"stopID":"4210173","stopName":"University/Partridge Ave.","stopLat":37.44527,"stopLon":-122.17851,"zoneID":"","parentStation":""},"4210174":{"stopID":"4210174","stopName":"Stanford Medical Center (Welch/Blake Wilbur Dr)","stopLat":37.43679,"stopLon":-122.17698,"zoneID":"","parentStation":""},"4210175":{"stopID":"4210175","stopName":"Menlo Commons","stopLat":37.42702,"stopLon":-122.19419,"zoneID":"","parentStation":""},"4210176":{"stopID":"4210176","stopName":"Sharon Heights Shopping Center","stopLat":37.42378,"stopLon":-122.1969,"zoneID":"","parentStation":""},"4210177":{"stopID":"4210177","stopName":"Stanford Medical Center (900 Welch Rd.)","stopLat":37.4365,"stopLon":-122.17771,"zoneID":"","parentStation":""},"4210178":{"stopID":"4210178","stopName":"Nordstrom / Crate & Barrel","stopLat":37.43929,"stopLon":-122.17294,"zoneID":"","parentStation":""},"4210179":{"stopID":"4210179","stopName":"Stanford Shopping Center","stopLat":37.44194,"stopLon":-122.17119,"zoneID":"","parentStation":""},"4210180":{"stopID":"4210180","stopName":"Hoover Pavilion","stopLat":37.44219,"stopLon":-122.16903,"zoneID":"","parentStation":""},"4210181":{"stopID":"4210181","stopName":"Palo Alto Medical Foundation","stopLat":37.43995,"stopLon":-122.16139,"zoneID":"","parentStation":""},"4210182":{"stopID":"4210182","stopName":"Partridge/Kennedy","stopLat":37.44663,"stopLon":-122.17707,"zoneID":"","parentStation":""},"4210183":{"stopID":"4210183","stopName":"Little House Recreation Center","stopLat":37.44866,"stopLon":-122.18097,"zoneID":"","parentStation":""},"4210184":{"stopID":"4210184","stopName":"Safeway (El Camino Real/Middle Ave)","stopLat":37.4506,"stopLon":-122.17875,"zoneID":"","parentStation":""},"4210185":{"stopID":"4210185","stopName":"Santa Cruz & Crane","stopLat":37.45095,"stopLon":-122.1852,"zoneID":"","parentStation":""},"4210186":{"stopID":"4210186","stopName":"Santa Cruz & Chestnut","stopLat":37.45158,"stopLon":-122.18448,"zoneID":"","parentStation":""},"4210187":{"stopID":"4210187","stopName":"Crane Place","stopLat":37.45308,"stopLon":-122.18869,"zoneID":"","parentStation":""},"4210188":{"stopID":"4210188","stopName":"Crane Place","stopLat":37.45299,"stopLon":-122.18876,"zoneID":"","parentStation":""},"4210189":{"stopID":"4210189","stopName":"Middlefield & Oak Grove Ave","stopLat":37.46162,"stopLon":-122.1781,"zoneID":"","parentStation":""},"4210190":{"stopID":"4210190","stopName":"Middlefield & Oak Grove Ave","stopLat":37.46236,"stopLon":-122.1793,"zoneID":"","parentStation":""},"4210191":{"stopID":"4210191","stopName":"Menlo Park Library (Senior Center)","stopLat":37.45361,"stopLon":-122.17875,"zoneID":"","parentStation":""},"4210192":{"stopID":"4210192","stopName":"Menlo Medical Clinic","stopLat":37.4561,"stopLon":-122.16849,"zoneID":"","parentStation":""},"4210193":{"stopID":"4210193","stopName":"V.A. Medical Center","stopLat":37.46512,"stopLon":-122.15848,"zoneID":"","parentStation":""},"4210194":{"stopID":"4210194","stopName":"Belle Haven Branch Library","stopLat":37.47612,"stopLon":-122.15986,"zoneID":"","parentStation":""},"4210195":{"stopID":"4210195","stopName":"Terminal Ave & Del Norte Ave","stopLat":37.47829,"stopLon":-122.16692,"zoneID":"","parentStation":""},"4210196":{"stopID":"4210196","stopName":"Menlo Park Caltrain (Willow Rd. Shuttle Stop)","stopLat":37.4548,"stopLon":-122.18269,"zoneID":"","parentStation":""},"4210197":{"stopID":"4210197","stopName":"Carter/Saddleback Dr.","stopLat":37.70688,"stopLon":-122.42474,"zoneID":"","parentStation":""},"4210198":{"stopID":"4210198","stopName":"Rio Verde/Partridge St.","stopLat":37.70373,"stopLon":-122.41733,"zoneID":"","parentStation":""},"4210199":{"stopID":"4210199","stopName":"Schwerin/Otillia St.","stopLat":37.70459,"stopLon":-122.41401,"zoneID":"","parentStation":""},"4210200":{"stopID":"4210200","stopName":"Martin/Schwerin St.","stopLat":37.70118,"stopLon":-122.41574,"zoneID":"","parentStation":""},"4210201":{"stopID":"4210201","stopName":"Bay Ridge/Accacia St.","stopLat":37.69993,"stopLon":-122.4178,"zoneID":"","parentStation":""},"4210202":{"stopID":"4210202","stopName":"Linda Vista/Jacqueline Ln","stopLat":37.69917,"stopLon":-122.41435,"zoneID":"","parentStation":""},"4210203":{"stopID":"4210203","stopName":"Balboa Park BART (MUNI)","stopLat":37.72115,"stopLon":-122.44732,"zoneID":"","parentStation":""},"4210204":{"stopID":"4210204","stopName":"Walgreens (998 Geneva) - Eastbound","stopLat":37.71564,"stopLon":-122.43966,"zoneID":"","parentStation":""},"4210205":{"stopID":"4210205","stopName":"Mission/Wellington","stopLat":37.70578,"stopLon":-122.46135,"zoneID":"","parentStation":""},"4210206":{"stopID":"4210206","stopName":"Daly City BART","stopLat":37.70598,"stopLon":-122.46952,"zoneID":"","parentStation":""},"4210207":{"stopID":"4210207","stopName":"North Peninsula Food Pantry (San Jose/Bepler)","stopLat":37.70611,"stopLon":-122.46157,"zoneID":"","parentStation":""},"4210208":{"stopID":"4210208","stopName":"Mission Safeway","stopLat":37.71931,"stopLon":-122.43907,"zoneID":"","parentStation":""},"4210209":{"stopID":"4210209","stopName":"Walgreens (965 Geneva) - Westbound","stopLat":37.71575,"stopLon":-122.43931,"zoneID":"","parentStation":""},"4210210":{"stopID":"4210210","stopName":"Bayshore Community Center","stopLat":37.70193,"stopLon":-122.41905,"zoneID":"","parentStation":""},"4210211":{"stopID":"4210211","stopName":"7 Mile House (Bayshore/Geneva)","stopLat":37.70393,"stopLon":-122.40756,"zoneID":"","parentStation":""},"4210390":{"stopID":"4210390","stopName":"Skyline College - South Bus Stop","stopLat":37.62941,"stopLon":-122.46646,"zoneID":"","parentStation":""},"4210391":{"stopID":"4210391","stopName":"Skyline College - North Drop-off Loop","stopLat":37.63105,"stopLon":-122.4673,"zoneID":"","parentStation":""},"4226626":{"stopID":"4226626","stopName":"O'Brien & Kelly (IB)","stopLat":37.47478,"stopLon":-122.14992,"zoneID":"","parentStation":""},"4226627":{"stopID":"4226627","stopName":"O'Brien & Kelly (OB)","stopLat":37.47459,"stopLon":-122.14957,"zoneID":"","parentStation":""},"4226628":{"stopID":"4226628","stopName":"1555 O'Brien","stopLat":37.47825,"stopLon":-122.14127,"zoneID":"","parentStation":""}}