{"60195":{"stopID":"60195","stopName":"Canton/Salem and Heywood Street","stopLat":42.57291,"stopLon":-71.79145},"60197":{"stopID":"60197","stopName":"Charles Street and Rollstone Street","stopLat":42.57969,"stopLon":-71.80556},"60198":{"stopID":"60198","stopName":"Clarendon Street and Daniels Street","stopLat":42.57653,"stopLon":-71.81946},"60199":{"stopID":"60199","stopName":"Franklin Road at Cozy Kids","stopLat":42.56891,"stopLon":-71.82502},"60202":{"stopID":"60202","stopName":"Franklin Road and Hurd Street","stopLat":42.569,"stopLon":-71.82467},"60203":{"stopID":"60203","stopName":"Clarendon Street at Kid's Stop","stopLat":42.57531,"stopLon":-71.81924},"60205":{"stopID":"60205","stopName":"McKay School","stopLat":42.59385,"stopLon":-71.78878},"60206":{"stopID":"60206","stopName":"Rollstone Street and Pine Street","stopLat":42.57531,"stopLon":-71.80669},"60208":{"stopID":"60208","stopName":"Reingold School","stopLat":42.57023,"stopLon":-71.83078},"60210":{"stopID":"60210","stopName":"South Street School","stopLat":42.57136,"stopLon":-71.79742},"60213":{"stopID":"60213","stopName":"Devens - MWCC Campus","stopLat":42.53207,"stopLon":-71.62848},"60214":{"stopID":"60214","stopName":"Wachusett Station","stopLat":42.55344,"stopLon":-71.84813},"60215":{"stopID":"60215","stopName":"Great Wolf Lodge","stopLat":42.54782,"stopLon":-71.85478},"60236":{"stopID":"60236","stopName":"100 Main St, Leominster @ Sunset Towers","stopLat":42.52928,"stopLon":-71.75771},"60237":{"stopID":"60237","stopName":"1091 Water St @ Wanoosnoc Ave, Fitchburg","stopLat":42.56351,"stopLon":-71.78039},"60238":{"stopID":"60238","stopName":"Fitchburg Green, 350 Water St, Fitchburg","stopLat":42.57608,"stopLon":-71.79118},"60239":{"stopID":"60239","stopName":"141 Water Street, Fitchburg","stopLat":42.57916,"stopLon":-71.79433},"60240":{"stopID":"60240","stopName":"130 Water St @ Central Plaza, Fitchburg","stopLat":42.57982,"stopLon":-71.79458},"60241":{"stopID":"60241","stopName":"78 Daniels St, Fitchburg","stopLat":42.58033,"stopLon":-71.81822},"60242":{"stopID":"60242","stopName":"Registry Motor Vehicles (RMV), Leominster","stopLat":42.48088,"stopLon":-71.75598},"60243":{"stopID":"60243","stopName":"Reliant Medical, Leominster","stopLat":42.49413,"stopLon":-71.72955},"60254":{"stopID":"60254","stopName":"SS Lobster","stopLat":42.57923,"stopLon":-71.83055},"60257":{"stopID":"60257","stopName":"Athol High School NB","stopLat":42.58341,"stopLon":-72.20373},"60258":{"stopID":"60258","stopName":"Dairy Queen (Treat)","stopLat":42.5857,"stopLon":-71.81325},"60259":{"stopID":"60259","stopName":"Independent Cleaners","stopLat":42.58355,"stopLon":-71.81847},"60260":{"stopID":"60260","stopName":"British American Club","stopLat":42.57438,"stopLon":-71.8375},"60261":{"stopID":"60261","stopName":"Theater Block","stopLat":42.58421,"stopLon":-71.80332},"60262":{"stopID":"60262","stopName":"Aubuchon Hall","stopLat":42.58814,"stopLon":-71.79055},"60267":{"stopID":"60267","stopName":"Downtown Clinton (48 High Street)","stopLat":42.41685,"stopLon":-71.68491},"60268":{"stopID":"60268","stopName":"Porter & Chester Institute (Worcester)","stopLat":42.32463,"stopLon":-71.79703},"60269":{"stopID":"60269","stopName":"Simonds Hall","stopLat":42.58322,"stopLon":-71.79306},"60270":{"stopID":"60270","stopName":"Hammond Hall","stopLat":42.58829,"stopLon":-71.79027},"60271":{"stopID":"60271","stopName":"Weston Auditorium","stopLat":42.5908,"stopLon":-71.78929},"60272":{"stopID":"60272","stopName":"Herlihy Hall","stopLat":42.58981,"stopLon":-71.7898},"60273":{"stopID":"60273","stopName":"Twin City (Burger King)","stopLat":42.55224,"stopLon":-71.78233},"60278":{"stopID":"60278","stopName":"MART Intermodal Transportation Center, Fitchburg","stopLat":42.58133,"stopLon":-71.79301},"60279":{"stopID":"60279","stopName":"South Street & Pine Street, Fitchburg","stopLat":42.57525,"stopLon":-71.79949},"60281":{"stopID":"60281","stopName":"Monument Square West Street, Leominster","stopLat":42.52644,"stopLon":-71.76008},"60283":{"stopID":"60283","stopName":"Mall at Whitney Field - Market Basket, Leominster","stopLat":42.53047,"stopLon":-71.7452},"60284":{"stopID":"60284","stopName":"Mall at Whitney Field - Food Court, Leominster","stopLat":42.5281,"stopLon":-71.74153},"60285":{"stopID":"60285","stopName":"Commuter Rail Station, Leominster","stopLat":42.53905,"stopLon":-71.73918},"60286":{"stopID":"60286","stopName":"Industrial Road, Leominster","stopLat":42.55505,"stopLon":-71.74925},"60287":{"stopID":"60287","stopName":"Kings Corner, Leominster","stopLat":42.56538,"stopLon":-71.74758},"60288":{"stopID":"60288","stopName":"Whalom Road & Summer Street, Lunenburg","stopLat":42.56811,"stopLon":-71.76568},"60291":{"stopID":"60291","stopName":"Johnny Appleseed Plaza, Leominster","stopLat":42.49958,"stopLon":-71.74596},"60292":{"stopID":"60292","stopName":"Jytek Industrial Park, Leominster","stopLat":42.48711,"stopLon":-71.75396},"60293":{"stopID":"60293","stopName":"Wal-Mart Plaza, Leominster","stopLat":42.49241,"stopLon":-71.72914},"60294":{"stopID":"60294","stopName":"Water Tower Plaza, Leominster","stopLat":42.54298,"stopLon":-71.75783},"60295":{"stopID":"60295","stopName":"Erdman Way (MWCC Leominster)","stopLat":42.5475,"stopLon":-71.75802},"60296":{"stopID":"60296","stopName":"Fitchburg State University (Dining Hall)","stopLat":42.58917,"stopLon":-71.78991},"60297":{"stopID":"60297","stopName":"Wallace Civic Center (Parking Lot), Fitchburg","stopLat":42.59603,"stopLon":-71.78563},"60299":{"stopID":"60299","stopName":"Joseph House (Daniels St.), Fitchburg","stopLat":42.57652,"stopLon":-71.82092},"60300":{"stopID":"60300","stopName":"Parkill Plaza (Electric Ave.), Fitchburg","stopLat":42.56828,"stopLon":-71.81606},"60301":{"stopID":"60301","stopName":"Burbank, Fitchburg","stopLat":42.59715,"stopLon":-71.80703},"60302":{"stopID":"60302","stopName":"Fitchburg High School","stopLat":42.62163,"stopLon":-71.8069},"60303":{"stopID":"60303","stopName":"Wallace Plaza (Market Basket), Fitchburg","stopLat":42.5814,"stopLon":-71.77519},"60305":{"stopID":"60305","stopName":"Lunenburg Crossing (Wal-Mart/Hannaford)","stopLat":42.59484,"stopLon":-71.7592},"60307":{"stopID":"60307","stopName":"Central Plaza (Market Basket), Fitchburg","stopLat":42.58019,"stopLon":-71.79348},"60308":{"stopID":"60308","stopName":"Waites Corner (Westminster St.), Fitchburg","stopLat":42.56496,"stopLon":-71.84574},"60309":{"stopID":"60309","stopName":"Montachusett Industrial Park, Fitchburg","stopLat":42.56504,"stopLon":-71.85918},"60311":{"stopID":"60311","stopName":"D'Ambrosio Eye Center, Lancaster","stopLat":42.52084,"stopLon":-71.70918},"60312":{"stopID":"60312","stopName":"Orchard Hill Park - Target, Leominster","stopLat":42.52716,"stopLon":-71.71354},"60313":{"stopID":"60313","stopName":"Orchard Hill Park - Kohl's, Leominster","stopLat":42.52563,"stopLon":-71.7144},"60315":{"stopID":"60315","stopName":"La Pierre Building East (4th St.), Leominster","stopLat":42.52554,"stopLon":-71.74962},"60316":{"stopID":"60316","stopName":"Leominster Senior Center","stopLat":42.52776,"stopLon":-71.76549},"60318":{"stopID":"60318","stopName":"Henry Heywood Hospital, Gardner","stopLat":42.58725,"stopLon":-71.98655},"60323":{"stopID":"60323","stopName":"Olde English Village, Gardner","stopLat":42.5582,"stopLon":-71.99857},"60324":{"stopID":"60324","stopName":"Wal-Mart Plaza, Gardner","stopLat":42.55115,"stopLon":-71.99431},"60325":{"stopID":"60325","stopName":"Timpany Plaza, Gardner","stopLat":42.55885,"stopLon":-71.98947},"60326":{"stopID":"60326","stopName":"Heritage Village/South Gardner Center","stopLat":42.5558,"stopLon":-71.97507},"60328":{"stopID":"60328","stopName":"Gardner Plaza","stopLat":42.56585,"stopLon":-71.9768},"60329":{"stopID":"60329","stopName":"MART Maintenance Facility, Gardner","stopLat":42.56817,"stopLon":-71.98539},"60330":{"stopID":"60330","stopName":"Dunn Pond, Gardner","stopLat":42.5808,"stopLon":-71.97102},"60331":{"stopID":"60331","stopName":"Hillside Gardens, Gardner","stopLat":42.58321,"stopLon":-71.98193},"60334":{"stopID":"60334","stopName":"Gardner City Hall (rear)/Connors Street","stopLat":42.57456,"stopLon":-71.99659},"60336":{"stopID":"60336","stopName":"Templeton Center","stopLat":42.55575,"stopLon":-72.06763},"60340":{"stopID":"60340","stopName":"YMCA, Athol","stopLat":42.59338,"stopLon":-72.22865},"60341":{"stopID":"60341","stopName":"Ocean State Job Lot, Athol","stopLat":42.59252,"stopLon":-72.2343},"60342":{"stopID":"60342","stopName":"Hannaford Supermarket, Athol","stopLat":42.58176,"stopLon":-72.26209},"60343":{"stopID":"60343","stopName":"Wal-Mart, Orange","stopLat":42.58829,"stopLon":-72.2843},"60345":{"stopID":"60345","stopName":"Otter River - Route 68 & Main Street, Gardner","stopLat":42.59867,"stopLon":-72.05477},"60346":{"stopID":"60346","stopName":"Route 68 and Route 202, Baldwinville","stopLat":42.60722,"stopLon":-72.0746},"60348":{"stopID":"60348","stopName":"Waterville Plaza, Winchendon","stopLat":42.67481,"stopLon":-72.0687},"60349":{"stopID":"60349","stopName":"Winchendon Post Office","stopLat":42.68396,"stopLon":-72.04625},"60350":{"stopID":"60350","stopName":"Winchendon Town Hall (Pleasant Street)","stopLat":42.68206,"stopLon":-72.0493},"60353":{"stopID":"60353","stopName":"Friendly's (Routes 12 & 2), Leominster","stopLat":42.54826,"stopLon":-71.76154},"60364":{"stopID":"60364","stopName":"Market Basket (Athol)","stopLat":42.57866,"stopLon":-72.188},"60365":{"stopID":"60365","stopName":"Mt. Wachusett Community College Lot B","stopLat":42.59257,"stopLon":-71.98307},"60366":{"stopID":"60366","stopName":"Village Square Westminster (Street Side)","stopLat":42.54633,"stopLon":-71.91349},"60367":{"stopID":"60367","stopName":"Senior Center Westminster (Street Side)","stopLat":42.55405,"stopLon":-71.9247},"60378":{"stopID":"60378","stopName":"Orange Innovation Center","stopLat":42.59178,"stopLon":-72.31524},"60388":{"stopID":"60388","stopName":"School Street Residences","stopLat":42.59422,"stopLon":-72.22007},"60389":{"stopID":"60389","stopName":"Cottage Street Apartments, Athol","stopLat":42.5828,"stopLon":-72.22923},"60416":{"stopID":"60416","stopName":"Crossroads Office Park (Mechanic St.), Leominster","stopLat":42.51891,"stopLon":-71.73056},"60417":{"stopID":"60417","stopName":"Levi Heywood Memorial Library, Gardner","stopLat":42.57607,"stopLon":-71.9932},"60418":{"stopID":"60418","stopName":"Price Chopper, Gardner","stopLat":42.56904,"stopLon":-71.98555},"60419":{"stopID":"60419","stopName":"Gardner District Court (curbside)","stopLat":42.58848,"stopLon":-71.98185},"60420":{"stopID":"60420","stopName":"Gardner High School","stopLat":42.58353,"stopLon":-71.97903},"60428":{"stopID":"60428","stopName":"Main & Nashua (Commuter Rail)","stopLat":42.54024,"stopLon":-71.74111},"60432":{"stopID":"60432","stopName":"Monument Square Main Street, Leominster","stopLat":42.52612,"stopLon":-71.76014},"60438":{"stopID":"60438","stopName":"Twin City Marketplace (Hannaford)","stopLat":42.55249,"stopLon":-71.77833},"60439":{"stopID":"60439","stopName":"Twin City Marketplace (Bob's)","stopLat":42.55352,"stopLon":-71.78167},"60440":{"stopID":"60440","stopName":"Gardner Highrise","stopLat":42.5739,"stopLon":-72.00266},"60441":{"stopID":"60441","stopName":"Worcester Court House","stopLat":42.26764,"stopLon":-71.80079},"60442":{"stopID":"60442","stopName":"Worcester City Hall","stopLat":42.26282,"stopLon":-71.80254},"60443":{"stopID":"60443","stopName":"Union Station","stopLat":42.26146,"stopLon":-71.79483},"69823":{"stopID":"69823","stopName":"MART Garage (City Line Inbound), Fitchburg","stopLat":42.55845,"stopLon":-71.77379},"69824":{"stopID":"69824","stopName":"Orange Center/Main St (westbound)","stopLat":42.59093,"stopLon":-72.30859},"69825":{"stopID":"69825","stopName":"Orange Center/Main St (eastbound)","stopLat":42.59083,"stopLon":-72.30855},"69826":{"stopID":"69826","stopName":"Lake Dennison Picnic and Swim Area (Northbound)","stopLat":42.6384,"stopLon":-72.08072},"69827":{"stopID":"69827","stopName":"King Phillip Restaurant, Phillipston (Westbound)","stopLat":42.57012,"stopLon":-72.13216},"69828":{"stopID":"69828","stopName":"Athol Memorial Hospital (Eastbound)","stopLat":42.58616,"stopLon":-72.20861},"69829":{"stopID":"69829","stopName":"Major Taylor Blvd & Martin Luther King Jr Blvd","stopLat":42.26733,"stopLon":-71.79835},"69830":{"stopID":"69830","stopName":"Upper Common","stopLat":42.58609,"stopLon":-71.80561},"69831":{"stopID":"69831","stopName":"MART Garage (City Line Outbound), Fitchburg","stopLat":42.55762,"stopLon":-71.77557},"69832":{"stopID":"69832","stopName":"Leominster Hospital","stopLat":42.54167,"stopLon":-71.76313},"69833":{"stopID":"69833","stopName":"East Templeton (Route 2A & Route 101),Gardner","stopLat":42.56218,"stopLon":-72.03756},"69834":{"stopID":"69834","stopName":"King Phillip Restaurant, Phillipston (Eastbound)","stopLat":42.56994,"stopLon":-72.13217},"69835":{"stopID":"69835","stopName":"Athol Memorial Hospital (Westbound)","stopLat":42.58628,"stopLon":-72.20853},"69836":{"stopID":"69836","stopName":"Uptown Common, Athol (Eastbound)","stopLat":42.58917,"stopLon":-72.2155},"69837":{"stopID":"69837","stopName":"Lake Dennison Picnic and Swim Area (Southbound)","stopLat":42.63855,"stopLon":-72.08092},"69838":{"stopID":"69838","stopName":"Fitchburg State University (Recreation Center)","stopLat":42.58555,"stopLon":-71.79212},"69839":{"stopID":"69839","stopName":"Upper Common Post Office","stopLat":42.58627,"stopLon":-71.80496},"69840":{"stopID":"69840","stopName":"Uptown Common, Athol (Westbound)","stopLat":42.58958,"stopLon":-72.21549},"69841":{"stopID":"69841","stopName":"Heywood Place, Gardner","stopLat":42.57798,"stopLon":-71.99288},"69842":{"stopID":"69842","stopName":"East Templeton (Route 2A & Route 101),Gardner","stopLat":42.56217,"stopLon":-72.03812},"69843":{"stopID":"69843","stopName":"Rt 2/495 Littleton Station","stopLat":42.52009,"stopLon":-71.50263},"135238":{"stopID":"135238","stopName":"North Quabbin Family Physicians (Westbound)","stopLat":42.59113,"stopLon":-72.2421},"135239":{"stopID":"135239","stopName":"Pequoig Ave/Exchange Street","stopLat":42.59814,"stopLon":-72.23065},"135240":{"stopID":"135240","stopName":"North Quabbin Family Physicians (Eastbound)","stopLat":42.59101,"stopLon":-72.24195},"146013":{"stopID":"146013","stopName":"Athol Depot","stopLat":42.5924,"stopLon":-72.22943},"150492":{"stopID":"150492","stopName":"Wendy's","stopLat":42.58017,"stopLon":-72.18391},"152329":{"stopID":"152329","stopName":"Townsend Town Hall","stopLat":42.66695,"stopLon":-71.70718}}