{"GENEVA":{"stopID":"GENEVA","stopName":"Geneva","stopLat":41.88167,"stopLon":-88.31,"zoneID":"4"},"WCHICAGO":{"stopID":"WCHICAGO","stopName":"West Chicago","stopLat":41.88111,"stopLon":-88.19889,"zoneID":"4"},"WINFIELD":{"stopID":"WINFIELD","stopName":"Winfield","stopLat":41.87,"stopLon":-88.15694,"zoneID":"4"},"WHEATON":{"stopID":"WHEATON","stopName":"Wheaton","stopLat":41.86444,"stopLon":-88.11194,"zoneID":"4"},"COLLEGEAVE":{"stopID":"COLLEGEAVE","stopName":"College Ave","stopLat":41.86833,"stopLon":-88.09028,"zoneID":"4"},"GLENELLYN":{"stopID":"GLENELLYN","stopName":"Glen Ellyn","stopLat":41.87667,"stopLon":-88.06472,"zoneID":"4"},"LOMBARD":{"stopID":"LOMBARD","stopName":"Lombard","stopLat":41.88667,"stopLon":-88.01861,"zoneID":"3"},"VILLAPARK":{"stopID":"VILLAPARK","stopName":"Villa Park","stopLat":41.89639,"stopLon":-87.9775,"zoneID":"3"},"ELMHURST":{"stopID":"ELMHURST","stopName":"Elmhurst","stopLat":41.89972,"stopLon":-87.94083,"zoneID":"3"},"BERKELEY":{"stopID":"BERKELEY","stopName":"Berkeley","stopLat":41.89611,"stopLon":-87.91528,"zoneID":"2"},"BELLWOOD":{"stopID":"BELLWOOD","stopName":"Bellwood","stopLat":41.89139,"stopLon":-87.8825,"zoneID":"2"},"MELROSEPK":{"stopID":"MELROSEPK","stopName":"Melrose Park","stopLat":41.89028,"stopLon":-87.85556,"zoneID":"2"},"MAYWOOD":{"stopID":"MAYWOOD","stopName":"Maywood","stopLat":41.88833,"stopLon":-87.83861,"zoneID":"2"},"RIVRFOREST":{"stopID":"RIVRFOREST","stopName":"River Forest","stopLat":41.88694,"stopLon":-87.825,"zoneID":"2"},"OAKPARK":{"stopID":"OAKPARK","stopName":"Oak Park","stopLat":41.88694,"stopLon":-87.80111,"zoneID":"2"},"KEDZIE":{"stopID":"KEDZIE","stopName":"Kedzie","stopLat":41.88833,"stopLon":-87.70694,"zoneID":"2"},"AURORA":{"stopID":"AURORA","stopName":"Aurora","stopLat":41.76083,"stopLon":-88.30833,"zoneID":"4"},"ROUTE59":{"stopID":"ROUTE59","stopName":"Route 59","stopLat":41.77778,"stopLon":-88.20861,"zoneID":"4"},"NAPERVILLE":{"stopID":"NAPERVILLE","stopName":"Naperville","stopLat":41.77972,"stopLon":-88.14556,"zoneID":"4"},"LISLE":{"stopID":"LISLE","stopName":"Lisle","stopLat":41.79778,"stopLon":-88.07194,"zoneID":"4"},"BELMONT":{"stopID":"BELMONT","stopName":"Belmont","stopLat":41.79528,"stopLon":-88.03806,"zoneID":"4"},"MAINST-DG":{"stopID":"MAINST-DG","stopName":"Downers Grove","stopLat":41.79528,"stopLon":-88.00972,"zoneID":"4"},"FAIRVIEWDG":{"stopID":"FAIRVIEWDG","stopName":"Fairview Ave.","stopLat":41.79528,"stopLon":-87.99361,"zoneID":"3"},"WESTMONT":{"stopID":"WESTMONT","stopName":"Westmont","stopLat":41.79556,"stopLon":-87.97639,"zoneID":"3"},"CLARNDNHIL":{"stopID":"CLARNDNHIL","stopName":"Clarendon Hills","stopLat":41.79694,"stopLon":-87.95361,"zoneID":"3"},"WHINSDALE":{"stopID":"WHINSDALE","stopName":"West Hinsdale","stopLat":41.79889,"stopLon":-87.94528,"zoneID":"3"},"HINSDALE":{"stopID":"HINSDALE","stopName":"Hinsdale","stopLat":41.80278,"stopLon":-87.92833,"zoneID":"3"},"HIGHLANDS":{"stopID":"HIGHLANDS","stopName":"Highlands","stopLat":41.805,"stopLon":-87.91833,"zoneID":"3"},"WESTSPRING":{"stopID":"WESTSPRING","stopName":"Western Springs","stopLat":41.80889,"stopLon":-87.90111,"zoneID":"3"},"STONEAVE":{"stopID":"STONEAVE","stopName":"Stone Ave.","stopLat":41.81417,"stopLon":-87.87833,"zoneID":"3"},"LAGRANGE":{"stopID":"LAGRANGE","stopName":"LaGrange Road","stopLat":41.81583,"stopLon":-87.87111,"zoneID":"3"},"CONGRESSPK":{"stopID":"CONGRESSPK","stopName":"Congress Park","stopLat":41.81889,"stopLon":-87.8575,"zoneID":"3"},"BROOKFIELD":{"stopID":"BROOKFIELD","stopName":"Brookfield","stopLat":41.82194,"stopLon":-87.84306,"zoneID":"2"},"HOLLYWOOD":{"stopID":"HOLLYWOOD","stopName":"Hollywood","stopLat":41.82444,"stopLon":-87.83389,"zoneID":"2"},"RIVERSIDE":{"stopID":"RIVERSIDE","stopName":"Riverside","stopLat":41.82722,"stopLon":-87.82,"zoneID":"2"},"HARLEM":{"stopID":"HARLEM","stopName":"Harlem Ave.","stopLat":41.83139,"stopLon":-87.80194,"zoneID":"2"},"BERWYN":{"stopID":"BERWYN","stopName":"Berwyn","stopLat":41.83306,"stopLon":-87.79361,"zoneID":"2"},"LAVERGNE":{"stopID":"LAVERGNE","stopName":"Lavergne","stopLat":41.83556,"stopLon":-87.78333,"zoneID":"2"},"CICERO":{"stopID":"CICERO","stopName":"Cicero","stopLat":41.84417,"stopLon":-87.74556,"zoneID":"2"},"BNWESTERN":{"stopID":"BNWESTERN","stopName":"Western Avenue","stopLat":41.85778,"stopLon":-87.68528,"zoneID":"2"},"HALSTED":{"stopID":"HALSTED","stopName":"Halsted Street","stopLat":41.86028,"stopLon":-87.64722,"zoneID":"2"},"JOLIET":{"stopID":"JOLIET","stopName":"Joliet","stopLat":41.52444,"stopLon":-88.07972,"zoneID":"4"},"LOCKPORT":{"stopID":"LOCKPORT","stopName":"Lockport","stopLat":41.585,"stopLon":-88.06028,"zoneID":"4"},"LEMONT":{"stopID":"LEMONT","stopName":"Lemont","stopLat":41.67361,"stopLon":-88.0025,"zoneID":"3"},"WILLOWSPRN":{"stopID":"WILLOWSPRN","stopName":"Willow Springs","stopLat":41.73333,"stopLon":-87.87833,"zoneID":"3"},"SUMMIT":{"stopID":"SUMMIT","stopName":"Summit","stopLat":41.795,"stopLon":-87.80972,"zoneID":"2"},"179TH-SWS":{"stopID":"179TH-SWS","stopName":"Orland Park 179th","stopLat":41.56389,"stopLon":-87.9025,"zoneID":"4"},"153RD-SWS":{"stopID":"153RD-SWS","stopName":"Orland Park 153rd","stopLat":41.60944,"stopLon":-87.87333,"zoneID":"4"},"143RD-SWS":{"stopID":"143RD-SWS","stopName":"Orland Park 143rd","stopLat":41.63056,"stopLon":-87.85917,"zoneID":"4"},"PALOSPARK":{"stopID":"PALOSPARK","stopName":"Palos Park","stopLat":41.66889,"stopLon":-87.82028,"zoneID":"4"},"WORTH":{"stopID":"WORTH","stopName":"Worth","stopLat":41.69139,"stopLon":-87.79583,"zoneID":"3"},"CHICRIDGE":{"stopID":"CHICRIDGE","stopName":"Chicago Ridge","stopLat":41.70333,"stopLon":-87.78028,"zoneID":"3"},"OAKLAWN":{"stopID":"OAKLAWN","stopName":"Oak Lawn Patriot","stopLat":41.71944,"stopLon":-87.74861,"zoneID":"3"},"ASHBURN":{"stopID":"ASHBURN","stopName":"Ashburn","stopLat":41.74167,"stopLon":-87.7125,"zoneID":"2"},"WRIGHTWOOD":{"stopID":"WRIGHTWOOD","stopName":"Wrightwood","stopLat":41.74889,"stopLon":-87.70361,"zoneID":"2"},"CLYBOURN":{"stopID":"CLYBOURN","stopName":"Clybourn","stopLat":41.91694,"stopLon":-87.66806,"zoneID":"2"},"RAVENSWOOD":{"stopID":"RAVENSWOOD","stopName":"Ravenswood","stopLat":41.96833,"stopLon":-87.67444,"zoneID":"2"},"ROGERPK":{"stopID":"ROGERPK","stopName":"Rogers Park","stopLat":42.00944,"stopLon":-87.67556,"zoneID":"2"},"MAINST":{"stopID":"MAINST","stopName":"Main St.","stopLat":42.03333,"stopLon":-87.68,"zoneID":"2"},"EVANSTON":{"stopID":"EVANSTON","stopName":"Evanston (Davis St.)","stopLat":42.04806,"stopLon":-87.68472,"zoneID":"2"},"CENTRALST":{"stopID":"CENTRALST","stopName":"Central St.","stopLat":42.06417,"stopLon":-87.69806,"zoneID":"2"},"WILMETTE":{"stopID":"WILMETTE","stopName":"Wilmette","stopLat":42.07722,"stopLon":-87.70917,"zoneID":"2"},"KENILWORTH":{"stopID":"KENILWORTH","stopName":"Kenilworth","stopLat":42.08639,"stopLon":-87.71667,"zoneID":"3"},"WINNETKA":{"stopID":"WINNETKA","stopName":"Winnetka","stopLat":42.10528,"stopLon":-87.73278,"zoneID":"3"},"HUBARDWOOD":{"stopID":"HUBARDWOOD","stopName":"Hubbard Woods","stopLat":42.11806,"stopLon":-87.74361,"zoneID":"3"},"GLENCOE":{"stopID":"GLENCOE","stopName":"Glencoe","stopLat":42.13556,"stopLon":-87.75806,"zoneID":"3"},"BRAESIDE":{"stopID":"BRAESIDE","stopName":"Braeside","stopLat":42.15278,"stopLon":-87.7725,"zoneID":"3"},"RAVINIA":{"stopID":"RAVINIA","stopName":"Ravinia","stopLat":42.165,"stopLon":-87.78278,"zoneID":"3"},"HIGHLANDPK":{"stopID":"HIGHLANDPK","stopName":"Highland Park","stopLat":42.18333,"stopLon":-87.7975,"zoneID":"4"},"HIGHWOOD":{"stopID":"HIGHWOOD","stopName":"Highwood","stopLat":42.20333,"stopLon":-87.81056,"zoneID":"4"},"FTSHERIDAN":{"stopID":"FTSHERIDAN","stopName":"Fort Sheridan","stopLat":42.2175,"stopLon":-87.82083,"zoneID":"4"},"LKFOREST":{"stopID":"LKFOREST","stopName":"Lake Forest.","stopLat":42.2525,"stopLon":-87.83972,"zoneID":"4"},"LAKEBLUFF":{"stopID":"LAKEBLUFF","stopName":"Lake Bluff","stopLat":42.27972,"stopLon":-87.84667,"zoneID":"4"},"GRTLAKES":{"stopID":"GRTLAKES","stopName":"Great Lakes","stopLat":42.30694,"stopLon":-87.84639,"zoneID":"4"},"NCHICAGO":{"stopID":"NCHICAGO","stopName":"North Chicago","stopLat":42.32861,"stopLon":-87.83694,"zoneID":"4"},"WAUKEGAN":{"stopID":"WAUKEGAN","stopName":"Waukegan","stopLat":42.36056,"stopLon":-87.82833,"zoneID":"4"},"ZION":{"stopID":"ZION","stopName":"Zion","stopLat":42.44917,"stopLon":-87.81806,"zoneID":"4"},"WINTHROP":{"stopID":"WINTHROP","stopName":"Winthrop Harbor","stopLat":42.48278,"stopLon":-87.81611,"zoneID":"4"},"FOXLAKE":{"stopID":"FOXLAKE","stopName":"Fox Lake","stopLat":42.39833,"stopLon":-88.18222,"zoneID":"4"},"INGLESIDE":{"stopID":"INGLESIDE","stopName":"Ingleside","stopLat":42.38389,"stopLon":-88.15361,"zoneID":"4"},"LONGLAKE":{"stopID":"LONGLAKE","stopName":"Long Lake","stopLat":42.36806,"stopLon":-88.12806,"zoneID":"4"},"ROUNDLAKE":{"stopID":"ROUNDLAKE","stopName":"Round Lake","stopLat":42.35444,"stopLon":-88.09417,"zoneID":"4"},"GRAYSLAKE":{"stopID":"GRAYSLAKE","stopName":"Grayslake","stopLat":42.33361,"stopLon":-88.04333,"zoneID":"4"},"LIBERTYVIL":{"stopID":"LIBERTYVIL","stopName":"Libertyville","stopLat":42.29111,"stopLon":-87.95639,"zoneID":"4"},"LAKEFRST":{"stopID":"LAKEFRST","stopName":"Lake Forest","stopLat":42.22361,"stopLon":-87.87472,"zoneID":"4"},"DEERFIELD":{"stopID":"DEERFIELD","stopName":"Deerfield","stopLat":42.16806,"stopLon":-87.85,"zoneID":"4"},"LAKECOOKRD":{"stopID":"LAKECOOKRD","stopName":"Lake-Cook","stopLat":42.15167,"stopLon":-87.84139,"zoneID":"3"},"NBROOK":{"stopID":"NBROOK","stopName":"Northbrook","stopLat":42.12694,"stopLon":-87.82778,"zoneID":"3"},"NGLENVIEW":{"stopID":"NGLENVIEW","stopName":"Glen/N. Glenview","stopLat":42.0975,"stopLon":-87.81583,"zoneID":"3"},"GLENVIEW":{"stopID":"GLENVIEW","stopName":"Glenview","stopLat":42.075,"stopLon":-87.80556,"zoneID":"3"},"GOLF":{"stopID":"GOLF","stopName":"Golf","stopLat":42.05833,"stopLon":-87.79694,"zoneID":"3"},"MORTONGRV":{"stopID":"MORTONGRV","stopName":"Morton Grove","stopLat":42.035,"stopLon":-87.78528,"zoneID":"2"},"EDGEBROOK":{"stopID":"EDGEBROOK","stopName":"Edgebrook","stopLat":41.99778,"stopLon":-87.76556,"zoneID":"2"},"FORESTGLEN":{"stopID":"FORESTGLEN","stopName":"Forest Glen","stopLat":41.97806,"stopLon":-87.75556,"zoneID":"2"},"MAYFAIR":{"stopID":"MAYFAIR","stopName":"Mayfair","stopLat":41.95972,"stopLon":-87.74583,"zoneID":"2"},"GRAYLAND":{"stopID":"GRAYLAND","stopName":"Grayland","stopLat":41.94889,"stopLon":-87.74028,"zoneID":"2"},"HEALY":{"stopID":"HEALY","stopName":"Healy","stopLat":41.92472,"stopLon":-87.72778,"zoneID":"2"},"WESTERNAVE":{"stopID":"WESTERNAVE","stopName":"Western Ave","stopLat":41.88917,"stopLon":-87.68806,"zoneID":"2"},"RAVINIAPK":{"stopID":"RAVINIAPK","stopName":"Ravinia Park","stopLat":42.15806,"stopLon":-87.77694,"zoneID":"3"},"INDIANHILL":{"stopID":"INDIANHILL","stopName":"Indian Hill","stopLat":42.09444,"stopLon":-87.72389,"zoneID":"3"},"KENOSHA":{"stopID":"KENOSHA","stopName":"Kenosha","stopLat":42.58583,"stopLon":-87.82583,"zoneID":"4"},"HARVARD":{"stopID":"HARVARD","stopName":"Harvard","stopLat":42.41972,"stopLon":-88.6175,"zoneID":"4"},"WOODSTOCK":{"stopID":"WOODSTOCK","stopName":"Woodstock","stopLat":42.31694,"stopLon":-88.4475,"zoneID":"4"},"CRYSTAL":{"stopID":"CRYSTAL","stopName":"Crystal Lake","stopLat":42.24417,"stopLon":-88.31722,"zoneID":"4"},"MCHENRY":{"stopID":"MCHENRY","stopName":"McHenry","stopLat":42.34333,"stopLon":-88.27611,"zoneID":"4"},"CARY":{"stopID":"CARY","stopName":"Cary","stopLat":42.20889,"stopLon":-88.24139,"zoneID":"4"},"FOXRG":{"stopID":"FOXRG","stopName":"Fox River Grove","stopLat":42.19778,"stopLon":-88.21944,"zoneID":"4"},"BARRINGTON":{"stopID":"BARRINGTON","stopName":"Barrington","stopLat":42.15278,"stopLon":-88.13194,"zoneID":"4"},"PALATINE":{"stopID":"PALATINE","stopName":"Palatine","stopLat":42.11306,"stopLon":-88.04833,"zoneID":"4"},"ARLINGTNPK":{"stopID":"ARLINGTNPK","stopName":"Arlington Park","stopLat":42.09528,"stopLon":-88.00917,"zoneID":"3"},"ARLINGTNHT":{"stopID":"ARLINGTNHT","stopName":"Arlington Heights","stopLat":42.08417,"stopLon":-87.98361,"zoneID":"3"},"MTPROSPECT":{"stopID":"MTPROSPECT","stopName":"Mt. Prospect","stopLat":42.06306,"stopLon":-87.93611,"zoneID":"3"},"CUMBERLAND":{"stopID":"CUMBERLAND","stopName":"Cumberland","stopLat":42.0525,"stopLon":-87.91222,"zoneID":"3"},"DESPLAINES":{"stopID":"DESPLAINES","stopName":"Des Plaines","stopLat":42.04083,"stopLon":-87.88667,"zoneID":"3"},"DEEROAD":{"stopID":"DEEROAD","stopName":"Dee Road","stopLat":42.02417,"stopLon":-87.85611,"zoneID":"2"},"PARKRIDGE":{"stopID":"PARKRIDGE","stopName":"Park Ridge","stopLat":42.01028,"stopLon":-87.83167,"zoneID":"2"},"IRVINGPK":{"stopID":"IRVINGPK","stopName":"Irving Park","stopLat":41.9525,"stopLon":-87.72972,"zoneID":"2"},"BIGTIMBER":{"stopID":"BIGTIMBER","stopName":"Big Timber","stopLat":42.05861,"stopLon":-88.32778,"zoneID":"4"},"ELGIN":{"stopID":"ELGIN","stopName":"Elgin","stopLat":42.03611,"stopLon":-88.28611,"zoneID":"4"},"NATIONALS":{"stopID":"NATIONALS","stopName":"National St","stopLat":42.02639,"stopLon":-88.27889,"zoneID":"4"},"HANOVERP":{"stopID":"HANOVERP","stopName":"Hanover Park","stopLat":41.98806,"stopLon":-88.14917,"zoneID":"4"},"SCHAUM":{"stopID":"SCHAUM","stopName":"Schaumburg","stopLat":41.98917,"stopLon":-88.11806,"zoneID":"4"},"ROSELLE":{"stopID":"ROSELLE","stopName":"Roselle","stopLat":41.98139,"stopLon":-88.06722,"zoneID":"4"},"MEDINAH":{"stopID":"MEDINAH","stopName":"Medinah","stopLat":41.97806,"stopLon":-88.05083,"zoneID":"3"},"ITASCA":{"stopID":"ITASCA","stopName":"Itasca","stopLat":41.97139,"stopLon":-88.01417,"zoneID":"3"},"WOODDALE":{"stopID":"WOODDALE","stopName":"Wood Dale","stopLat":41.9625,"stopLon":-87.97528,"zoneID":"3"},"BENSENVIL":{"stopID":"BENSENVIL","stopName":"Bensenville","stopLat":41.95694,"stopLon":-87.94194,"zoneID":"3"},"MANNHEIM":{"stopID":"MANNHEIM","stopName":"Mannheim","stopLat":41.94167,"stopLon":-87.88333,"zoneID":"2"},"FRANKLIN":{"stopID":"FRANKLIN","stopName":"Franklin Park","stopLat":41.93667,"stopLon":-87.86639,"zoneID":"2"},"MONTCLARE":{"stopID":"MONTCLARE","stopName":"Mont Clare","stopLat":41.92167,"stopLon":-87.80167,"zoneID":"2"},"MARS":{"stopID":"MARS","stopName":"Mars","stopLat":41.91917,"stopLon":-87.79444,"zoneID":"2"},"GALEWOOD":{"stopID":"GALEWOOD","stopName":"Galewood","stopLat":41.91639,"stopLon":-87.78583,"zoneID":"2"},"HANSONPK":{"stopID":"HANSONPK","stopName":"Hanson Park","stopLat":41.91667,"stopLon":-87.76694,"zoneID":"2"},"GRAND-CIC":{"stopID":"GRAND-CIC","stopName":"Grand/Cicero","stopLat":41.91444,"stopLon":-87.74611,"zoneID":"2"},"OHARE":{"stopID":"OHARE","stopName":"O'Hare Transfer","stopLat":41.995,"stopLon":-87.88056,"zoneID":"2"},"PROSPECTHG":{"stopID":"PROSPECTHG","stopName":"Prospect Hts","stopLat":42.09222,"stopLon":-87.90806,"zoneID":"3"},"WHEELING":{"stopID":"WHEELING","stopName":"Wheeling","stopLat":42.13639,"stopLon":-87.92722,"zoneID":"3"},"BUFFGROVE":{"stopID":"BUFFGROVE","stopName":"Buffalo Grove","stopLat":42.16861,"stopLon":-87.94139,"zoneID":"4"},"PRAIRIEVW":{"stopID":"PRAIRIEVW","stopName":"Prairie View","stopLat":42.19806,"stopLon":-87.95583,"zoneID":"4"},"VERNON":{"stopID":"VERNON","stopName":"Vernon Hills","stopLat":42.21556,"stopLon":-87.96444,"zoneID":"4"},"MUNDELEIN":{"stopID":"MUNDELEIN","stopName":"Mundelein","stopLat":42.26694,"stopLon":-87.99806,"zoneID":"4"},"PRAIRCROSS":{"stopID":"PRAIRCROSS","stopName":"Prairie Crossing.","stopLat":42.31806,"stopLon":-88.01722,"zoneID":"4"},"ROUNDLKBCH":{"stopID":"ROUNDLKBCH","stopName":"Round Lake Beach","stopLat":42.385,"stopLon":-88.06556,"zoneID":"4"},"LAKEVILLA":{"stopID":"LAKEVILLA","stopName":"Lake Villa","stopLat":42.4175,"stopLon":-88.07944,"zoneID":"4"},"ANTIOCH":{"stopID":"ANTIOCH","stopName":"Antioch","stopLat":42.48111,"stopLon":-88.0925,"zoneID":"4"},"NEWLENOX":{"stopID":"NEWLENOX","stopName":"New Lenox","stopLat":41.51444,"stopLon":-87.96528,"zoneID":"4"},"MOKENA":{"stopID":"MOKENA","stopName":"Mokena","stopLat":41.53083,"stopLon":-87.88667,"zoneID":"4"},"HICKORYCRK":{"stopID":"HICKORYCRK","stopName":"Hickory Creek","stopLat":41.54861,"stopLon":-87.84556,"zoneID":"4"},"TINLEY80TH":{"stopID":"TINLEY80TH","stopName":"Tinley-80th","stopLat":41.56444,"stopLon":-87.80944,"zoneID":"4"},"TINLEYPARK":{"stopID":"TINLEYPARK","stopName":"Tinley Park","stopLat":41.57583,"stopLon":-87.78278,"zoneID":"3"},"OAKFOREST":{"stopID":"OAKFOREST","stopName":"Oak Forest","stopLat":41.60444,"stopLon":-87.73833,"zoneID":"3"},"MIDLOTHIAN":{"stopID":"MIDLOTHIAN","stopName":"Midlothian","stopLat":41.62639,"stopLon":-87.71167,"zoneID":"2"},"ROBBINS":{"stopID":"ROBBINS","stopName":"Robbins","stopLat":41.64083,"stopLon":-87.69444,"zoneID":"2"},"KENSINGTN":{"stopID":"KENSINGTN","stopName":"Kensington","stopLat":41.68583,"stopLon":-87.61222,"zoneID":"2"},"59TH-UP":{"stopID":"59TH-UP","stopName":"59th St. (U. of Chicago)","stopLat":41.78806,"stopLon":-87.58861,"zoneID":"2"},"UNIVERSITY":{"stopID":"UNIVERSITY","stopName":"University Park","stopLat":41.45944,"stopLon":-87.72333,"zoneID":"3"},"RICHTON":{"stopID":"RICHTON","stopName":"Richton Park","stopLat":41.48556,"stopLon":-87.70944,"zoneID":"3"},"MATTESON":{"stopID":"MATTESON","stopName":"Matteson","stopLat":41.49861,"stopLon":-87.70222,"zoneID":"3"},"211TH-UP":{"stopID":"211TH-UP","stopName":"211th St.","stopLat":41.50611,"stopLon":-87.69833,"zoneID":"3"},"OLYMPIA":{"stopID":"OLYMPIA","stopName":"Olympia Fields","stopLat":41.52139,"stopLon":-87.69,"zoneID":"3"},"FLOSSMOOR":{"stopID":"FLOSSMOOR","stopName":"Flossmoor","stopLat":41.54306,"stopLon":-87.67861,"zoneID":"3"},"HOMEWOOD":{"stopID":"HOMEWOOD","stopName":"Homewood","stopLat":41.56222,"stopLon":-87.66861,"zoneID":"3"},"CALUMET":{"stopID":"CALUMET","stopName":"Calumet","stopLat":41.57361,"stopLon":-87.6625,"zoneID":"2"},"EDISONPK":{"stopID":"EDISONPK","stopName":"Edison Park","stopLat":42.00222,"stopLon":-87.8175,"zoneID":"2"},"NORWOODP":{"stopID":"NORWOODP","stopName":"Norwood Park","stopLat":41.99167,"stopLon":-87.79889,"zoneID":"2"},"GLADSTONEP":{"stopID":"GLADSTONEP","stopName":"Gladstone Park","stopLat":41.97972,"stopLon":-87.77806,"zoneID":"2"},"JEFFERSONP":{"stopID":"JEFFERSONP","stopName":"Jefferson Park","stopLat":41.97139,"stopLon":-87.76333,"zoneID":"2"},"BARTLETT":{"stopID":"BARTLETT","stopName":"Bartlett","stopLat":41.99222,"stopLon":-88.18389,"zoneID":"4"},"47TH-UP":{"stopID":"47TH-UP","stopName":"47th St. (Kenwood)","stopLat":41.80972,"stopLon":-87.59139,"zoneID":"2"},"51ST-53RD":{"stopID":"51ST-53RD","stopName":"51st/53rd St. (Hyde Park)","stopLat":41.8,"stopLon":-87.58694,"zoneID":"2"},"55-56-57TH":{"stopID":"55-56-57TH","stopName":"55th - 56th - 57th St.","stopLat":41.79333,"stopLon":-87.5875,"zoneID":"2"},"63RD-UP":{"stopID":"63RD-UP","stopName":"63rd St.","stopLat":41.78028,"stopLon":-87.59056,"zoneID":"2"},"PRAIRIEXNG":{"stopID":"PRAIRIEXNG","stopName":"Prairie Crossing","stopLat":42.32083,"stopLon":-88.01528,"zoneID":"4"},"RIVERGROVE":{"stopID":"RIVERGROVE","stopName":"River Grove","stopLat":41.93111,"stopLon":-87.83611,"zoneID":"2"},"ELMWOODPK":{"stopID":"ELMWOODPK","stopName":"Elmwood Park","stopLat":41.92472,"stopLon":-87.81472,"zoneID":"2"},"RIVERDALE":{"stopID":"RIVERDALE","stopName":"Riverdale","stopLat":41.64667,"stopLon":-87.62333,"zoneID":"2"},"IVANHOE":{"stopID":"IVANHOE","stopName":"Ivanhoe","stopLat":41.63333,"stopLon":-87.63028,"zoneID":"2"},"147TH-UP":{"stopID":"147TH-UP","stopName":"147th St.","stopLat":41.62278,"stopLon":-87.63611,"zoneID":"2"},"HARVEY":{"stopID":"HARVEY","stopName":"Harvey","stopLat":41.60833,"stopLon":-87.64389,"zoneID":"2"},"HAZELCREST":{"stopID":"HAZELCREST","stopName":"Hazel Crest","stopLat":41.58083,"stopLon":-87.65861,"zoneID":"2"},"MILLENNIUM":{"stopID":"MILLENNIUM","stopName":"Millennium Station","stopLat":41.88417,"stopLon":-87.62306,"zoneID":"1"},"VANBUREN":{"stopID":"VANBUREN","stopName":"Van Buren St.","stopLat":41.87694,"stopLon":-87.62306,"zoneID":"1"},"MUSEUM":{"stopID":"MUSEUM","stopName":"Museum Campus/11th St.","stopLat":41.86861,"stopLon":-87.62139,"zoneID":"1"},"18TH-UP":{"stopID":"18TH-UP","stopName":"18th St.","stopLat":41.85833,"stopLon":-87.61806,"zoneID":"2"},"MCCORMICK":{"stopID":"MCCORMICK","stopName":"McCormick Place","stopLat":41.85139,"stopLon":-87.61639,"zoneID":"2"},"27TH-UP":{"stopID":"27TH-UP","stopName":"27th St.","stopLat":41.84417,"stopLon":-87.61333,"zoneID":"2"},"75TH-UP":{"stopID":"75TH-UP","stopName":"75th St. (Grand Crossing)","stopLat":41.75889,"stopLon":-87.59528,"zoneID":"2"},"79TH-UP":{"stopID":"79TH-UP","stopName":"79th St. (Chatham)","stopLat":41.75083,"stopLon":-87.59722,"zoneID":"2"},"83RD-UP":{"stopID":"83RD-UP","stopName":"83rd St. (Avalon Park)","stopLat":41.74417,"stopLon":-87.59861,"zoneID":"2"},"87TH-UP":{"stopID":"87TH-UP","stopName":"87th St. (Woodruff)","stopLat":41.73694,"stopLon":-87.60028,"zoneID":"2"},"91ST-UP":{"stopID":"91ST-UP","stopName":"91st St.","stopLat":41.72944,"stopLon":-87.60194,"zoneID":"2"},"95TH-UP":{"stopID":"95TH-UP","stopName":"95th St.","stopLat":41.72194,"stopLon":-87.60389,"zoneID":"2"},"103RD-UP":{"stopID":"103RD-UP","stopName":"103rd St. (Rosemoor)","stopLat":41.70694,"stopLon":-87.60722,"zoneID":"2"},"107TH-UP":{"stopID":"107TH-UP","stopName":"107th St.","stopLat":41.69972,"stopLon":-87.60889,"zoneID":"2"},"111TH-UP":{"stopID":"111TH-UP","stopName":"111th St. (Pullman)","stopLat":41.69278,"stopLon":-87.61056,"zoneID":"2"},"STONYISLND":{"stopID":"STONYISLND","stopName":"Stony Island","stopLat":41.76611,"stopLon":-87.58694,"zoneID":"2"},"BRYNMAWR":{"stopID":"BRYNMAWR","stopName":"Bryn Mawr","stopLat":41.76611,"stopLon":-87.57667,"zoneID":"2"},"SOUTHSHORE":{"stopID":"SOUTHSHORE","stopName":"South Shore","stopLat":41.76528,"stopLon":-87.56583,"zoneID":"2"},"WINDSORPK":{"stopID":"WINDSORPK","stopName":"Windsor Park","stopLat":41.75861,"stopLon":-87.55944,"zoneID":"2"},"79TH-SC":{"stopID":"79TH-SC","stopName":"Cheltenham (79th St.)","stopLat":41.75222,"stopLon":-87.5525,"zoneID":"2"},"83RD-SC":{"stopID":"83RD-SC","stopName":"83rd St.","stopLat":41.745,"stopLon":-87.55167,"zoneID":"2"},"87TH-SC":{"stopID":"87TH-SC","stopName":"87th St.","stopLat":41.73778,"stopLon":-87.54833,"zoneID":"2"},"93RD-SC":{"stopID":"93RD-SC","stopName":"South Chicago (93rd)","stopLat":41.72667,"stopLon":-87.54778,"zoneID":"2"},"LSS":{"stopID":"LSS","stopName":"LaSalle Street","stopLat":41.87639,"stopLon":-87.63222,"zoneID":"1"},"GRESHAM":{"stopID":"GRESHAM","stopName":"Gresham","stopLat":41.73639,"stopLon":-87.64472,"zoneID":"2"},"VERMONT":{"stopID":"VERMONT","stopName":"Blue Island-Vermont","stopLat":41.65472,"stopLon":-87.67778,"zoneID":"2"},"LONGWOOD":{"stopID":"LONGWOOD","stopName":"95th St.-Longwood","stopLat":41.72111,"stopLon":-87.65028,"zoneID":"2"},"WASHHGTS":{"stopID":"WASHHGTS","stopName":"103rd St.-Washington Hts.","stopLat":41.70556,"stopLon":-87.65583,"zoneID":"2"},"BRAINERD":{"stopID":"BRAINERD","stopName":"Brainerd","stopLat":41.73222,"stopLon":-87.65889,"zoneID":"2"},"91ST-BEV":{"stopID":"91ST-BEV","stopName":"91st St. - Beverly Hills","stopLat":41.72806,"stopLon":-87.66722,"zoneID":"2"},"PRAIRIEST":{"stopID":"PRAIRIEST","stopName":"Prairie St.","stopLat":41.6625,"stopLon":-87.675,"zoneID":"2"},"123RD-BEV":{"stopID":"123RD-BEV","stopName":"123rd St.","stopLat":41.67,"stopLon":-87.67361,"zoneID":"2"},"119TH-BEV":{"stopID":"119TH-BEV","stopName":"119th St.","stopLat":41.67639,"stopLon":-87.6725,"zoneID":"2"},"115TH-BEV":{"stopID":"115TH-BEV","stopName":"115th St. - Morgan Park","stopLat":41.685,"stopLon":-87.67167,"zoneID":"2"},"111TH-BEV":{"stopID":"111TH-BEV","stopName":"111th St. - Morgan Park","stopLat":41.69278,"stopLon":-87.67056,"zoneID":"2"},"107TH-BEV":{"stopID":"107TH-BEV","stopName":"107th St. - Beverly Hills","stopLat":41.69889,"stopLon":-87.67,"zoneID":"2"},"103RD-BEV":{"stopID":"103RD-BEV","stopName":"103rd St. - Beverly Hills","stopLat":41.70611,"stopLon":-87.66889,"zoneID":"2"},"99TH-BEV":{"stopID":"99TH-BEV","stopName":"99th St. - Beverly Hills","stopLat":41.71361,"stopLon":-87.6675,"zoneID":"2"},"95TH-BEV":{"stopID":"95TH-BEV","stopName":"95th St. - Beverly Hills","stopLat":41.72139,"stopLon":-87.66722,"zoneID":"2"},"BLUEISLAND":{"stopID":"BLUEISLAND","stopName":"Blue Island","stopLat":41.65611,"stopLon":-87.67583,"zoneID":"2"},"BURROAK":{"stopID":"BURROAK","stopName":"Burr Oak","stopLat":41.66222,"stopLon":-87.66889,"zoneID":"2"},"ASHLAND":{"stopID":"ASHLAND","stopName":"Ashland","stopLat":41.66944,"stopLon":-87.66056,"zoneID":"2"},"RACINE":{"stopID":"RACINE","stopName":"Racine","stopLat":41.67417,"stopLon":-87.65194,"zoneID":"2"},"WPULLMAN":{"stopID":"WPULLMAN","stopName":"West Pullman","stopLat":41.67417,"stopLon":-87.64222,"zoneID":"2"},"STEWARTRID":{"stopID":"STEWARTRID","stopName":"Stewart Ridge","stopLat":41.67444,"stopLon":-87.63167,"zoneID":"2"},"STATEST":{"stopID":"STATEST","stopName":"State St.","stopLat":41.67444,"stopLon":-87.62194,"zoneID":"2"},"SCHILLERPK":{"stopID":"SCHILLERPK","stopName":"Schiller Park","stopLat":41.96278,"stopLon":-87.87056,"zoneID":"2"},"PALOSHTS":{"stopID":"PALOSHTS","stopName":"Palos Heights","stopLat":41.68194,"stopLon":-87.80694,"zoneID":"3"},"PINGREE":{"stopID":"PINGREE","stopName":"Pingree Road","stopLat":42.23417,"stopLon":-88.29806,"zoneID":"4"},"CUS":{"stopID":"CUS","stopName":"Chicago Union Station","stopLat":41.87889,"stopLon":-87.63889,"zoneID":"1"},"OTC":{"stopID":"OTC","stopName":"Chicago OTC","stopLat":41.88222,"stopLon":-87.64056,"zoneID":"1"},"LARAWAY":{"stopID":"LARAWAY","stopName":"Laraway Road","stopLat":41.48472,"stopLon":-87.95972,"zoneID":"4"},"MANHATTAN":{"stopID":"MANHATTAN","stopName":"Manhattan","stopLat":41.41833,"stopLon":-87.98917,"zoneID":"4"},"NCSGRAYSLK":{"stopID":"NCSGRAYSLK","stopName":"Washington St (Grayslake)","stopLat":42.35917,"stopLon":-88.05056,"zoneID":"4"},"ROSEMONT":{"stopID":"ROSEMONT","stopName":"Rosemont","stopLat":41.97611,"stopLon":-87.87389,"zoneID":"2"},"FRANKLINPK":{"stopID":"FRANKLINPK","stopName":"Franklin Pk","stopLat":41.93778,"stopLon":-87.86,"zoneID":"2"},"LAFOX":{"stopID":"LAFOX","stopName":"La Fox","stopLat":41.88667,"stopLon":-88.41222,"zoneID":"4"},"ELBURN":{"stopID":"ELBURN","stopName":"Elburn","stopLat":41.89056,"stopLon":-88.46389,"zoneID":"4"},"35TH":{"stopID":"35TH","stopName":"35th St. - Lou Jones","stopLat":41.83139,"stopLon":-87.62917,"zoneID":"2"},"ROMEOVILLE":{"stopID":"ROMEOVILLE","stopName":"Romeoville","stopLat":41.63722,"stopLon":-88.04944,"zoneID":"4"},"PETERSON":{"stopID":"PETERSON","stopName":"Peterson/Ridge","stopLat":41.99111,"stopLon":-87.675,"zoneID":"2"}}