{"105515":{"stopID":"105515","stopName":"BWI Light Rail","stopLat":39.18212,"stopLon":-76.66939},"105516":{"stopID":"105516","stopName":"Mathison Way (Building H. Amazon)","stopLat":39.17059,"stopLon":-76.6837},"105517":{"stopID":"105517","stopName":"Arundel Mills Mall/Live! Casino","stopLat":39.15367,"stopLon":-76.72474},"105518":{"stopID":"105518","stopName":"Arundel Preserve","stopLat":39.15386,"stopLon":-76.74257},"105519":{"stopID":"105519","stopName":"Dorchester Woods","stopLat":39.1624,"stopLon":-76.73141},"105520":{"stopID":"105520","stopName":"BWI MARC/Amtrak","stopLat":39.1924,"stopLon":-76.69397}}