{"112900":{"stopID":"112900","stopName":"Wilson / School Sts.","stopLat":43.26791,"stopLon":-70.86195},"112901":{"stopID":"112901","stopName":"Allen / Lord Sts. (Berwick Meadows)","stopLat":43.2669,"stopLon":-70.86009},"112902":{"stopID":"112902","stopName":"Saw Mill Hill / Allen St.","stopLat":43.26607,"stopLon":-70.85823},"112903":{"stopID":"112903","stopName":"Saw Mill Hill / George St.","stopLat":43.2657,"stopLon":-70.86281},"112904":{"stopID":"112904","stopName":"Allen St. / Saw Mill Hill Southbound","stopLat":43.26643,"stopLon":-70.85875},"112905":{"stopID":"112905","stopName":"Allen St. / Saw Mill Hill Northbound","stopLat":43.26635,"stopLon":-70.85799},"112906":{"stopID":"112906","stopName":"Wilson St. Parking Northbound","stopLat":43.26857,"stopLon":-70.86418},"112907":{"stopID":"112907","stopName":"Wilson St. Parking Southbound","stopLat":43.26845,"stopLon":-70.8642},"112908":{"stopID":"112908","stopName":"Sullivan St. (Berwick Town Hall Lot)","stopLat":43.26744,"stopLon":-70.86501},"112909":{"stopID":"112909","stopName":"Sullivan St. (Berwick Town Hall)","stopLat":43.26695,"stopLon":-70.86466},"112910":{"stopID":"112910","stopName":"Washington / Arch / Richmond Sts. Outbound","stopLat":43.19408,"stopLon":-70.88427},"112911":{"stopID":"112911","stopName":"Washington / Fourth Sts.","stopLat":43.1981,"stopLon":-70.89101},"112912":{"stopID":"112912","stopName":"Whittier St. / Pleasant View Circle (Dicicco's Market)","stopLat":43.20012,"stopLon":-70.89521},"112913":{"stopID":"112913","stopName":"Whittier St. (Dover Housing Authority)","stopLat":43.20327,"stopLon":-70.89631},"112914":{"stopID":"112914","stopName":"Whittier / Sixth Sts. Outbound","stopLat":43.20768,"stopLon":-70.89026},"112915":{"stopID":"112915","stopName":"Glenwood Ave. / Whittier St.","stopLat":43.21257,"stopLon":-70.88977},"112916":{"stopID":"112916","stopName":"Glenwood / Glencrest Aves.","stopLat":43.21436,"stopLon":-70.88335},"112919":{"stopID":"112919","stopName":"Glenwood Ave. / Smith Well Rd.","stopLat":43.21442,"stopLon":-70.88339},"112920":{"stopID":"112920","stopName":"Glenwood Ave. / Plaza Dr.","stopLat":43.21261,"stopLon":-70.88994},"112921":{"stopID":"112921","stopName":"Whittier / Sixth Sts. Inbound","stopLat":43.20744,"stopLon":-70.89045},"112922":{"stopID":"112922","stopName":"Whittier St. / Addison Place","stopLat":43.20319,"stopLon":-70.89652},"112923":{"stopID":"112923","stopName":"Whittier St. / Tolend Rd.","stopLat":43.20009,"stopLon":-70.89544},"112924":{"stopID":"112924","stopName":"Washington St. (My Friend's Place)","stopLat":43.19869,"stopLon":-70.89239},"112925":{"stopID":"112925","stopName":"Washington / Arch / Richmond Sts. Inbound","stopLat":43.19398,"stopLon":-70.88434},"112926":{"stopID":"112926","stopName":"New Rochester Rd. (Strafford Farms Restaurant)","stopLat":43.22802,"stopLon":-70.89536},"112927":{"stopID":"112927","stopName":"New Rochester Rd. / Hotel Dr. (Weeks Crossing Plaza)","stopLat":43.22406,"stopLon":-70.89042},"112928":{"stopID":"112928","stopName":"Central Ave. / Abbott St. (Wentworth-Douglass Hospital)","stopLat":43.21249,"stopLon":-70.87527},"112929":{"stopID":"112929","stopName":"Central Ave. / Ash St.","stopLat":43.20694,"stopLon":-70.87538},"112930":{"stopID":"112930","stopName":"Central Ave. / Hough St. (U-Haul)","stopLat":43.20382,"stopLon":-70.87567},"112931":{"stopID":"112931","stopName":"Chestnut / Lincoln Sts. (Carswell Auto Parts)","stopLat":43.20045,"stopLon":-70.87652},"112932":{"stopID":"112932","stopName":"Chestnut St. (Riverview Apts. / Post Office)","stopLat":43.19562,"stopLon":-70.87682},"112933":{"stopID":"112933","stopName":"Green St. (Waldron Towers)","stopLat":43.19541,"stopLon":-70.87837},"112934":{"stopID":"112934","stopName":"Central Ave. (Dover City Hall)","stopLat":43.1939,"stopLon":-70.87467},"112935":{"stopID":"112935","stopName":"Central Ave. / Spring St.","stopLat":43.18876,"stopLon":-70.87415},"112936":{"stopID":"112936","stopName":"Central Ave. (Pine Hill Cemetary) Southbound","stopLat":43.18607,"stopLon":-70.87383},"112937":{"stopID":"112937","stopName":"Stark Ave. / South Watson Ln.","stopLat":43.18254,"stopLon":-70.87232},"112938":{"stopID":"112938","stopName":"Stark / Renaud Aves.","stopLat":43.18062,"stopLon":-70.87048},"112939":{"stopID":"112939","stopName":"Dover Point Rd. / Elliot Park Dr.","stopLat":43.17808,"stopLon":-70.86865},"112940":{"stopID":"112940","stopName":"Dover Point Rd. (Dover Chevrolet / Honda)","stopLat":43.17615,"stopLon":-70.86693},"112941":{"stopID":"112941","stopName":"Dover Point Rd. / Sheffield Dr.","stopLat":43.17324,"stopLon":-70.86178},"112942":{"stopID":"112942","stopName":"Dover Point Rd. (St. Mary's Cemetery)","stopLat":43.1722,"stopLon":-70.86016},"112943":{"stopID":"112943","stopName":"Dover Point Rd. / Constitution Way Southbound","stopLat":43.16986,"stopLon":-70.85716},"112944":{"stopID":"112944","stopName":"Dover Point Rd. (Nordic Stove Shoppe)","stopLat":43.16777,"stopLon":-70.85468},"112945":{"stopID":"112945","stopName":"Dover Point Rd. (Tendercrop Farm)","stopLat":43.16579,"stopLon":-70.84588},"112946":{"stopID":"112946","stopName":"Dover Point / Middle Rds. Southbound","stopLat":43.15584,"stopLon":-70.84106},"112947":{"stopID":"112947","stopName":"Dover Point Rd. / Evan's Dr.","stopLat":43.15421,"stopLon":-70.84071},"112948":{"stopID":"112948","stopName":"Dover Point Rd. / New Bellamy Ln.","stopLat":43.14835,"stopLon":-70.83934},"112949":{"stopID":"112949","stopName":"Dover Point / Roberts Rds. Southbound","stopLat":43.14478,"stopLon":-70.83841},"112950":{"stopID":"112950","stopName":"Dover Point Rd. / Baldwin Way","stopLat":43.14243,"stopLon":-70.83847},"112951":{"stopID":"112951","stopName":"Dover Point Rd. / Pearson Dr. Southbound","stopLat":43.13799,"stopLon":-70.83751},"112952":{"stopID":"112952","stopName":"Dover Point Rd. / Homestead Ln. Southbound","stopLat":43.13501,"stopLon":-70.83615},"112954":{"stopID":"112954","stopName":"Dover Point Rd. (Coastal Furniture)","stopLat":43.13419,"stopLon":-70.83565},"112955":{"stopID":"112955","stopName":"Dover Point Rd. / Homestead Ln. Northbound","stopLat":43.1355,"stopLon":-70.83638},"112956":{"stopID":"112956","stopName":"Dover Point Rd. / Pearson Dr. Northbound","stopLat":43.13803,"stopLon":-70.83743},"112957":{"stopID":"112957","stopName":"Dover Point Rd. / Roberta Dr.","stopLat":43.14207,"stopLon":-70.83839},"112958":{"stopID":"112958","stopName":"Dover Point / Roberts Rds. Northbound","stopLat":43.1447,"stopLon":-70.83828},"112959":{"stopID":"112959","stopName":"Dover Point Rd. / Riverside Dr.","stopLat":43.14901,"stopLon":-70.83939},"112960":{"stopID":"112960","stopName":"Dover Point / Middle Rds. Northbound","stopLat":43.1555,"stopLon":-70.84087},"112961":{"stopID":"112961","stopName":"Dover Point Rd. / Tuttle Ln.","stopLat":43.16587,"stopLon":-70.84582},"112962":{"stopID":"112962","stopName":"Dover Point Rd. / Toftree Ln.","stopLat":43.16711,"stopLon":-70.85147},"112963":{"stopID":"112963","stopName":"Dover Point Rd. / Constitution Way Northbound","stopLat":43.16983,"stopLon":-70.857},"112964":{"stopID":"112964","stopName":"Dover Point Rd. (Dover Point Office Park)","stopLat":43.17135,"stopLon":-70.85867},"112965":{"stopID":"112965","stopName":"Dover Point Rd. (Bill Dube Ford)","stopLat":43.17224,"stopLon":-70.86007},"112966":{"stopID":"112966","stopName":"Dover Point Rd. / Pointe Place (Irving)","stopLat":43.17363,"stopLon":-70.86223},"112967":{"stopID":"112967","stopName":"Dover Point Rd. (Weathervane Restaurant)","stopLat":43.17617,"stopLon":-70.86671},"112968":{"stopID":"112968","stopName":"Stark Ave. / Hawthorn Rd.","stopLat":43.17819,"stopLon":-70.86858},"112969":{"stopID":"112969","stopName":"Stark Ave. / Beech Rd.","stopLat":43.18186,"stopLon":-70.87153},"112970":{"stopID":"112970","stopName":"Central Ave. (Pine Hill Cemetary) Northbound","stopLat":43.18568,"stopLon":-70.8736},"112971":{"stopID":"112971","stopName":"Central Ave. / Union St.","stopLat":43.18904,"stopLon":-70.87399},"112972":{"stopID":"112972","stopName":"Central Ave. (Central Towers)","stopLat":43.19333,"stopLon":-70.87383},"112973":{"stopID":"112973","stopName":"Chestnut / Orchard Sts. (Cocheco Park)","stopLat":43.19545,"stopLon":-70.87652},"112974":{"stopID":"112974","stopName":"Third St. / Central Ave.","stopLat":43.19837,"stopLon":-70.87449},"112975":{"stopID":"112975","stopName":"Central Ave. / New York St.","stopLat":43.20061,"stopLon":-70.8755},"112976":{"stopID":"112976","stopName":"Central Ave. (Tasker Funeral Home)","stopLat":43.20358,"stopLon":-70.87554},"112977":{"stopID":"112977","stopName":"Central Ave. / Oak St. (Rite-Aid)","stopLat":43.20667,"stopLon":-70.87523},"112978":{"stopID":"112978","stopName":"Central Ave. (Wentworth-Douglass Hospital)","stopLat":43.21216,"stopLon":-70.87474},"112979":{"stopID":"112979","stopName":"New Rochester / Willand Pond Rds. (Applebee's)","stopLat":43.22359,"stopLon":-70.8895},"112980":{"stopID":"112980","stopName":"New Rochester Rd. / Sherman St.","stopLat":43.2256,"stopLon":-70.89219},"112981":{"stopID":"112981","stopName":"New Rochester Rd. (Winchester Arms Apts.)","stopLat":43.22927,"stopLon":-70.89637},"112982":{"stopID":"112982","stopName":"Main / School Sts.","stopLat":43.1971,"stopLon":-70.87277},"112984":{"stopID":"112984","stopName":"Sixth / Grove Sts. Outbound","stopLat":43.20198,"stopLon":-70.87842},"112985":{"stopID":"112985","stopName":"Sixth / Horne Sts. Outbound","stopLat":43.20416,"stopLon":-70.88232},"112986":{"stopID":"112986","stopName":"Sixth St. / Hillcrest Dr.","stopLat":43.20504,"stopLon":-70.88392},"112987":{"stopID":"112987","stopName":"Sixth / Whittier Sts. Outbound","stopLat":43.20718,"stopLon":-70.88985},"112988":{"stopID":"112988","stopName":"Whittier St. / Wedgewood Rd. Outbound","stopLat":43.21151,"stopLon":-70.89011},"112989":{"stopID":"112989","stopName":"Glenwood Ave. / Crestview Dr. Outbound","stopLat":43.21308,"stopLon":-70.89419},"112990":{"stopID":"112990","stopName":"Glenwood / Wilbrod Aves. Outbound","stopLat":43.21322,"stopLon":-70.89868},"112991":{"stopID":"112991","stopName":"150 Liberty Way ON CALL","stopLat":43.20993,"stopLon":-70.91204},"112992":{"stopID":"112992","stopName":"100 Liberty Way ON CALL","stopLat":43.21058,"stopLon":-70.90744},"112993":{"stopID":"112993","stopName":"Members Way (Homewood Suites / Margarita's) ON CALL","stopLat":43.21561,"stopLon":-70.90093},"112994":{"stopID":"112994","stopName":"Members Way (Wentworth-Douglass Professional Center) ON CALL","stopLat":43.21432,"stopLon":-70.90339},"112995":{"stopID":"112995","stopName":"Sixth St. / Heather Ln. (Cocheco River Dialysis)","stopLat":43.21301,"stopLon":-70.9066},"112996":{"stopID":"112996","stopName":"Sixth St. / Venture Dr.","stopLat":43.21662,"stopLon":-70.91176},"112997":{"stopID":"112997","stopName":"50 Education Way ON CALL","stopLat":43.21291,"stopLon":-70.91362},"112998":{"stopID":"112998","stopName":"Venture Dr. (will stop anywhere along road) ON CALL","stopLat":43.22209,"stopLon":-70.90935},"112999":{"stopID":"112999","stopName":"Sixth St. / Production Dr.","stopLat":43.21795,"stopLon":-70.9144},"113000":{"stopID":"113000","stopName":"County Farm / Watson Rds. Outbound","stopLat":43.21734,"stopLon":-70.9205},"113001":{"stopID":"113001","stopName":"County Farm Rd. / Erik Dr.","stopLat":43.21774,"stopLon":-70.92801},"113002":{"stopID":"113002","stopName":"County Farm Cross / County Farm Rds.","stopLat":43.21957,"stopLon":-70.94019},"113003":{"stopID":"113003","stopName":"County Farm Rd. (Highland Farm)","stopLat":43.21764,"stopLon":-70.9287},"113004":{"stopID":"113004","stopName":"County Farm / Watson Rds. Inbound","stopLat":43.21729,"stopLon":-70.92054},"113005":{"stopID":"113005","stopName":"County Farm Rd. / Sixth St.","stopLat":43.2182,"stopLon":-70.91587},"113006":{"stopID":"113006","stopName":"Sixth St. / Education Way","stopLat":43.2166,"stopLon":-70.91191},"113007":{"stopID":"113007","stopName":"Sixth St. / Heather Ln. Inbound","stopLat":43.21292,"stopLon":-70.90665},"113008":{"stopID":"113008","stopName":"Glenwood / Wilbrod Aves. Inbound","stopLat":43.21324,"stopLon":-70.89798},"113009":{"stopID":"113009","stopName":"Glenwood Ave. / Crestview Dr. Inbound","stopLat":43.213,"stopLon":-70.89406},"113010":{"stopID":"113010","stopName":"Whittier St. / Wedgewood Rd. Inbound","stopLat":43.21097,"stopLon":-70.89011},"113011":{"stopID":"113011","stopName":"Sixth St. / Hillside Dr.","stopLat":43.205,"stopLon":-70.88396},"113012":{"stopID":"113012","stopName":"Sixth / Horne Sts. Inbound","stopLat":43.20411,"stopLon":-70.88241},"113013":{"stopID":"113013","stopName":"Sixth / Grove Sts. Inbound","stopLat":43.20167,"stopLon":-70.87806},"113014":{"stopID":"113014","stopName":"Central Ave. / Fourth St.","stopLat":43.19954,"stopLon":-70.87516},"113015":{"stopID":"113015","stopName":"Portland Ave. / Cocheco St. Outbound","stopLat":43.197,"stopLon":-70.87092},"113016":{"stopID":"113016","stopName":"Portland Ave. / Rogers St. Outbound","stopLat":43.19985,"stopLon":-70.86811},"113017":{"stopID":"113017","stopName":"Portland / Atlantic Aves. Outbound","stopLat":43.2017,"stopLon":-70.86503},"113018":{"stopID":"113018","stopName":"Portland Ave. (Royal Oak Apts.)","stopLat":43.20319,"stopLon":-70.86257},"113019":{"stopID":"113019","stopName":"Portland / Atlantic Aves. Inbound","stopLat":43.20193,"stopLon":-70.86498},"113020":{"stopID":"113020","stopName":"Portland Ave. / Rogers St. Inbound","stopLat":43.19992,"stopLon":-70.86827},"113021":{"stopID":"113021","stopName":"Portland Ave. / Cocheco St. Inbound","stopLat":43.19805,"stopLon":-70.87047},"113023":{"stopID":"113023","stopName":"Silver / Rutland Sts.","stopLat":43.19066,"stopLon":-70.88225},"113024":{"stopID":"113024","stopName":"Silver / Elm Sts.","stopLat":43.19046,"stopLon":-70.87721},"113025":{"stopID":"113025","stopName":"Locust / Hale Sts.","stopLat":43.19297,"stopLon":-70.87545},"113026":{"stopID":"113026","stopName":"Knox Marsh Rd. (White Cliffs Apts.)","stopLat":43.17967,"stopLon":-70.89692},"113027":{"stopID":"113027","stopName":"Silver / Atkinson Sts.","stopLat":43.19064,"stopLon":-70.87786},"113028":{"stopID":"113028","stopName":"Silver / Lexington Sts.","stopLat":43.19065,"stopLon":-70.88301},"113029":{"stopID":"113029","stopName":"Knox Marsh Rd. / Trestle Way","stopLat":43.18131,"stopLon":-70.89276},"113031":{"stopID":"113031","stopName":"Knox Marsh / Littleworth Rds.","stopLat":43.18279,"stopLon":-70.89132},"113032":{"stopID":"113032","stopName":"Knox Marsh Rd. / Westgate Dr. (White Cliffs Apts.)","stopLat":43.17946,"stopLon":-70.89821},"113033":{"stopID":"113033","stopName":"Central Ave. (Shaw's)","stopLat":43.21697,"stopLon":-70.88072},"113034":{"stopID":"113034","stopName":"Dover Transportation Center","stopLat":43.19804,"stopLon":-70.8782},"113035":{"stopID":"113035","stopName":"Dover Point Rd. (St. Thomas Aquinas High School) Southbound","stopLat":43.15232,"stopLon":-70.84029},"113036":{"stopID":"113036","stopName":"Dover Point Rd. (St. Thomas Aquinas High School) Northbound","stopLat":43.15184,"stopLon":-70.84001},"113037":{"stopID":"113037","stopName":"Washington St. (Henry Law Park)","stopLat":43.19509,"stopLon":-70.87355},"113038":{"stopID":"113038","stopName":"Indian Brook Dr. (NHDOT Park & Ride - Exit 9)","stopLat":43.21335,"stopLon":-70.90183},"113039":{"stopID":"113039","stopName":"Strafford County Courthouse","stopLat":43.22012,"stopLon":-70.93854},"113040":{"stopID":"113040","stopName":"Sixth / Whittier Sts. Inbound","stopLat":43.20675,"stopLon":-70.88869},"113041":{"stopID":"113041","stopName":"Sumner Dr. (COAST Offices)","stopLat":43.18045,"stopLon":-70.9011},"113042":{"stopID":"113042","stopName":"Dover Arena and Outdoor Pool","stopLat":43.20472,"stopLon":-70.86081},"113043":{"stopID":"113043","stopName":"Eliot Commons","stopLat":43.12954,"stopLon":-70.77301},"113044":{"stopID":"113044","stopName":"Main St. (Old Courthouse)","stopLat":43.39073,"stopLon":-71.06509},"113045":{"stopID":"113045","stopName":"Main / Charles Sts. (Memorial Park)","stopLat":43.39417,"stopLon":-71.06556},"113046":{"stopID":"113046","stopName":"Central / Spring Sts.","stopLat":43.38884,"stopLon":-71.06748},"113047":{"stopID":"113047","stopName":"Central St. / Orchard Cir.","stopLat":43.38847,"stopLon":-71.0765},"113048":{"stopID":"113048","stopName":"Colonial Cir. (Trotting Park) West","stopLat":43.38994,"stopLon":-71.08496},"113049":{"stopID":"113049","stopName":"Colonial Cir. (Trotting Park) East","stopLat":43.38966,"stopLon":-71.08367},"113050":{"stopID":"113050","stopName":"High / Tappan Sts. (Rite-Aid)","stopLat":43.38502,"stopLon":-71.07487},"113051":{"stopID":"113051","stopName":"NH 11 (NAPA Auto Parts)","stopLat":43.37722,"stopLon":-71.06369},"113052":{"stopID":"113052","stopName":"NH 11 (Metal Farm)","stopLat":43.37294,"stopLon":-71.0543},"113053":{"stopID":"113053","stopName":"NH 11 (Farmer's Kitchen)","stopLat":43.36983,"stopLon":-71.04481},"113054":{"stopID":"113054","stopName":"NH 11 (Family Care of Farmington) Southbound","stopLat":43.36294,"stopLon":-71.03665},"113055":{"stopID":"113055","stopName":"NH 11 (Family Care of Farmington) Northbound","stopLat":43.3634,"stopLon":-71.03674},"113056":{"stopID":"113056","stopName":"NH 11 / Main St. (Irving)","stopLat":43.36994,"stopLon":-71.0446},"113057":{"stopID":"113057","stopName":"Main St. / Cocheco Rd.","stopLat":43.37605,"stopLon":-71.04434},"113058":{"stopID":"113058","stopName":"Main St. (Farmington Public Safety Building)","stopLat":43.38011,"stopLon":-71.04821},"113059":{"stopID":"113059","stopName":"Main / Elm Sts.","stopLat":43.38763,"stopLon":-71.06196},"113060":{"stopID":"113060","stopName":"Main / Pleasant Sts.","stopLat":43.38867,"stopLon":-71.0644},"113061":{"stopID":"113061","stopName":"Hunter Ave. / Government St.","stopLat":43.0856,"stopLon":-70.74985},"113062":{"stopID":"113062","stopName":"Walker St. (Loco Coco's Tacos)","stopLat":43.08717,"stopLon":-70.74769},"113063":{"stopID":"113063","stopName":"Government St. (PNSY Gate 1)","stopLat":43.08579,"stopLon":-70.74335},"113064":{"stopID":"113064","stopName":"PNSY Gate 1 Inspection Station","stopLat":43.08592,"stopLon":-70.74226},"113065":{"stopID":"113065","stopName":"Shattuck Way / Nimble Hill Rd. Express ON CALL","stopLat":43.11166,"stopLon":-70.82103},"113066":{"stopID":"113066","stopName":"Shattuck Way (Custom Pools) ON CALL","stopLat":43.11182,"stopLon":-70.81531},"113067":{"stopID":"113067","stopName":"Shattuck Way / River Rd. ON CALL","stopLat":43.10952,"stopLon":-70.8133},"113068":{"stopID":"113068","stopName":"Shattuck Way / Patterson Ln. ON CALL","stopLat":43.10538,"stopLon":-70.80984},"113069":{"stopID":"113069","stopName":"Shattuck Way / Avery Rd. ON CALL","stopLat":43.10245,"stopLon":-70.80473},"113070":{"stopID":"113070","stopName":"Shattuck Way / Piscataqua Dr. ON CALL","stopLat":43.09956,"stopLon":-70.79825},"113071":{"stopID":"113071","stopName":"The Crossings (Regal Cinema) Inbound","stopLat":43.09458,"stopLon":-70.80164},"113072":{"stopID":"113072","stopName":"Gosling Rd. (Gosling Meadows)","stopLat":43.09343,"stopLon":-70.79614},"113073":{"stopID":"113073","stopName":"The Crossings (Regal Cinema) Outbound","stopLat":43.09459,"stopLon":-70.80207},"113079":{"stopID":"113079","stopName":"Shattuck Way / Nimble Hill Rd. Outbound ON CALL","stopLat":43.11156,"stopLon":-70.82085},"113080":{"stopID":"113080","stopName":"Newington Town Hall ON CALL","stopLat":43.10519,"stopLon":-70.83027},"113081":{"stopID":"113081","stopName":"Nimble Hill Rd. / Shattuck Way ON CALL","stopLat":43.1115,"stopLon":-70.82068},"113082":{"stopID":"113082","stopName":"Fox Run Mall","stopLat":43.09798,"stopLon":-70.80488},"113083":{"stopID":"113083","stopName":"Gosling / Winsor Rds. (Gosling Meadows)","stopLat":43.093,"stopLon":-70.79666},"113084":{"stopID":"113084","stopName":"Woodbury Ave. (Verizon Wireless)","stopLat":43.09219,"stopLon":-70.793},"113085":{"stopID":"113085","stopName":"170 Commerce Way","stopLat":43.09091,"stopLon":-70.78637},"113086":{"stopID":"113086","stopName":"Commerce Way / Portsmouth Blvd.","stopLat":43.08925,"stopLon":-70.78414},"113088":{"stopID":"113088","stopName":"Market St. / I-95 Southbound","stopLat":43.08419,"stopLon":-70.77149},"113089":{"stopID":"113089","stopName":"Russell / Deer Sts.","stopLat":43.07923,"stopLon":-70.76096},"113090":{"stopID":"113090","stopName":"Hanover Station","stopLat":43.07791,"stopLon":-70.75891},"113091":{"stopID":"113091","stopName":"Russell St. (Sheraton Harborside)","stopLat":43.07938,"stopLon":-70.76084},"113092":{"stopID":"113092","stopName":"Market St. / I-95 Northbound","stopLat":43.08444,"stopLon":-70.77102},"113093":{"stopID":"113093","stopName":"Kearsarge Way / Market St.","stopLat":43.08484,"stopLon":-70.77534},"113094":{"stopID":"113094","stopName":"Portsmouth Blvd. / Shearwater Dr.","stopLat":43.08728,"stopLon":-70.78434},"113095":{"stopID":"113095","stopName":"215 Commerce Way","stopLat":43.08993,"stopLon":-70.78435},"113096":{"stopID":"113096","stopName":"175 Commerce Way","stopLat":43.09122,"stopLon":-70.78671},"113097":{"stopID":"113097","stopName":"Woodbury Ave. (Starbucks)","stopLat":43.09227,"stopLon":-70.79276},"113098":{"stopID":"113098","stopName":"Court / Chestnut Sts.","stopLat":43.07487,"stopLon":-70.7585},"113099":{"stopID":"113099","stopName":"Court / Middle Sts.","stopLat":43.07431,"stopLon":-70.7601},"113100":{"stopID":"113100","stopName":"Middle / Summer Sts.","stopLat":43.07134,"stopLon":-70.76259},"113101":{"stopID":"113101","stopName":"Middle / Madison Sts.","stopLat":43.06926,"stopLon":-70.76485},"113102":{"stopID":"113102","stopName":"Middle / Cass Sts.","stopLat":43.06868,"stopLon":-70.76576},"113103":{"stopID":"113103","stopName":"Middle St. / Aldrich Rd. Outbound","stopLat":43.06747,"stopLon":-70.76691},"113104":{"stopID":"113104","stopName":"Middle / Lawrence Sts.","stopLat":43.0658,"stopLon":-70.76704},"113105":{"stopID":"113105","stopName":"Lafayette Rd. / Willard Ave. Outbound","stopLat":43.0633,"stopLon":-70.76796},"113106":{"stopID":"113106","stopName":"Lafayette Rd. (Lafayette Professional Park)","stopLat":43.06158,"stopLon":-70.76876},"113107":{"stopID":"113107","stopName":"Lafayette Rd. (Portsmouth High School) Outbound","stopLat":43.05868,"stopLon":-70.76954},"113108":{"stopID":"113108","stopName":"Wilson Rd. (Market Basket) Outbound","stopLat":43.04367,"stopLon":-70.77511},"113109":{"stopID":"113109","stopName":"210 West Rd.","stopLat":43.04158,"stopLon":-70.77868},"113110":{"stopID":"113110","stopName":"West Rd. / Campus Dr. Outbound","stopLat":43.039,"stopLon":-70.78116},"113111":{"stopID":"113111","stopName":"Campus Dr. (Community Campus) ON CALL","stopLat":43.04021,"stopLon":-70.78628},"113112":{"stopID":"113112","stopName":"West / Lafayette Rds. Outbound","stopLat":43.03755,"stopLon":-70.77766},"113113":{"stopID":"113113","stopName":"Constitution Ave. (Portsmouth Green)","stopLat":43.03421,"stopLon":-70.78486},"113114":{"stopID":"113114","stopName":"Lafayette Rd. (Patriots Park Apts.)","stopLat":43.02768,"stopLon":-70.79097},"113115":{"stopID":"113115","stopName":"Lafayette / Ocean Rds.","stopLat":43.02499,"stopLon":-70.79424},"113116":{"stopID":"113116","stopName":"Lafayette Rd. (Dunkin' Donuts)","stopLat":43.02828,"stopLon":-70.79006},"113117":{"stopID":"113117","stopName":"Lafayette Rd. / White Cedar Blvd.","stopLat":43.03231,"stopLon":-70.78541},"113118":{"stopID":"113118","stopName":"Lafayette Rd. / Springbrook Cir. (Taco Bell)","stopLat":43.0341,"stopLon":-70.78141},"113119":{"stopID":"113119","stopName":"Lafayette Rd. (VIP Auto Parts)","stopLat":43.03659,"stopLon":-70.77762},"113120":{"stopID":"113120","stopName":"West / Lafayette Rds. Inbound","stopLat":43.03767,"stopLon":-70.77772},"113121":{"stopID":"113121","stopName":"West Rd. / Campus Dr. Inbound","stopLat":43.03909,"stopLon":-70.78094},"113122":{"stopID":"113122","stopName":"215 West Rd.","stopLat":43.04175,"stopLon":-70.77835},"113123":{"stopID":"113123","stopName":"Wilson Rd. (Market Basket) Inbound","stopLat":43.04349,"stopLon":-70.77462},"113124":{"stopID":"113124","stopName":"Lafayette Rd. / Ledgewood Dr.","stopLat":43.05697,"stopLon":-70.76964},"113125":{"stopID":"113125","stopName":"Lafayette Rd. (Portsmouth High School) Inbound","stopLat":43.05878,"stopLon":-70.76937},"113126":{"stopID":"113126","stopName":"Lafayette Rd. / South St.","stopLat":43.06152,"stopLon":-70.76865},"113127":{"stopID":"113127","stopName":"Lafayette Rd. / Willard Ave. Inbound","stopLat":43.06307,"stopLon":-70.76791},"113128":{"stopID":"113128","stopName":"Middle St. / Mendum Ave.","stopLat":43.06528,"stopLon":-70.76682},"113129":{"stopID":"113129","stopName":"Middle St. / Aldrich Rd. Inbound","stopLat":43.06753,"stopLon":-70.76674},"113130":{"stopID":"113130","stopName":"Middle / Park Sts.","stopLat":43.0686,"stopLon":-70.7657},"113131":{"stopID":"113131","stopName":"Middle / Wibird Sts.","stopLat":43.06934,"stopLon":-70.76459},"113132":{"stopID":"113132","stopName":"Middle St. / Miller Ave. (Margeson Apts.)","stopLat":43.07165,"stopLon":-70.76211},"113133":{"stopID":"113133","stopName":"Court / Mark Sts.","stopLat":43.07435,"stopLon":-70.75978},"113134":{"stopID":"113134","stopName":"Court St. (Feaster Apts.)","stopLat":43.07475,"stopLon":-70.75867},"113135":{"stopID":"113135","stopName":"Pleasant St. / Junkins Ave.","stopLat":43.07494,"stopLon":-70.75624},"113136":{"stopID":"113136","stopName":"Junkins / Parrott Aves.","stopLat":43.07365,"stopLon":-70.7557},"113137":{"stopID":"113137","stopName":"Junkins Ave. (South Playground)","stopLat":43.07162,"stopLon":-70.75543},"113138":{"stopID":"113138","stopName":"Junkins Ave. (Portsmouth City Hall)","stopLat":43.07104,"stopLon":-70.75387},"113139":{"stopID":"113139","stopName":"Junkins Ave. / Pleasant St.","stopLat":43.07392,"stopLon":-70.75559},"113140":{"stopID":"113140","stopName":"Pleasant / Court Sts.","stopLat":43.07518,"stopLon":-70.75639},"113141":{"stopID":"113141","stopName":"State / Atkinson Sts.","stopLat":43.07698,"stopLon":-70.75462},"113142":{"stopID":"113142","stopName":"Daniel / Chapel Sts.","stopLat":43.07779,"stopLon":-70.75497},"113143":{"stopID":"113143","stopName":"Falkland Place / Kearsarge Way (Atlantic Heights)","stopLat":43.0902,"stopLon":-70.77222},"113144":{"stopID":"113144","stopName":"Kearsarge Way / Mangrove St.","stopLat":43.08653,"stopLon":-70.77525},"113145":{"stopID":"113145","stopName":"Islington / Tanner Sts.","stopLat":43.07544,"stopLon":-70.76168},"113146":{"stopID":"113146","stopName":"Islington / Brewster Sts.","stopLat":43.07428,"stopLon":-70.764},"113147":{"stopID":"113147","stopName":"Islington / Cornwall Sts.","stopLat":43.07368,"stopLon":-70.76525},"113148":{"stopID":"113148","stopName":"Islington / Salem Sts.","stopLat":43.07284,"stopLon":-70.76715},"113149":{"stopID":"113149","stopName":"Islington / Cass Sts. Outbound","stopLat":43.07161,"stopLon":-70.76996},"113150":{"stopID":"113150","stopName":"Bartlett St. / Meredith Way","stopLat":43.07316,"stopLon":-70.77485},"113151":{"stopID":"113151","stopName":"Dennett St. / Woodbury Ave.","stopLat":43.07417,"stopLon":-70.77733},"113152":{"stopID":"113152","stopName":"Woodbury Ave. (Woodbury Manor)","stopLat":43.0724,"stopLon":-70.77583},"113153":{"stopID":"113153","stopName":"Cottage St. (Portsmouth Senior Center) Outbound","stopLat":43.07074,"stopLon":-70.77739},"113154":{"stopID":"113154","stopName":"Borthwick Ave. (Fairfield Inn Marriott) Outbound","stopLat":43.06846,"stopLon":-70.78071},"113155":{"stopID":"113155","stopName":"Borthwick Ave. (Portsmouth Hospital Parking Lot)","stopLat":43.06445,"stopLon":-70.78814},"113156":{"stopID":"113156","stopName":"Borthwick Ave. (Liberty Mutual) Outbound","stopLat":43.06307,"stopLon":-70.79158},"113157":{"stopID":"113157","stopName":"155 Borthwick Ave.","stopLat":43.06149,"stopLon":-70.79353},"113158":{"stopID":"113158","stopName":"Borthwick Ave. (High Liner Foods)","stopLat":43.05961,"stopLon":-70.79603},"113159":{"stopID":"113159","stopName":"Grafton Dr. / Sherburne Rd.","stopLat":43.0668,"stopLon":-70.80715},"113160":{"stopID":"113160","stopName":"Grafton / Corporate Drs. Outbound","stopLat":43.07096,"stopLon":-70.80182},"113161":{"stopID":"113161","stopName":"Corporate Dr. (Great Bay Community College)","stopLat":43.0717,"stopLon":-70.79866},"113162":{"stopID":"113162","stopName":"360 Corporate Dr.","stopLat":43.07292,"stopLon":-70.80175},"113167":{"stopID":"113167","stopName":"Pease Airline Terminal","stopLat":43.08245,"stopLon":-70.81706},"113169":{"stopID":"113169","stopName":"International Dr. (National Passport Center)","stopLat":43.07529,"stopLon":-70.79985},"113170":{"stopID":"113170","stopName":"International Dr. / Pinecrest Terrace","stopLat":43.07707,"stopLon":-70.79932},"113171":{"stopID":"113171","stopName":"15 Rye St.","stopLat":43.08033,"stopLon":-70.80066},"113172":{"stopID":"113172","stopName":"Rye St. (Corporate Center at Pease)","stopLat":43.08179,"stopLon":-70.7981},"113173":{"stopID":"113173","stopName":"112 Corporate Dr.","stopLat":43.08455,"stopLon":-70.79926},"113174":{"stopID":"113174","stopName":"73 Corporate Dr. (Wentworth-Douglass Hospital Outpatient Center)","stopLat":43.08575,"stopLon":-70.80162},"113175":{"stopID":"113175","stopName":"Corporate Dr. / Redhook Way","stopLat":43.08619,"stopLon":-70.80465},"113176":{"stopID":"113176","stopName":"Manchester Square","stopLat":43.08493,"stopLon":-70.80992},"113177":{"stopID":"113177","stopName":"New Hampshire Ave. / Stratham St.","stopLat":43.08225,"stopLon":-70.8095},"113178":{"stopID":"113178","stopName":"New Hampshire Ave. / Newfields St.","stopLat":43.07899,"stopLon":-70.80684},"113180":{"stopID":"113180","stopName":"New Hampshire / Rochester Aves. (National Visa Center)","stopLat":43.07673,"stopLon":-70.805},"113182":{"stopID":"113182","stopName":"195 / 222 New Hampshire Ave.","stopLat":43.07495,"stopLon":-70.80356},"113183":{"stopID":"113183","stopName":"Corporate Dr. / Durham St.","stopLat":43.07331,"stopLon":-70.80225},"113184":{"stopID":"113184","stopName":"Grafton / Corporate Drs. Inbound","stopLat":43.07091,"stopLon":-70.80209},"113185":{"stopID":"113185","stopName":"Grafton Dr. (Port City Air)","stopLat":43.06677,"stopLon":-70.80741},"113186":{"stopID":"113186","stopName":"Borthwick Ave. (Northeast Credit Union)","stopLat":43.05959,"stopLon":-70.79579},"113187":{"stopID":"113187","stopName":"Borthwick / Highliner Aves.","stopLat":43.06108,"stopLon":-70.79375},"113188":{"stopID":"113188","stopName":"Borthwick Ave. (Liberty Mutual) Inbound","stopLat":43.06291,"stopLon":-70.79153},"113189":{"stopID":"113189","stopName":"Borthwick Ave. (Fairfield Inn Marriott) Inbound","stopLat":43.06846,"stopLon":-70.78039},"113190":{"stopID":"113190","stopName":"Cottage St. (Portsmouth Senior Center) Inbound","stopLat":43.07075,"stopLon":-70.77716},"113191":{"stopID":"113191","stopName":"Cottage St. / Woodbury Ave.","stopLat":43.07185,"stopLon":-70.77513},"113192":{"stopID":"113192","stopName":"Islington / Cass Sts. Inbound","stopLat":43.07155,"stopLon":-70.76988},"113193":{"stopID":"113193","stopName":"Islington / Union Sts.","stopLat":43.0726,"stopLon":-70.76743},"113194":{"stopID":"113194","stopName":"Islington St. (Goodwin Park)","stopLat":43.07349,"stopLon":-70.76548},"113195":{"stopID":"113195","stopName":"Islington / Summer Sts.","stopLat":43.07435,"stopLon":-70.76372},"113196":{"stopID":"113196","stopName":"Islington St. (Keefe House)","stopLat":43.07532,"stopLon":-70.76176},"113197":{"stopID":"113197","stopName":"Market Square","stopLat":43.077,"stopLon":-70.75791},"113198":{"stopID":"113198","stopName":"Commerce Way (Marshalls Plaza) Inbound","stopLat":43.08996,"stopLon":-70.78923},"113199":{"stopID":"113199","stopName":"Commerce Way (Marshalls Plaza) Outbound","stopLat":43.09009,"stopLon":-70.78927},"113200":{"stopID":"113200","stopName":"Lafayette Rd. (Cross Roads House)","stopLat":43.05612,"stopLon":-70.77011},"113201":{"stopID":"113201","stopName":"Lafayette Rd. (Walmart)","stopLat":43.03349,"stopLon":-70.78847},"113202":{"stopID":"113202","stopName":"Lafayette Rd. (Hillcrest Estates)","stopLat":43.02275,"stopLon":-70.79524},"113203":{"stopID":"113203","stopName":"Lafayette Rd. (Lafayette Plaza / Lens Doctors)","stopLat":43.05465,"stopLon":-70.76991},"113204":{"stopID":"113204","stopName":"Islington St. (Plaza 800)","stopLat":43.06859,"stopLon":-70.77182},"113206":{"stopID":"113206","stopName":"Portsmouth Transportation Center","stopLat":43.05947,"stopLon":-70.80377},"113219":{"stopID":"113219","stopName":"Wakefield St. / Community Way","stopLat":43.31606,"stopLon":-70.97736},"113220":{"stopID":"113220","stopName":"Wakefield St. (Spaulding High School) Southbound","stopLat":43.3125,"stopLon":-70.97761},"113221":{"stopID":"113221","stopName":"Wakefield / Union Sts.","stopLat":43.30697,"stopLon":-70.97672},"113222":{"stopID":"113222","stopName":"South Main St. (Rochester Public Library)","stopLat":43.30185,"stopLon":-70.97373},"113223":{"stopID":"113223","stopName":"South Main / Lincoln Sts.","stopLat":43.29974,"stopLon":-70.971},"113224":{"stopID":"113224","stopName":"Rochester Hill Rd. (Rochester Professional Park) Southbound","stopLat":43.29352,"stopLon":-70.95552},"113225":{"stopID":"113225","stopName":"Rochester Hill Rd. / Ryan Cir.","stopLat":43.29233,"stopLon":-70.95343},"113226":{"stopID":"113226","stopName":"Rochester Hill Rd. / Nola Ave.","stopLat":43.2908,"stopLon":-70.95049},"113227":{"stopID":"113227","stopName":"Rochester Hill Rd. (Hi-Vu Motor Inn) Southbound","stopLat":43.28576,"stopLon":-70.94112},"113228":{"stopID":"113228","stopName":"Rochester Hill Rd. / Windhaven Dr. (Rochester Hill Professional Bldg.)","stopLat":43.28449,"stopLon":-70.93592},"113229":{"stopID":"113229","stopName":"Rochester Hill Rd. (Homemakers) Southbound","stopLat":43.28281,"stopLon":-70.93292},"113230":{"stopID":"113230","stopName":"Rochester Hill Rd. (Skyhaven Airport) Southbound","stopLat":43.28081,"stopLon":-70.92836},"113231":{"stopID":"113231","stopName":"Rochester Hill Rd. (So'Field Apts.)","stopLat":43.27789,"stopLon":-70.92185},"113232":{"stopID":"113232","stopName":"Rochester Hill Rd. (Profile Apts.) Southbound","stopLat":43.27477,"stopLon":-70.91555},"113233":{"stopID":"113233","stopName":"Rochester Hill Rd. / Quail Dr.","stopLat":43.27337,"stopLon":-70.91339},"113234":{"stopID":"113234","stopName":"Rochester Hill / Haven Hill Rds.","stopLat":43.27278,"stopLon":-70.91241},"113235":{"stopID":"113235","stopName":"Rochester Hill Rd. (Profile Apts.) Northbound","stopLat":43.27486,"stopLon":-70.91551},"113236":{"stopID":"113236","stopName":"Rochester Hill Rd. (Granite State Business Park)","stopLat":43.27808,"stopLon":-70.92187},"113237":{"stopID":"113237","stopName":"Rochester Hill Rd. (Skyhaven Airport) Northbound","stopLat":43.28105,"stopLon":-70.92874},"113238":{"stopID":"113238","stopName":"Rochester Hill Rd. (Homemakers) Northbound","stopLat":43.28273,"stopLon":-70.9325},"113239":{"stopID":"113239","stopName":"Rochester Hill Rd. / Windhaven Dr. Northbound","stopLat":43.28426,"stopLon":-70.93527},"113240":{"stopID":"113240","stopName":"Rochester Hill Rd. (Hi-Vu Motor Inn) Northbound","stopLat":43.2855,"stopLon":-70.94},"113241":{"stopID":"113241","stopName":"Rochester Hill Rd. (Collonade Apts.)","stopLat":43.29072,"stopLon":-70.95016},"113242":{"stopID":"113242","stopName":"Rochester Hill Rd. / Cornerstone Ct.","stopLat":43.29234,"stopLon":-70.9532},"113243":{"stopID":"113243","stopName":"Rochester Hill Rd. (Rochester Professional Park) Northbound","stopLat":43.29359,"stopLon":-70.95545},"113244":{"stopID":"113244","stopName":"South Main / Linden Sts. (AutoZone)","stopLat":43.29988,"stopLon":-70.97091},"113245":{"stopID":"113245","stopName":"South Main St. (Bank of America)","stopLat":43.30251,"stopLon":-70.97418},"113246":{"stopID":"113246","stopName":"Wakefield St. (Rochester City Hall)","stopLat":43.30519,"stopLon":-70.97602},"113247":{"stopID":"113247","stopName":"Wakefield St. (Spaulding High School) Northbound","stopLat":43.31263,"stopLon":-70.97741},"113248":{"stopID":"113248","stopName":"Wakefield St. (Lilac Plaza)","stopLat":43.31558,"stopLon":-70.97734},"113251":{"stopID":"113251","stopName":"Washington St. / Madison Ave. Southbound","stopLat":43.30441,"stopLon":-70.98525},"113252":{"stopID":"113252","stopName":"Washington / Chasse Sts. Southbound","stopLat":43.30149,"stopLon":-70.9881},"113253":{"stopID":"113253","stopName":"Washington / Duquette Sts.","stopLat":43.29886,"stopLon":-70.9907},"113254":{"stopID":"113254","stopName":"Washington / Brock Sts.","stopLat":43.29719,"stopLon":-70.99228},"113255":{"stopID":"113255","stopName":"Washington / Chasse Sts. Northbound","stopLat":43.30128,"stopLon":-70.98813},"113256":{"stopID":"113256","stopName":"Washington St. / Madison Ave. Northbound","stopLat":43.30396,"stopLon":-70.98551},"113257":{"stopID":"113257","stopName":"Farmington Rd. (Lilac City Pediatrics) Southbound","stopLat":43.34338,"stopLon":-71.02056},"113258":{"stopID":"113258","stopName":"Sterling Dr. (Strafford County Dialysis) ON CALL","stopLat":43.33819,"stopLon":-71.01048},"113259":{"stopID":"113259","stopName":"The Ridge Marketplace Southbound","stopLat":43.3327,"stopLon":-71.0092},"113260":{"stopID":"113260","stopName":"Farmington Rd. (Northgate Apts.)","stopLat":43.32653,"stopLon":-71.00329},"113261":{"stopID":"113261","stopName":"Farmington Rd. / Cardinal Dr.","stopLat":43.32277,"stopLon":-70.99955},"113262":{"stopID":"113262","stopName":"North Main St. (Spaulding Commons)","stopLat":43.3132,"stopLon":-70.99452},"113263":{"stopID":"113263","stopName":"North Main St. / Cushing Blvd. (Burger King)","stopLat":43.30897,"stopLon":-70.98993},"113264":{"stopID":"113264","stopName":"North Main St. (Holy Rosary Parish) Southbound","stopLat":43.30601,"stopLon":-70.98534},"113265":{"stopID":"113265","stopName":"North Main / Pine Sts.","stopLat":43.30527,"stopLon":-70.9813},"113267":{"stopID":"113267","stopName":"North Main St. / Cove Ct.","stopLat":43.30539,"stopLon":-70.98137},"113268":{"stopID":"113268","stopName":"North Main St. (Holy Rosary Parish) Northbound","stopLat":43.30614,"stopLon":-70.98529},"113269":{"stopID":"113269","stopName":"North Main St. / Fortier Dr.","stopLat":43.30966,"stopLon":-70.99085},"113270":{"stopID":"113270","stopName":"North Main St. (Pizza Hut / Dunkin' Donuts)","stopLat":43.31327,"stopLon":-70.9943},"113271":{"stopID":"113271","stopName":"Farmington Rd. (Greenwood Inn)","stopLat":43.32257,"stopLon":-70.99914},"113272":{"stopID":"113272","stopName":"Farmington Rd. (Cocheco River Estates)","stopLat":43.32661,"stopLon":-71.00302},"113273":{"stopID":"113273","stopName":"The Ridge Marketplace Northbound","stopLat":43.33254,"stopLon":-71.00889},"113274":{"stopID":"113274","stopName":"Farmington Rd. (Lilac City Pediatrics) Northbound","stopLat":43.34326,"stopLon":-71.02026},"113275":{"stopID":"113275","stopName":"Rochester Park & Ride","stopLat":43.29261,"stopLon":-71.00045},"113276":{"stopID":"113276","stopName":"Lilac Mall","stopLat":43.3191,"stopLon":-70.97341},"113279":{"stopID":"113279","stopName":"Rochester Hill Rd. (Frisbie Memorial Hospital) Southbound","stopLat":43.29687,"stopLon":-70.96149},"113280":{"stopID":"113280","stopName":"Rochester Hill Rd. (Frisbie Memorial Hospital) Northbound","stopLat":43.29708,"stopLon":-70.96159},"113281":{"stopID":"113281","stopName":"Farmington Rd. (Walmart)","stopLat":43.33435,"stopLon":-71.0127},"113283":{"stopID":"113283","stopName":"Main / Norton Sts. Southbound","stopLat":43.23566,"stopLon":-70.81005},"113284":{"stopID":"113284","stopName":"Downtown Park & Ride (Central Elementary School)","stopLat":43.23322,"stopLon":-70.80874},"113285":{"stopID":"113285","stopName":"Main St. (Town Hall Park & Ride)","stopLat":43.23313,"stopLon":-70.80858},"113286":{"stopID":"113286","stopName":"Main / Norton Sts. (Post Office)","stopLat":43.23557,"stopLon":-70.80982},"113287":{"stopID":"113287","stopName":"High St. (Tri-City Plaza #140)","stopLat":43.22693,"stopLon":-70.88171},"113288":{"stopID":"113288","stopName":"High St. (Goodwill)","stopLat":43.231,"stopLon":-70.88214},"113289":{"stopID":"113289","stopName":"High St. (Target) ON CALL","stopLat":43.23467,"stopLon":-70.88448},"113290":{"stopID":"113290","stopName":"High St. (Holy Trinity Church)","stopLat":43.23736,"stopLon":-70.88041},"113291":{"stopID":"113291","stopName":"High St. / Stackpole Rd.","stopLat":43.2401,"stopLon":-70.87851},"113292":{"stopID":"113292","stopName":"High / Laurier Sts.","stopLat":43.24472,"stopLon":-70.87598},"113293":{"stopID":"113293","stopName":"High St. / Indigo Hill Rd. (CVS Pharmacy)","stopLat":43.24834,"stopLon":-70.87344},"113294":{"stopID":"113294","stopName":"High St. (Dollar Tree)","stopLat":43.23123,"stopLon":-70.88239},"113295":{"stopID":"113295","stopName":"High St. / Bartlett Ave. Northbound","stopLat":43.25,"stopLon":-70.87228},"113296":{"stopID":"113296","stopName":"High / Horne Sts. (Cumberland Farms)","stopLat":43.25315,"stopLon":-70.8705},"113297":{"stopID":"113297","stopName":"High / Franklin Sts.","stopLat":43.25549,"stopLon":-70.86898},"113298":{"stopID":"113298","stopName":"High / Washington Sts.","stopLat":43.25953,"stopLon":-70.86671},"113299":{"stopID":"113299","stopName":"High St. / Government Way (City Hall)","stopLat":43.26252,"stopLon":-70.86468},"113300":{"stopID":"113300","stopName":"Market St. (Borderline Beverage)","stopLat":43.26522,"stopLon":-70.86465},"113301":{"stopID":"113301","stopName":"High St. (VFW / City Hall)","stopLat":43.26272,"stopLon":-70.86478},"113311":{"stopID":"113311","stopName":"Franklin / Garden Sts.","stopLat":43.25594,"stopLon":-70.86692},"113313":{"stopID":"113313","stopName":"Franklin / High Sts.","stopLat":43.25518,"stopLon":-70.86875},"113315":{"stopID":"113315","stopName":"High / Horne Sts. Southbound","stopLat":43.25304,"stopLon":-70.87068},"113316":{"stopID":"113316","stopName":"Franklin / Green Sts.","stopLat":43.25719,"stopLon":-70.86388},"113317":{"stopID":"113317","stopName":"Green / Washington Sts.","stopLat":43.2602,"stopLon":-70.86414},"113318":{"stopID":"113318","stopName":"High St. / Bartlett Ave. Southbound","stopLat":43.25,"stopLon":-70.87238},"113319":{"stopID":"113319","stopName":"High St. / Blackwater Rd.","stopLat":43.24834,"stopLon":-70.87356},"113320":{"stopID":"113320","stopName":"High St. (Somersworth Primary Care)","stopLat":43.24463,"stopLon":-70.87616},"113321":{"stopID":"113321","stopName":"High St. / Washburn Ct.","stopLat":43.23999,"stopLon":-70.87871},"113322":{"stopID":"113322","stopName":"High / Bernier Sts.","stopLat":43.23797,"stopLon":-70.88027},"113323":{"stopID":"113323","stopName":"NH 108 (Tire Warehouse)","stopLat":43.26891,"stopLon":-70.90995},"113324":{"stopID":"113324","stopName":"NH 108 / Interstate Dr. (Industrial Park)","stopLat":43.2614,"stopLon":-70.90487},"113325":{"stopID":"113325","stopName":"NH 108 / Pinewood Dr.","stopLat":43.25379,"stopLon":-70.8985},"113326":{"stopID":"113326","stopName":"NH 108 / Hampshire Dr. (Colonial Village)","stopLat":43.24759,"stopLon":-70.90012},"113327":{"stopID":"113327","stopName":"NH 108 (Women's Life Imaging Center)","stopLat":43.2417,"stopLon":-70.89841},"113328":{"stopID":"113328","stopName":"NH 108 (Coastal Neurology)","stopLat":43.23583,"stopLon":-70.89795},"113329":{"stopID":"113329","stopName":"NH 108 (Key Buick)","stopLat":43.23582,"stopLon":-70.8978},"113330":{"stopID":"113330","stopName":"NH 108 / Terrascape Pkwy.","stopLat":43.24281,"stopLon":-70.8984},"113331":{"stopID":"113331","stopName":"NH 108 / Blackwater Rd. (Key Auto)","stopLat":43.24595,"stopLon":-70.89938},"113332":{"stopID":"113332","stopName":"NH 108 (Marsh Brook Professional Center)","stopLat":43.24953,"stopLon":-70.90005},"113333":{"stopID":"113333","stopName":"NH 108 / Clark Way","stopLat":43.25144,"stopLon":-70.89921},"113334":{"stopID":"113334","stopName":"NH 108 (Keystone Dental)","stopLat":43.25444,"stopLon":-70.89845},"113335":{"stopID":"113335","stopName":"NH 108 (Buster's Billiards)","stopLat":43.26241,"stopLon":-70.9051},"113336":{"stopID":"113336","stopName":"NH 108 (Kelley's Row)","stopLat":43.26911,"stopLon":-70.90994},"113337":{"stopID":"113337","stopName":"High / Noble Sts.","stopLat":43.25975,"stopLon":-70.86672},"113338":{"stopID":"113338","stopName":"High St. / Memorial Dr.","stopLat":43.25549,"stopLon":-70.86914},"113339":{"stopID":"113339","stopName":"NH 108 (Barclay Square)","stopLat":43.25789,"stopLon":-70.90235},"113340":{"stopID":"113340","stopName":"NH 108 (Goodwin Community Health)","stopLat":43.25777,"stopLon":-70.90197},"113341":{"stopID":"113341","stopName":"High St. (Walmart)","stopLat":43.23474,"stopLon":-70.8797},"113342":{"stopID":"113342","stopName":"Market / Winter Sts. (Stateline Minimart)","stopLat":43.26517,"stopLon":-70.86479},"146049":{"stopID":"146049","stopName":"Government St. / Old Armory Way","stopLat":43.08545,"stopLon":-70.7469}}