{"200001":{"stopID":"200001","stopName":"GOETHALS RD NORTH/PORT AUTHORITY ADMIN LOT","stopLat":40.62871,"stopLon":-74.18269,"zoneID":"","parentStation":""},"200008":{"stopID":"200008","stopName":"RICHMOND TERR/SOUTH AV","stopLat":40.64011,"stopLon":-74.16576,"zoneID":"","parentStation":""},"200009":{"stopID":"200009","stopName":"RICHMOND TERR/POST LA","stopLat":40.63934,"stopLon":-74.16409,"zoneID":"","parentStation":""},"200010":{"stopID":"200010","stopName":"RICHMOND TERR/ANDROS AV","stopLat":40.63791,"stopLon":-74.16209,"zoneID":"","parentStation":""},"200011":{"stopID":"200011","stopName":"RICHMOND TERR/HARBOR RD","stopLat":40.63699,"stopLon":-74.15993,"zoneID":"","parentStation":""},"200013":{"stopID":"200013","stopName":"RICHMOND TERR/VAN PELT AV","stopLat":40.63675,"stopLon":-74.15489,"zoneID":"","parentStation":""},"200014":{"stopID":"200014","stopName":"RICHMOND TERR/DAVIS AV","stopLat":40.64471,"stopLon":-74.11073,"zoneID":"","parentStation":""},"200016":{"stopID":"200016","stopName":"RICHMOND TERR/HOUSEMAN AV","stopLat":40.6373,"stopLon":-74.14861,"zoneID":"","parentStation":""},"200017":{"stopID":"200017","stopName":"RICHMOND TERR/GRANITE AV","stopLat":40.63757,"stopLon":-74.14675,"zoneID":"","parentStation":""},"200018":{"stopID":"200018","stopName":"RICHMOND TERR/MORNINGSTAR RD","stopLat":40.63786,"stopLon":-74.14493,"zoneID":"","parentStation":""},"200019":{"stopID":"200019","stopName":"RICHMOND TERR/JOHN ST","stopLat":40.63903,"stopLon":-74.14229,"zoneID":"","parentStation":""},"200020":{"stopID":"200020","stopName":"RICHMOND TERR/NICHOLAS AV","stopLat":40.63962,"stopLon":-74.13939,"zoneID":"","parentStation":""},"200021":{"stopID":"200021","stopName":"RICHMOND TERR/SHARPE AV","stopLat":40.64013,"stopLon":-74.13679,"zoneID":"","parentStation":""},"200022":{"stopID":"200022","stopName":"RICHMOND TERR/FABER ST","stopLat":40.64023,"stopLon":-74.13475,"zoneID":"","parentStation":""},"200023":{"stopID":"200023","stopName":"RICHMOND TERR/MAPLE AV","stopLat":40.64027,"stopLon":-74.1333,"zoneID":"","parentStation":""},"200025":{"stopID":"200025","stopName":"RICHMOND TERR/HEBERTON AV","stopLat":40.63898,"stopLon":-74.12944,"zoneID":"","parentStation":""},"200026":{"stopID":"200026","stopName":"RICHMOND TERR/JEWETT AV","stopLat":40.63765,"stopLon":-74.12885,"zoneID":"","parentStation":""},"200027":{"stopID":"200027","stopName":"RICHMOND TERR/RECTOR ST","stopLat":40.63719,"stopLon":-74.12739,"zoneID":"","parentStation":""},"200028":{"stopID":"200028","stopName":"RICHMOND TERR/BODINE ST","stopLat":40.63714,"stopLon":-74.12585,"zoneID":"","parentStation":""},"200029":{"stopID":"200029","stopName":"RICHMOND TERR/TAYLOR ST","stopLat":40.63775,"stopLon":-74.12363,"zoneID":"","parentStation":""},"200030":{"stopID":"200030","stopName":"RICHMOND TERR/ALASKA ST","stopLat":40.63898,"stopLon":-74.12185,"zoneID":"","parentStation":""},"200031":{"stopID":"200031","stopName":"RICHMOND TERR/TOMPKINS CT","stopLat":40.64015,"stopLon":-74.1207,"zoneID":"","parentStation":""},"200032":{"stopID":"200032","stopName":"RICHMOND TERR/BROADWAY","stopLat":40.6408,"stopLon":-74.11726,"zoneID":"","parentStation":""},"200033":{"stopID":"200033","stopName":"RICHMOND TERR/NORTH BURGHER AV","stopLat":40.64178,"stopLon":-74.1155,"zoneID":"","parentStation":""},"200034":{"stopID":"200034","stopName":"RICHMOND TERR/BEMENT AV","stopLat":40.64272,"stopLon":-74.11396,"zoneID":"","parentStation":""},"200035":{"stopID":"200035","stopName":"RICHMOND TERR/DAVIS AV","stopLat":40.64447,"stopLon":-74.11095,"zoneID":"","parentStation":""},"200036":{"stopID":"200036","stopName":"RICHMOND TERR/BARD AV","stopLat":40.645,"stopLon":-74.10887,"zoneID":"","parentStation":""},"200037":{"stopID":"200037","stopName":"RICHMOND TERR/SAILORS SNUG HARBOR GATE","stopLat":40.64503,"stopLon":-74.10193,"zoneID":"","parentStation":""},"200038":{"stopID":"200038","stopName":"RICHMOND TERR/CLINTON AV","stopLat":40.6446,"stopLon":-74.09813,"zoneID":"","parentStation":""},"200040":{"stopID":"200040","stopName":"RICHMOND TERR/FRANKLIN AV","stopLat":40.64539,"stopLon":-74.09295,"zoneID":"","parentStation":""},"200041":{"stopID":"200041","stopName":"RICHMOND TERR/JERSEY ST","stopLat":40.64685,"stopLon":-74.08854,"zoneID":"","parentStation":""},"200042":{"stopID":"200042","stopName":"RICHMOND TERR/WESTERVELT AV","stopLat":40.64776,"stopLon":-74.08697,"zoneID":"","parentStation":""},"200043":{"stopID":"200043","stopName":"RICHMOND TERR/ST PETERS PL","stopLat":40.64807,"stopLon":-74.08422,"zoneID":"","parentStation":""},"200044":{"stopID":"200044","stopName":"RICHMOND TERR/NICHOLAS ST","stopLat":40.64729,"stopLon":-74.08112,"zoneID":"","parentStation":""},"200045":{"stopID":"200045","stopName":"RICHMOND TERR/STUYVESANT PL","stopLat":40.64603,"stopLon":-74.07839,"zoneID":"","parentStation":""},"200046":{"stopID":"200046","stopName":"RICHMOND TERR/WALL ST","stopLat":40.64403,"stopLon":-74.07668,"zoneID":"","parentStation":""},"200047":{"stopID":"200047","stopName":"RICHMOND TERR/SCHUYLER ST","stopLat":40.64291,"stopLon":-74.07574,"zoneID":"","parentStation":""},"200050":{"stopID":"200050","stopName":"RICHMOND TERR/WALL ST","stopLat":40.64479,"stopLon":-74.07695,"zoneID":"","parentStation":""},"200051":{"stopID":"200051","stopName":"RICHMOND TERR/STUYVESANT PL","stopLat":40.64635,"stopLon":-74.07844,"zoneID":"","parentStation":""},"200052":{"stopID":"200052","stopName":"RICHMOND TERR/NICHOLAS ST","stopLat":40.64744,"stopLon":-74.08075,"zoneID":"","parentStation":""},"200053":{"stopID":"200053","stopName":"RICHMOND TERR/SAINT PETERS PL","stopLat":40.64836,"stopLon":-74.08459,"zoneID":"","parentStation":""},"200054":{"stopID":"200054","stopName":"RICHMOND TERR/WESTERVELT AV","stopLat":40.64742,"stopLon":-74.08787,"zoneID":"","parentStation":""},"200055":{"stopID":"200055","stopName":"RICHMOND TERR/JERSEY ST","stopLat":40.64659,"stopLon":-74.08921,"zoneID":"","parentStation":""},"200056":{"stopID":"200056","stopName":"RICHMOND TERR/FRANKLIN AV","stopLat":40.64559,"stopLon":-74.09276,"zoneID":"","parentStation":""},"200057":{"stopID":"200057","stopName":"RICHMOND TERR/LAFAYETTE AV","stopLat":40.64482,"stopLon":-74.09644,"zoneID":"","parentStation":""},"200063":{"stopID":"200063","stopName":"RICHMOND TERR/NORTH BURGHER AV","stopLat":40.64145,"stopLon":-74.11626,"zoneID":"","parentStation":""},"200064":{"stopID":"200064","stopName":"RICHMOND TERR/BROADWAY","stopLat":40.64064,"stopLon":-74.11795,"zoneID":"","parentStation":""},"200065":{"stopID":"200065","stopName":"RICHMOND TERR/TOMPKINS CT","stopLat":40.64056,"stopLon":-74.12059,"zoneID":"","parentStation":""},"200066":{"stopID":"200066","stopName":"RICHMOND TERR/ALASKA ST","stopLat":40.6385,"stopLon":-74.12264,"zoneID":"","parentStation":""},"200069":{"stopID":"200069","stopName":"RICHMOND TERR/CLOVE RD","stopLat":40.63726,"stopLon":-74.12671,"zoneID":"","parentStation":""},"200070":{"stopID":"200070","stopName":"RICHMOND TERR/JEWETT AV","stopLat":40.63831,"stopLon":-74.12894,"zoneID":"","parentStation":""},"200072":{"stopID":"200072","stopName":"RICHMOND TERR/PARK AV","stopLat":40.64032,"stopLon":-74.13077,"zoneID":"","parentStation":""},"200073":{"stopID":"200073","stopName":"RICHMOND TERR/NORTH ST","stopLat":40.64032,"stopLon":-74.13488,"zoneID":"","parentStation":""},"200074":{"stopID":"200074","stopName":"RICHMOND TERR/SHARPE AV","stopLat":40.64032,"stopLon":-74.13655,"zoneID":"","parentStation":""},"200075":{"stopID":"200075","stopName":"RICHMOND TERR/NICHOLAS AV","stopLat":40.63982,"stopLon":-74.13959,"zoneID":"","parentStation":""},"200076":{"stopID":"200076","stopName":"RICHMOND TERR/JOHN ST","stopLat":40.63905,"stopLon":-74.14259,"zoneID":"","parentStation":""},"200077":{"stopID":"200077","stopName":"RICHMOND TERR/MORNINGSTAR RD","stopLat":40.63794,"stopLon":-74.14512,"zoneID":"","parentStation":""},"200078":{"stopID":"200078","stopName":"RICHMOND TERR/GRANITE AV","stopLat":40.63763,"stopLon":-74.14697,"zoneID":"","parentStation":""},"200079":{"stopID":"200079","stopName":"RICHMOND TERR/HOUSEMAN AV","stopLat":40.63741,"stopLon":-74.14848,"zoneID":"","parentStation":""},"200080":{"stopID":"200080","stopName":"RICHMOND TERR/SIMONSON AV","stopLat":40.63704,"stopLon":-74.15111,"zoneID":"","parentStation":""},"200082":{"stopID":"200082","stopName":"RICHMOND TERR/VAN PELT AV","stopLat":40.63684,"stopLon":-74.15467,"zoneID":"","parentStation":""},"200083":{"stopID":"200083","stopName":"RICHMOND TERR/UNION AV","stopLat":40.63686,"stopLon":-74.15772,"zoneID":"","parentStation":""},"200084":{"stopID":"200084","stopName":"RICHMOND TERR/HARBOR RD","stopLat":40.63715,"stopLon":-74.16006,"zoneID":"","parentStation":""},"200085":{"stopID":"200085","stopName":"RICHMOND TERR/ANDROS AV","stopLat":40.63827,"stopLon":-74.16253,"zoneID":"","parentStation":""},"200097":{"stopID":"200097","stopName":"MIDLAND AV/KISWICK ST","stopLat":40.57405,"stopLon":-74.09649,"zoneID":"","parentStation":""},"200099":{"stopID":"200099","stopName":"MIDLAND AV/OLYMPIA BLVD","stopLat":40.5725,"stopLon":-74.09359,"zoneID":"","parentStation":""},"200102":{"stopID":"200102","stopName":"FATHER CAPODANNO BLVD/HUNTER AV","stopLat":40.57288,"stopLon":-74.0878,"zoneID":"","parentStation":""},"200104":{"stopID":"200104","stopName":"FATHER CAPODANNO BLVD/SIOUX ST","stopLat":40.57517,"stopLon":-74.08382,"zoneID":"","parentStation":""},"200105":{"stopID":"200105","stopName":"FATHER CAPODANNO BLVD/SLATER BLVD","stopLat":40.57622,"stopLon":-74.08205,"zoneID":"","parentStation":""},"200110":{"stopID":"200110","stopName":"FATHER CAPODANNO BLVD/ALTER AV","stopLat":40.58231,"stopLon":-74.07437,"zoneID":"","parentStation":""},"200111":{"stopID":"200111","stopName":"FATHER CAPODANNO BLVD/DELAWARE  AV","stopLat":40.58432,"stopLon":-74.07228,"zoneID":"","parentStation":""},"200113":{"stopID":"200113","stopName":"FATHER CAPODANNO BLVD/BURGHER AV","stopLat":40.58802,"stopLon":-74.06884,"zoneID":"","parentStation":""},"200115":{"stopID":"200115","stopName":"FATHER CAPODANNO BLVD/SAND LN","stopLat":40.5904,"stopLon":-74.0664,"zoneID":"","parentStation":""},"200119":{"stopID":"200119","stopName":"OLYMPIA BLVD/BIONIA AV","stopLat":40.59246,"stopLon":-74.07262,"zoneID":"","parentStation":""},"200120":{"stopID":"200120","stopName":"OLYMPIA BLVD/KENSINGTON ST","stopLat":40.59137,"stopLon":-74.07458,"zoneID":"","parentStation":""},"200121":{"stopID":"200121","stopName":"OLYMPIA BLVD/NORWAY AV","stopLat":40.5906,"stopLon":-74.07661,"zoneID":"","parentStation":""},"200122":{"stopID":"200122","stopName":"NORWAY AV/FOCH AV","stopLat":40.59229,"stopLon":-74.07773,"zoneID":"","parentStation":""},"200123":{"stopID":"200123","stopName":"NORWAY AV/McCLEAN AV","stopLat":40.59373,"stopLon":-74.07867,"zoneID":"","parentStation":""},"200124":{"stopID":"200124","stopName":"McCLEAN AV/LAMPORT BLVD","stopLat":40.59434,"stopLon":-74.07749,"zoneID":"","parentStation":""},"200125":{"stopID":"200125","stopName":"McCLEAN AV/KENSINGTON AV","stopLat":40.59488,"stopLon":-74.07588,"zoneID":"","parentStation":""},"200126":{"stopID":"200126","stopName":"McCLEAN AV/BIONIA AV","stopLat":40.59543,"stopLon":-74.07419,"zoneID":"","parentStation":""},"200127":{"stopID":"200127","stopName":"McCLEAN AV/LINWOOD AV","stopLat":40.59592,"stopLon":-74.07272,"zoneID":"","parentStation":""},"200128":{"stopID":"200128","stopName":"McCLEAN AV/SAND LN","stopLat":40.59679,"stopLon":-74.0701,"zoneID":"","parentStation":""},"200129":{"stopID":"200129","stopName":"McCLEAN AV/MILLS AV","stopLat":40.59721,"stopLon":-74.06875,"zoneID":"","parentStation":""},"200131":{"stopID":"200131","stopName":"McCLEAN AV/OCEAN AV","stopLat":40.59853,"stopLon":-74.06481,"zoneID":"","parentStation":""},"200132":{"stopID":"200132","stopName":"LILY POND AV/McCLEAN AV","stopLat":40.59919,"stopLon":-74.06376,"zoneID":"","parentStation":""},"200135":{"stopID":"200135","stopName":"SCHOOL RD/TOMPKINS AV","stopLat":40.6051,"stopLon":-74.06505,"zoneID":"","parentStation":""},"200136":{"stopID":"200136","stopName":"SCHOOL RD/DENNIS TORRICELLI ST","stopLat":40.60601,"stopLon":-74.06317,"zoneID":"","parentStation":""},"200137":{"stopID":"200137","stopName":"BAY ST/SEA GATE RD","stopLat":40.6077,"stopLon":-74.06125,"zoneID":"","parentStation":""},"200139":{"stopID":"200139","stopName":"BAY ST/NEW LN","stopLat":40.61151,"stopLon":-74.06413,"zoneID":"","parentStation":""},"200140":{"stopID":"200140","stopName":"BAY ST/HYLAN BLVD","stopLat":40.614,"stopLon":-74.0659,"zoneID":"","parentStation":""},"200142":{"stopID":"200142","stopName":"BAY ST/LYNHURST AV","stopLat":40.61844,"stopLon":-74.06924,"zoneID":"","parentStation":""},"200144":{"stopID":"200144","stopName":"BAY ST/TOWNSEND AV","stopLat":40.62141,"stopLon":-74.07161,"zoneID":"","parentStation":""},"200145":{"stopID":"200145","stopName":"BAY ST/VANDERBILT AV","stopLat":40.62286,"stopLon":-74.07275,"zoneID":"","parentStation":""},"200146":{"stopID":"200146","stopName":"BAY ST/THOMPSON ST","stopLat":40.62591,"stopLon":-74.07506,"zoneID":"","parentStation":""},"200147":{"stopID":"200147","stopName":"BAY ST/WATER ST","stopLat":40.62708,"stopLon":-74.07582,"zoneID":"","parentStation":""},"200148":{"stopID":"200148","stopName":"BAY ST/PROSPECT ST","stopLat":40.62848,"stopLon":-74.07638,"zoneID":"","parentStation":""},"200149":{"stopID":"200149","stopName":"BAY ST/WAVE ST","stopLat":40.62979,"stopLon":-74.07662,"zoneID":"","parentStation":""},"200151":{"stopID":"200151","stopName":"BAY ST/GRANT ST","stopLat":40.63328,"stopLon":-74.07514,"zoneID":"","parentStation":""},"200152":{"stopID":"200152","stopName":"BAY ST/HANNAH ST","stopLat":40.63581,"stopLon":-74.07573,"zoneID":"","parentStation":""},"200153":{"stopID":"200153","stopName":"BAY ST/VICTORY BLVD","stopLat":40.63752,"stopLon":-74.07596,"zoneID":"","parentStation":""},"200154":{"stopID":"200154","stopName":"BAY ST/SLOSSON TERR","stopLat":40.63951,"stopLon":-74.07548,"zoneID":"","parentStation":""},"200157":{"stopID":"200157","stopName":"MIDLAND AV/RICHMOND RD","stopLat":40.58194,"stopLon":-74.11004,"zoneID":"","parentStation":""},"200159":{"stopID":"200159","stopName":"MIDLAND AV/CLAWSON ST","stopLat":40.57877,"stopLon":-74.10399,"zoneID":"","parentStation":""},"200160":{"stopID":"200160","stopName":"MIDLAND AV/EDISON ST","stopLat":40.57955,"stopLon":-74.10558,"zoneID":"","parentStation":""},"200161":{"stopID":"200161","stopName":"MIDLAND AV/HYLAN BLVD","stopLat":40.5777,"stopLon":-74.10198,"zoneID":"","parentStation":""},"200163":{"stopID":"200163","stopName":"FATHER CAPODANNO BLVD/DOTY AV","stopLat":40.59234,"stopLon":-74.06393,"zoneID":"","parentStation":""},"200165":{"stopID":"200165","stopName":"FATHER CAPODANNO BLVD/OCEAN AV","stopLat":40.59504,"stopLon":-74.06273,"zoneID":"","parentStation":""},"200166":{"stopID":"200166","stopName":"FATHER CAPODANNO BLVD/SEASIDE PLAZA","stopLat":40.59603,"stopLon":-74.06192,"zoneID":"","parentStation":""},"200170":{"stopID":"200170","stopName":"LILY POND AV/McCLEAN AV","stopLat":40.59859,"stopLon":-74.06367,"zoneID":"","parentStation":""},"200171":{"stopID":"200171","stopName":"FATHER CAPODANNO BLVD/ROBIN RD","stopLat":40.59572,"stopLon":-74.06267,"zoneID":"","parentStation":""},"200173":{"stopID":"200173","stopName":"FATHER CAPODANNO BLVD/DOTY AV","stopLat":40.5925,"stopLon":-74.06415,"zoneID":"","parentStation":""},"200176":{"stopID":"200176","stopName":"BAY ST/NICK LAPORTE PL","stopLat":40.64185,"stopLon":-74.07557,"zoneID":"","parentStation":""},"200177":{"stopID":"200177","stopName":"BAY ST/CENTRAL AV","stopLat":40.63876,"stopLon":-74.07581,"zoneID":"","parentStation":""},"200178":{"stopID":"200178","stopName":"BAY ST/VICTORY BLVD","stopLat":40.6373,"stopLon":-74.07618,"zoneID":"","parentStation":""},"200180":{"stopID":"200180","stopName":"BAY ST/GRANT ST","stopLat":40.6329,"stopLon":-74.07559,"zoneID":"","parentStation":""},"200181":{"stopID":"200181","stopName":"BAY ST/WILLIAM ST","stopLat":40.63064,"stopLon":-74.0767,"zoneID":"","parentStation":""},"200183":{"stopID":"200183","stopName":"BAY ST/PROSPECT ST","stopLat":40.62862,"stopLon":-74.07655,"zoneID":"","parentStation":""},"200184":{"stopID":"200184","stopName":"BAY ST/WATER ST","stopLat":40.62676,"stopLon":-74.07579,"zoneID":"","parentStation":""},"200185":{"stopID":"200185","stopName":"BAY ST/BROAD ST","stopLat":40.62575,"stopLon":-74.07518,"zoneID":"","parentStation":""},"200187":{"stopID":"200187","stopName":"BAY ST/VANDERBILT AV","stopLat":40.62217,"stopLon":-74.07241,"zoneID":"","parentStation":""},"200188":{"stopID":"200188","stopName":"BAY ST/TOWNSEND AV","stopLat":40.6212,"stopLon":-74.07164,"zoneID":"","parentStation":""},"200189":{"stopID":"200189","stopName":"BAY ST/EDGEWATER ST","stopLat":40.62015,"stopLon":-74.07085,"zoneID":"","parentStation":""},"200190":{"stopID":"200190","stopName":"BAY ST/WILLOW AV","stopLat":40.61872,"stopLon":-74.06964,"zoneID":"","parentStation":""},"200191":{"stopID":"200191","stopName":"BAY ST/CHESTNUT AV","stopLat":40.61725,"stopLon":-74.06857,"zoneID":"","parentStation":""},"200192":{"stopID":"200192","stopName":"BAY ST/SAINT MARYS AV","stopLat":40.61602,"stopLon":-74.06766,"zoneID":"","parentStation":""},"200193":{"stopID":"200193","stopName":"BAY ST/HYLAN BLVD","stopLat":40.61379,"stopLon":-74.06601,"zoneID":"","parentStation":""},"200194":{"stopID":"200194","stopName":"BAY ST/SAINT JOHNS AV","stopLat":40.61192,"stopLon":-74.06463,"zoneID":"","parentStation":""},"200195":{"stopID":"200195","stopName":"BAY ST/FINGERBOARD RD","stopLat":40.60907,"stopLon":-74.06253,"zoneID":"","parentStation":""},"200196":{"stopID":"200196","stopName":"BAY ST/LYMAN AV","stopLat":40.60747,"stopLon":-74.06135,"zoneID":"","parentStation":""},"200197":{"stopID":"200197","stopName":"SCHOOL RD/DENNIS TORRICELLI ST","stopLat":40.60584,"stopLon":-74.06396,"zoneID":"","parentStation":""},"200200":{"stopID":"200200","stopName":"LILY POND AV/MAJOR AV","stopLat":40.60027,"stopLon":-74.06479,"zoneID":"","parentStation":""},"200201":{"stopID":"200201","stopName":"McCLEAN AV/LILY POND AV","stopLat":40.59884,"stopLon":-74.06422,"zoneID":"","parentStation":""},"200202":{"stopID":"200202","stopName":"CLOVE RD/CLOVE LAKE PARK","stopLat":40.61928,"stopLon":-74.10651,"zoneID":"","parentStation":""},"200203":{"stopID":"200203","stopName":"McCLEAN AV/MILLS AV","stopLat":40.59725,"stopLon":-74.06903,"zoneID":"","parentStation":""},"200204":{"stopID":"200204","stopName":"SAND LN/McCLEAN AV","stopLat":40.59681,"stopLon":-74.07057,"zoneID":"","parentStation":""},"200206":{"stopID":"200206","stopName":"McCLEAN AV/HICKORY AV","stopLat":40.59558,"stopLon":-74.07413,"zoneID":"","parentStation":""},"200207":{"stopID":"200207","stopName":"McCLEAN AV/JEROME AV","stopLat":40.59504,"stopLon":-74.07578,"zoneID":"","parentStation":""},"200210":{"stopID":"200210","stopName":"NORWAY AV/OLYMPIA BLVD","stopLat":40.59083,"stopLon":-74.07697,"zoneID":"","parentStation":""},"200211":{"stopID":"200211","stopName":"OLYMPIA BLVD/MCLAUGHLIN ST","stopLat":40.59157,"stopLon":-74.07391,"zoneID":"","parentStation":""},"200219":{"stopID":"200219","stopName":"FATHER CAPODANNO BLVD/WINFIELD ST","stopLat":40.58633,"stopLon":-74.07061,"zoneID":"","parentStation":""},"200220":{"stopID":"200220","stopName":"FATHER CAPODANNO BLVD/DELAWARE AV","stopLat":40.58348,"stopLon":-74.07353,"zoneID":"","parentStation":""},"200223":{"stopID":"200223","stopName":"FATHER CAPODANNO BLVD/SEAVIEW AV","stopLat":40.57903,"stopLon":-74.07817,"zoneID":"","parentStation":""},"200224":{"stopID":"200224","stopName":"FATHER CAPODANNO BLVD/BUEL AV","stopLat":40.57792,"stopLon":-74.07948,"zoneID":"","parentStation":""},"200225":{"stopID":"200225","stopName":"FATHER CAPODANNO BLVD/NAUGHTON AV","stopLat":40.57693,"stopLon":-74.08117,"zoneID":"","parentStation":""},"200226":{"stopID":"200226","stopName":"FATHER CAPODANNO BLVD/SLATER BLVD","stopLat":40.57604,"stopLon":-74.08275,"zoneID":"","parentStation":""},"200228":{"stopID":"200228","stopName":"FATHER CAPODANNO BLVD/JEFFERSON AV","stopLat":40.57399,"stopLon":-74.08625,"zoneID":"","parentStation":""},"200233":{"stopID":"200233","stopName":"MIDLAND AV/FREEBORN ST","stopLat":40.57296,"stopLon":-74.09419,"zoneID":"","parentStation":""},"200234":{"stopID":"200234","stopName":"MIDLAND AV/MORELAND ST","stopLat":40.57469,"stopLon":-74.09729,"zoneID":"","parentStation":""},"200235":{"stopID":"200235","stopName":"MIDLAND AV/MASON AV","stopLat":40.57548,"stopLon":-74.0986,"zoneID":"","parentStation":""},"200236":{"stopID":"200236","stopName":"MIDLAND AV/BOUNDARY AV","stopLat":40.57717,"stopLon":-74.10097,"zoneID":"","parentStation":""},"200237":{"stopID":"200237","stopName":"HYLAN BLVD/MIDLAND AV","stopLat":40.5777,"stopLon":-74.10261,"zoneID":"","parentStation":""},"200238":{"stopID":"200238","stopName":"LINCOLN AV/GRANT PL","stopLat":40.5771,"stopLon":-74.10474,"zoneID":"","parentStation":""},"200240":{"stopID":"200240","stopName":"LINCOLN AV/SOUTH RAILROAD AV","stopLat":40.57953,"stopLon":-74.10886,"zoneID":"","parentStation":""},"200242":{"stopID":"200242","stopName":"LINCOLN AV/RICHMOND RD","stopLat":40.58125,"stopLon":-74.11199,"zoneID":"","parentStation":""},"200244":{"stopID":"200244","stopName":"GRANDVIEW AV/BRABANT ST","stopLat":40.63201,"stopLon":-74.16517,"zoneID":"","parentStation":""},"200245":{"stopID":"200245","stopName":"BRABANT ST/LOCKMAN AV","stopLat":40.63156,"stopLon":-74.16132,"zoneID":"","parentStation":""},"200246":{"stopID":"200246","stopName":"BRABANT ST/UNION AV","stopLat":40.63133,"stopLon":-74.15833,"zoneID":"","parentStation":""},"200247":{"stopID":"200247","stopName":"WALLOON ST/MAPLE PKWY","stopLat":40.63241,"stopLon":-74.1566,"zoneID":"","parentStation":""},"200248":{"stopID":"200248","stopName":"DE RUYTER PL/VAN PELT AV","stopLat":40.63121,"stopLon":-74.15549,"zoneID":"","parentStation":""},"200249":{"stopID":"200249","stopName":"WALKER ST/VAN NAME AV","stopLat":40.63186,"stopLon":-74.15383,"zoneID":"","parentStation":""},"200250":{"stopID":"200250","stopName":"WALKER ST/SIMONSON AV","stopLat":40.63169,"stopLon":-74.1518,"zoneID":"","parentStation":""},"200251":{"stopID":"200251","stopName":"WALKER ST/MORNINGSTAR RD","stopLat":40.63109,"stopLon":-74.14714,"zoneID":"","parentStation":""},"200252":{"stopID":"200252","stopName":"MORNINGSTAR RD/KALVER PL","stopLat":40.6326,"stopLon":-74.14629,"zoneID":"","parentStation":""},"200255":{"stopID":"200255","stopName":"INNIS ST/NICHOLAS AV","stopLat":40.63342,"stopLon":-74.14175,"zoneID":"","parentStation":""},"200256":{"stopID":"200256","stopName":"NICHOLAS AV/CHARLES AV","stopLat":40.63498,"stopLon":-74.14065,"zoneID":"","parentStation":""},"200257":{"stopID":"200257","stopName":"NICHOLAS AV/CASTLETON AV","stopLat":40.63607,"stopLon":-74.14019,"zoneID":"","parentStation":""},"200259":{"stopID":"200259","stopName":"CASTLETON AV/HEBERTON AV","stopLat":40.63499,"stopLon":-74.13282,"zoneID":"","parentStation":""},"200260":{"stopID":"200260","stopName":"CASTLETON AV/PORT RICHMOND AV","stopLat":40.63594,"stopLon":-74.13506,"zoneID":"","parentStation":""},"200261":{"stopID":"200261","stopName":"CASTLETON AV/JEWETT AV","stopLat":40.63364,"stopLon":-74.12965,"zoneID":"","parentStation":""},"200263":{"stopID":"200263","stopName":"CASTLETON AV/TAYLOR ST","stopLat":40.63405,"stopLon":-74.12273,"zoneID":"","parentStation":""},"200264":{"stopID":"200264","stopName":"CASTLETON AV/ELIZABETH ST","stopLat":40.63423,"stopLon":-74.12027,"zoneID":"","parentStation":""},"200265":{"stopID":"200265","stopName":"CASTLETON AV/CAROLINE ST","stopLat":40.63433,"stopLon":-74.11899,"zoneID":"","parentStation":""},"200266":{"stopID":"200266","stopName":"CASTLETON AV/BROADWAY","stopLat":40.6345,"stopLon":-74.11732,"zoneID":"","parentStation":""},"200267":{"stopID":"200267","stopName":"CASTLETON AV/NORTH BURGHER AV","stopLat":40.63471,"stopLon":-74.11463,"zoneID":"","parentStation":""},"200268":{"stopID":"200268","stopName":"CASTLETON AV/BEMENT AV","stopLat":40.6347,"stopLon":-74.11243,"zoneID":"","parentStation":""},"200269":{"stopID":"200269","stopName":"CASTLETON AV/OAKLAND AV","stopLat":40.63468,"stopLon":-74.11083,"zoneID":"","parentStation":""},"200270":{"stopID":"200270","stopName":"CASTLETON AV/DAVIS AV","stopLat":40.63465,"stopLon":-74.10853,"zoneID":"","parentStation":""},"200271":{"stopID":"200271","stopName":"CASTLETON AV/BARD AV","stopLat":40.63464,"stopLon":-74.10616,"zoneID":"","parentStation":""},"200272":{"stopID":"200272","stopName":"CASTLETON AV/KISSEL AV","stopLat":40.63464,"stopLon":-74.1047,"zoneID":"","parentStation":""},"200273":{"stopID":"200273","stopName":"CASTLETON AV/HUNTER PL","stopLat":40.63446,"stopLon":-74.10179,"zoneID":"","parentStation":""},"200274":{"stopID":"200274","stopName":"CASTLETON AV/RANDALL AV","stopLat":40.63398,"stopLon":-74.09906,"zoneID":"","parentStation":""},"200275":{"stopID":"200275","stopName":"CASTLETON AV/BRIGHTON AV","stopLat":40.63395,"stopLon":-74.09774,"zoneID":"","parentStation":""},"200276":{"stopID":"200276","stopName":"CASTLETON AV/HAVENWOOD RD","stopLat":40.63311,"stopLon":-74.09577,"zoneID":"","parentStation":""},"200278":{"stopID":"200278","stopName":"CASTLETON AV/WOODSTOCK AV","stopLat":40.63269,"stopLon":-74.09014,"zoneID":"","parentStation":""},"200279":{"stopID":"200279","stopName":"CASTLETON AV/WEBSTER AV","stopLat":40.63426,"stopLon":-74.08765,"zoneID":"","parentStation":""},"200280":{"stopID":"200280","stopName":"CASTLETON AV/CEBRA AV","stopLat":40.63471,"stopLon":-74.08646,"zoneID":"","parentStation":""},"200281":{"stopID":"200281","stopName":"CASTLETON AV/JERSEY ST","stopLat":40.6361,"stopLon":-74.08522,"zoneID":"","parentStation":""},"200284":{"stopID":"200284","stopName":"VICTORY BLVD/VAN DUZER ST","stopLat":40.63819,"stopLon":-74.07834,"zoneID":"","parentStation":""},"200285":{"stopID":"200285","stopName":"BAY ST/VICTORY BLVD","stopLat":40.63788,"stopLon":-74.07591,"zoneID":"","parentStation":""},"200292":{"stopID":"200292","stopName":"VICTORY BLVD/BAY ST","stopLat":40.63783,"stopLon":-74.07675,"zoneID":"","parentStation":""},"200293":{"stopID":"200293","stopName":"VICTORY BLVD/MONTGOMERY AV","stopLat":40.63808,"stopLon":-74.07768,"zoneID":"","parentStation":""},"200297":{"stopID":"200297","stopName":"CASTLETON AV/CEBRA AV","stopLat":40.63464,"stopLon":-74.08667,"zoneID":"","parentStation":""},"200298":{"stopID":"200298","stopName":"CASTLETON AV/GLEN AV","stopLat":40.63309,"stopLon":-74.08999,"zoneID":"","parentStation":""},"200299":{"stopID":"200299","stopName":"CASTLETON AV/HARBOR VIEW CT","stopLat":40.63338,"stopLon":-74.09218,"zoneID":"","parentStation":""},"200300":{"stopID":"200300","stopName":"CASTLETON AV/HAVENWOOD RD","stopLat":40.63321,"stopLon":-74.09539,"zoneID":"","parentStation":""},"200301":{"stopID":"200301","stopName":"CASTLETON AV/BRIGHTON AV","stopLat":40.63399,"stopLon":-74.09767,"zoneID":"","parentStation":""},"200302":{"stopID":"200302","stopName":"CASTLETON AV/N RANDALL AV","stopLat":40.63423,"stopLon":-74.09976,"zoneID":"","parentStation":""},"200303":{"stopID":"200303","stopName":"CASTLETON AV/CONYINGHAM AV","stopLat":40.63464,"stopLon":-74.10207,"zoneID":"","parentStation":""},"200304":{"stopID":"200304","stopName":"CASTLETON AV/KISSEL AV","stopLat":40.63476,"stopLon":-74.10502,"zoneID":"","parentStation":""},"200306":{"stopID":"200306","stopName":"CASTLETON AV/BARD AV","stopLat":40.63478,"stopLon":-74.10628,"zoneID":"","parentStation":""},"200307":{"stopID":"200307","stopName":"CASTLETON AV/DAVIS AV","stopLat":40.63477,"stopLon":-74.10856,"zoneID":"","parentStation":""},"200308":{"stopID":"200308","stopName":"CASTLETON AV/BEMENT AV","stopLat":40.63479,"stopLon":-74.11184,"zoneID":"","parentStation":""},"200309":{"stopID":"200309","stopName":"CASTLETON AV/NORTH BURGHER AV","stopLat":40.63481,"stopLon":-74.11441,"zoneID":"","parentStation":""},"200310":{"stopID":"200310","stopName":"CASTLETON AV/BROADWAY","stopLat":40.63458,"stopLon":-74.11775,"zoneID":"","parentStation":""},"200311":{"stopID":"200311","stopName":"CASTLETON AV/CAROLINE ST","stopLat":40.63449,"stopLon":-74.11927,"zoneID":"","parentStation":""},"200312":{"stopID":"200312","stopName":"CASTLETON AV/BARKER ST","stopLat":40.63424,"stopLon":-74.12161,"zoneID":"","parentStation":""},"200313":{"stopID":"200313","stopName":"CASTLETON AV/TAYLOR ST","stopLat":40.6341,"stopLon":-74.12345,"zoneID":"","parentStation":""},"200314":{"stopID":"200314","stopName":"CASTLETON AV/CLOVE RD","stopLat":40.63392,"stopLon":-74.12584,"zoneID":"","parentStation":""},"200315":{"stopID":"200315","stopName":"CASTLETON AV/JEWETT AV","stopLat":40.63385,"stopLon":-74.12976,"zoneID":"","parentStation":""},"200316":{"stopID":"200316","stopName":"CASTLETON AV/HEBERTON AV","stopLat":40.63501,"stopLon":-74.13241,"zoneID":"","parentStation":""},"200317":{"stopID":"200317","stopName":"CASTLETON AV/PORT RICHMOND AV","stopLat":40.6361,"stopLon":-74.13483,"zoneID":"","parentStation":""},"200318":{"stopID":"200318","stopName":"CASTLETON AV/SHARPE AV","stopLat":40.63616,"stopLon":-74.1377,"zoneID":"","parentStation":""},"200319":{"stopID":"200319","stopName":"CASTLETON AV/NICHOLAS AV","stopLat":40.63624,"stopLon":-74.13995,"zoneID":"","parentStation":""},"200320":{"stopID":"200320","stopName":"NICHOLAS AV/CHARLES AV","stopLat":40.6353,"stopLon":-74.1407,"zoneID":"","parentStation":""},"200322":{"stopID":"200322","stopName":"INNIS ST/SAINT JOSEPH AV","stopLat":40.63378,"stopLon":-74.14254,"zoneID":"","parentStation":""},"200323":{"stopID":"200323","stopName":"INNIS ST/EATON PL","stopLat":40.6345,"stopLon":-74.14464,"zoneID":"","parentStation":""},"200327":{"stopID":"200327","stopName":"WALKER ST/PULASKI AV","stopLat":40.63147,"stopLon":-74.1482,"zoneID":"","parentStation":""},"200329":{"stopID":"200329","stopName":"WALKER ST/SIMONSON AV","stopLat":40.63193,"stopLon":-74.15259,"zoneID":"","parentStation":""},"200330":{"stopID":"200330","stopName":"WALKER ST/VAN PELT AV","stopLat":40.63211,"stopLon":-74.15502,"zoneID":"","parentStation":""},"200331":{"stopID":"200331","stopName":"LINDEN AV/VAN PELT AV","stopLat":40.63387,"stopLon":-74.15555,"zoneID":"","parentStation":""},"200332":{"stopID":"200332","stopName":"MAPLE PKWY/WALLOON ST","stopLat":40.63272,"stopLon":-74.15661,"zoneID":"","parentStation":""},"200333":{"stopID":"200333","stopName":"UNION AV/BRABANT ST","stopLat":40.63165,"stopLon":-74.1583,"zoneID":"","parentStation":""},"200334":{"stopID":"200334","stopName":"BRABANT ST/LOCKMAN AV","stopLat":40.63174,"stopLon":-74.16211,"zoneID":"","parentStation":""},"200335":{"stopID":"200335","stopName":"BRABANT ST/GRANDVIEW AV","stopLat":40.6322,"stopLon":-74.16508,"zoneID":"","parentStation":""},"200340":{"stopID":"200340","stopName":"RICHMOND RD/ENFIELD PL","stopLat":40.5762,"stopLon":-74.12606,"zoneID":"","parentStation":""},"200341":{"stopID":"200341","stopName":"RICHMOND RD/McCULLY AV","stopLat":40.57468,"stopLon":-74.12957,"zoneID":"","parentStation":""},"200342":{"stopID":"200342","stopName":"RICHMOND RD/HITCHCOCK AV","stopLat":40.57408,"stopLon":-74.13131,"zoneID":"","parentStation":""},"200343":{"stopID":"200343","stopName":"RICHMOND RD/WILDER AV","stopLat":40.57324,"stopLon":-74.135,"zoneID":"","parentStation":""},"200350":{"stopID":"200350","stopName":"ARTHUR KILL RD/CENTER ST","stopLat":40.57182,"stopLon":-74.14722,"zoneID":"","parentStation":""},"200357":{"stopID":"200357","stopName":"GIFFORDS LN/BARLOW AV","stopLat":40.55907,"stopLon":-74.15391,"zoneID":"","parentStation":""},"200358":{"stopID":"200358","stopName":"GIFFORDS LN/LEVERETT AV","stopLat":40.55704,"stopLon":-74.15295,"zoneID":"","parentStation":""},"200359":{"stopID":"200359","stopName":"GIFFORDS LN/WOODLAND AV","stopLat":40.55529,"stopLon":-74.15223,"zoneID":"","parentStation":""},"200361":{"stopID":"200361","stopName":"NELSON AV/AMBOY RD","stopLat":40.55004,"stopLon":-74.15099,"zoneID":"","parentStation":""},"200362":{"stopID":"200362","stopName":"NELSON AV/BELDEN ST","stopLat":40.5472,"stopLon":-74.14992,"zoneID":"","parentStation":""},"200363":{"stopID":"200363","stopName":"NELSON AV/HILLCREST ST","stopLat":40.54492,"stopLon":-74.1486,"zoneID":"","parentStation":""},"200364":{"stopID":"200364","stopName":"NELSON AV/DRIGGS ST","stopLat":40.54352,"stopLon":-74.14768,"zoneID":"","parentStation":""},"200367":{"stopID":"200367","stopName":"HYLAN BLVD/OSBORNE AV","stopLat":40.53963,"stopLon":-74.1484,"zoneID":"","parentStation":""},"200368":{"stopID":"200368","stopName":"HYLAN BLVD/ARMSTRONG AV","stopLat":40.5375,"stopLon":-74.15036,"zoneID":"","parentStation":""},"200371":{"stopID":"200371","stopName":"RICHMOND AV/HYLAN BLVD","stopLat":40.53454,"stopLon":-74.15436,"zoneID":"","parentStation":""},"200372":{"stopID":"200372","stopName":"RICHMOND AV/KING ST","stopLat":40.53558,"stopLon":-74.15618,"zoneID":"","parentStation":""},"200374":{"stopID":"200374","stopName":"RICHMOND AV/SYCAMORE ST","stopLat":40.5402,"stopLon":-74.16119,"zoneID":"","parentStation":""},"200375":{"stopID":"200375","stopName":"RICHMOND AV/OAKDALE ST","stopLat":40.54183,"stopLon":-74.16272,"zoneID":"","parentStation":""},"200377":{"stopID":"200377","stopName":"RICHMOND AV/ELTINGVILLE BLVD","stopLat":40.54419,"stopLon":-74.16504,"zoneID":"","parentStation":""},"200378":{"stopID":"200378","stopName":"RICHMOND AV/WILSON AV","stopLat":40.54574,"stopLon":-74.16573,"zoneID":"","parentStation":""},"200379":{"stopID":"200379","stopName":"RICHMOND AV/BARTLETT AV","stopLat":40.54758,"stopLon":-74.16645,"zoneID":"","parentStation":""},"200380":{"stopID":"200380","stopName":"RICHMOND AV/MEMPHIS AV","stopLat":40.54951,"stopLon":-74.16723,"zoneID":"","parentStation":""},"200381":{"stopID":"200381","stopName":"RICHMOND AV/KATAN AV","stopLat":40.55087,"stopLon":-74.16754,"zoneID":"","parentStation":""},"200382":{"stopID":"200382","stopName":"RICHMOND AV/GENESEE AV","stopLat":40.5528,"stopLon":-74.16796,"zoneID":"","parentStation":""},"200383":{"stopID":"200383","stopName":"RICHMOND AV/LEVERETT AV","stopLat":40.55525,"stopLon":-74.16851,"zoneID":"","parentStation":""},"200384":{"stopID":"200384","stopName":"RICHMOND AV/BARLOW AV","stopLat":40.55731,"stopLon":-74.16897,"zoneID":"","parentStation":""},"200385":{"stopID":"200385","stopName":"RICHMOND AV/GURLEY AV","stopLat":40.55902,"stopLon":-74.16937,"zoneID":"","parentStation":""},"200386":{"stopID":"200386","stopName":"ELTINGVILLE/TRANSIT CENTER","stopLat":40.56099,"stopLon":-74.17139,"zoneID":"","parentStation":""},"200387":{"stopID":"200387","stopName":"YUKON AV/WATCHMANS OFFICE","stopLat":40.57489,"stopLon":-74.16515,"zoneID":"","parentStation":""},"200388":{"stopID":"200388","stopName":"YUKON AV/TARGET DRIVEWAY","stopLat":40.57563,"stopLon":-74.16674,"zoneID":"","parentStation":""},"200389":{"stopID":"200389","stopName":"YUKON AV/RICHMOND AV","stopLat":40.57698,"stopLon":-74.16941,"zoneID":"","parentStation":""},"200391":{"stopID":"200391","stopName":"STATEN ISLAND MALL AT RING RD/MACYS","stopLat":40.58507,"stopLon":-74.16662,"zoneID":"","parentStation":""},"200392":{"stopID":"200392","stopName":"RICHMOND AV/RICHMOND HILL RD","stopLat":40.58922,"stopLon":-74.16712,"zoneID":"","parentStation":""},"200393":{"stopID":"200393","stopName":"RICHMOND AV/NOME AV","stopLat":40.59084,"stopLon":-74.1653,"zoneID":"","parentStation":""},"200394":{"stopID":"200394","stopName":"RICHMOND AV/DRAPER PL SOUTH","stopLat":40.59254,"stopLon":-74.16297,"zoneID":"","parentStation":""},"200395":{"stopID":"200395","stopName":"RICHMOND AV/ROCKLAND AV","stopLat":40.59564,"stopLon":-74.16178,"zoneID":"","parentStation":""},"200399":{"stopID":"200399","stopName":"RICHMOND AV/ETON PL","stopLat":40.60446,"stopLon":-74.16223,"zoneID":"","parentStation":""},"200400":{"stopID":"200400","stopName":"RICHMOND AV/VICTORY BLVD","stopLat":40.60753,"stopLon":-74.16235,"zoneID":"","parentStation":""},"200401":{"stopID":"200401","stopName":"RICHMOND AV/MORANI ST","stopLat":40.61008,"stopLon":-74.16017,"zoneID":"","parentStation":""},"200403":{"stopID":"200403","stopName":"RICHMOND AV/WEST CASWELL AV","stopLat":40.61662,"stopLon":-74.1566,"zoneID":"","parentStation":""},"200406":{"stopID":"200406","stopName":"RICHMOND AV/VEDDER AV","stopLat":40.62262,"stopLon":-74.14961,"zoneID":"","parentStation":""},"200407":{"stopID":"200407","stopName":"FOREST AV/RICHMOND AV","stopLat":40.62497,"stopLon":-74.14842,"zoneID":"","parentStation":""},"200408":{"stopID":"200408","stopName":"FOREST AV/WILLOW RD EAST","stopLat":40.62491,"stopLon":-74.14524,"zoneID":"","parentStation":""},"200409":{"stopID":"200409","stopName":"PORT RICHMOND AV/SMITH PL","stopLat":40.62646,"stopLon":-74.14247,"zoneID":"","parentStation":""},"200410":{"stopID":"200410","stopName":"PORT RICHMOND AV/ORANGE AV","stopLat":40.62837,"stopLon":-74.14183,"zoneID":"","parentStation":""},"200411":{"stopID":"200411","stopName":"PORT RICHMOND AV/BEEKMAN ST","stopLat":40.62936,"stopLon":-74.1408,"zoneID":"","parentStation":""},"200412":{"stopID":"200412","stopName":"PORT RICHMOND AV/CATHERINE ST","stopLat":40.63042,"stopLon":-74.13954,"zoneID":"","parentStation":""},"200413":{"stopID":"200413","stopName":"PORT RICHMOND AV/HOMESTEAD AV","stopLat":40.63165,"stopLon":-74.13815,"zoneID":"","parentStation":""},"200414":{"stopID":"200414","stopName":"PORT RICHMOND AV/HATFIELD PL","stopLat":40.63288,"stopLon":-74.13685,"zoneID":"","parentStation":""},"200416":{"stopID":"200416","stopName":"PORT RICHMOND AV/HARRISON AV","stopLat":40.63659,"stopLon":-74.13422,"zoneID":"","parentStation":""},"200417":{"stopID":"200417","stopName":"PORT RICHMOND AV/BENNETT ST","stopLat":40.63838,"stopLon":-74.1329,"zoneID":"","parentStation":""},"200426":{"stopID":"200426","stopName":"PORT RICHMOND AV/ANN ST","stopLat":40.63874,"stopLon":-74.13296,"zoneID":"","parentStation":""},"200427":{"stopID":"200427","stopName":"PORT RICHMOND AV/HARRISON AV","stopLat":40.63646,"stopLon":-74.13466,"zoneID":"","parentStation":""},"200428":{"stopID":"200428","stopName":"PORT RICHMOND AV/CHARLES AV","stopLat":40.63473,"stopLon":-74.13575,"zoneID":"","parentStation":""},"200430":{"stopID":"200430","stopName":"PORT RICHMOND AV/BLACKFORD AV","stopLat":40.63153,"stopLon":-74.13863,"zoneID":"","parentStation":""},"200432":{"stopID":"200432","stopName":"PORT RICHMOND AV/ORANGE AV","stopLat":40.62864,"stopLon":-74.14187,"zoneID":"","parentStation":""},"200434":{"stopID":"200434","stopName":"FOREST AV/RICHMOND AV","stopLat":40.62522,"stopLon":-74.14899,"zoneID":"","parentStation":""},"200437":{"stopID":"200437","stopName":"RICHMOND AV/VEDDER AV","stopLat":40.62222,"stopLon":-74.15033,"zoneID":"","parentStation":""},"200438":{"stopID":"200438","stopName":"RICHMOND AV/BARON HIRSCH CEMETERY","stopLat":40.62013,"stopLon":-74.15333,"zoneID":"","parentStation":""},"200439":{"stopID":"200439","stopName":"RICHMOND AV/JULES DR","stopLat":40.61829,"stopLon":-74.1556,"zoneID":"","parentStation":""},"200440":{"stopID":"200440","stopName":"RICHMOND AV/GOETHALS RD NORTH","stopLat":40.61645,"stopLon":-74.15679,"zoneID":"","parentStation":""},"200441":{"stopID":"200441","stopName":"RICHMOND AV/LAMBERTS LN","stopLat":40.61481,"stopLon":-74.15758,"zoneID":"","parentStation":""},"200442":{"stopID":"200442","stopName":"RICHMOND AV/LANDER AV","stopLat":40.61279,"stopLon":-74.15904,"zoneID":"","parentStation":""},"200443":{"stopID":"200443","stopName":"RICHMOND AV/MERRILL AV","stopLat":40.60994,"stopLon":-74.16042,"zoneID":"","parentStation":""},"200444":{"stopID":"200444","stopName":"RICHMOND AV/VICTORY BLVD","stopLat":40.60703,"stopLon":-74.16254,"zoneID":"","parentStation":""},"200446":{"stopID":"200446","stopName":"RICHMOND AV/CARNEGIE AV","stopLat":40.60412,"stopLon":-74.1628,"zoneID":"","parentStation":""},"200447":{"stopID":"200447","stopName":"RICHMOND AV/SIGNS RD","stopLat":40.60138,"stopLon":-74.16336,"zoneID":"","parentStation":""},"200450":{"stopID":"200450","stopName":"RICHMOND AV/TRAVIS AV","stopLat":40.59313,"stopLon":-74.16284,"zoneID":"","parentStation":""},"200451":{"stopID":"200451","stopName":"RICHMOND AV/TRAVIS AV","stopLat":40.59314,"stopLon":-74.16286,"zoneID":"","parentStation":""},"200452":{"stopID":"200452","stopName":"RICHMOND AV/NOME AV","stopLat":40.59058,"stopLon":-74.16621,"zoneID":"","parentStation":""},"200453":{"stopID":"200453","stopName":"RICHMOND AV/RICHMOND HILL RD","stopLat":40.58862,"stopLon":-74.16806,"zoneID":"","parentStation":""},"200454":{"stopID":"200454","stopName":"STATEN ISLAND MALL AT RING RD/MACYS","stopLat":40.58458,"stopLon":-74.16698,"zoneID":"","parentStation":""},"200455":{"stopID":"200455","stopName":"STATEN ISLAND MALL AT RING RD/PLATINUM AV","stopLat":40.58002,"stopLon":-74.16853,"zoneID":"","parentStation":""},"200456":{"stopID":"200456","stopName":"YUKON AV/RICHMOND AV","stopLat":40.57662,"stopLon":-74.16904,"zoneID":"","parentStation":""},"200457":{"stopID":"200457","stopName":"YUKON AV/TARGET DRIVEWAY","stopLat":40.57565,"stopLon":-74.16715,"zoneID":"","parentStation":""},"200459":{"stopID":"200459","stopName":"RICHMOND AV/FOREST HILL RD","stopLat":40.57043,"stopLon":-74.17003,"zoneID":"","parentStation":""},"200460":{"stopID":"200460","stopName":"ELTINGVILLE/TRANSIT CENTER","stopLat":40.56065,"stopLon":-74.17127,"zoneID":"","parentStation":""},"200461":{"stopID":"200461","stopName":"RICHMOND AV/DRUMGOOLE RD EAST","stopLat":40.559,"stopLon":-74.16957,"zoneID":"","parentStation":""},"200462":{"stopID":"200462","stopName":"RICHMOND AV/BARLOW AV","stopLat":40.55668,"stopLon":-74.1691,"zoneID":"","parentStation":""},"200463":{"stopID":"200463","stopName":"RICHMOND AV/LEVERETT AV","stopLat":40.55491,"stopLon":-74.16865,"zoneID":"","parentStation":""},"200466":{"stopID":"200466","stopName":"RICHMOND AV/KATAN AV","stopLat":40.55024,"stopLon":-74.1676,"zoneID":"","parentStation":""},"200467":{"stopID":"200467","stopName":"RICHMOND AV/MEMPHIS AV","stopLat":40.54886,"stopLon":-74.16738,"zoneID":"","parentStation":""},"200468":{"stopID":"200468","stopName":"RICHMOND AV/SERRELL AV","stopLat":40.54753,"stopLon":-74.16668,"zoneID":"","parentStation":""},"200469":{"stopID":"200469","stopName":"RICHMOND AV/WILSON AV","stopLat":40.54509,"stopLon":-74.16575,"zoneID":"","parentStation":""},"200470":{"stopID":"200470","stopName":"RICHMOND AV/ELTINGVILLE BLVD","stopLat":40.54407,"stopLon":-74.1652,"zoneID":"","parentStation":""},"200471":{"stopID":"200471","stopName":"RICHMOND AV/AMBOY RD","stopLat":40.54295,"stopLon":-74.164,"zoneID":"","parentStation":""},"200472":{"stopID":"200472","stopName":"RICHMOND AV/OAKDALE ST","stopLat":40.5412,"stopLon":-74.16236,"zoneID":"","parentStation":""},"200473":{"stopID":"200473","stopName":"RICHMOND AV/SYCAMORE ST","stopLat":40.5396,"stopLon":-74.16087,"zoneID":"","parentStation":""},"200474":{"stopID":"200474","stopName":"RICHMOND AV/KOCH BLVD","stopLat":40.53803,"stopLon":-74.15939,"zoneID":"","parentStation":""},"200475":{"stopID":"200475","stopName":"RICHMOND AV/SHIRLEY AV","stopLat":40.53696,"stopLon":-74.15839,"zoneID":"","parentStation":""},"200476":{"stopID":"200476","stopName":"RICHMOND AV/KING ST","stopLat":40.53511,"stopLon":-74.15566,"zoneID":"","parentStation":""},"200479":{"stopID":"200479","stopName":"HYLAN BLVD/WINCHESTER AV","stopLat":40.5356,"stopLon":-74.15228,"zoneID":"","parentStation":""},"200480":{"stopID":"200480","stopName":"HYLAN BLVD/LITTLEFIELD AV","stopLat":40.53652,"stopLon":-74.15121,"zoneID":"","parentStation":""},"200484":{"stopID":"200484","stopName":"NELSON AV/HYLAN BLVD","stopLat":40.54268,"stopLon":-74.14608,"zoneID":"","parentStation":""},"200486":{"stopID":"200486","stopName":"NELSON AV/MONTICELLO TERR","stopLat":40.54506,"stopLon":-74.14854,"zoneID":"","parentStation":""},"200487":{"stopID":"200487","stopName":"NELSON AV/BELDEN ST","stopLat":40.54741,"stopLon":-74.14982,"zoneID":"","parentStation":""},"200488":{"stopID":"200488","stopName":"NELSON AV/AMBOY RD","stopLat":40.54987,"stopLon":-74.15067,"zoneID":"","parentStation":""},"200490":{"stopID":"200490","stopName":"GIFFORDS LN/KATAN AV","stopLat":40.55355,"stopLon":-74.15119,"zoneID":"","parentStation":""},"200491":{"stopID":"200491","stopName":"GIFFORDS LN/GIBSON AV","stopLat":40.55568,"stopLon":-74.15222,"zoneID":"","parentStation":""},"200492":{"stopID":"200492","stopName":"GIFFORDS LN/LEVERETT AV","stopLat":40.55712,"stopLon":-74.15285,"zoneID":"","parentStation":""},"200496":{"stopID":"200496","stopName":"ARTHUR KILL RD/GIFFORDS LN","stopLat":40.56397,"stopLon":-74.15557,"zoneID":"","parentStation":""},"200507":{"stopID":"200507","stopName":"RICHMOND RD/WILDER AV","stopLat":40.57319,"stopLon":-74.13428,"zoneID":"","parentStation":""},"200508":{"stopID":"200508","stopName":"RICHMOND RD/ALTOONA AV","stopLat":40.57367,"stopLon":-74.13199,"zoneID":"","parentStation":""},"200509":{"stopID":"200509","stopName":"RICHMOND RD/BISHOP ST","stopLat":40.57476,"stopLon":-74.12869,"zoneID":"","parentStation":""},"200524":{"stopID":"200524","stopName":"JEWETT AV/POST AV","stopLat":40.63111,"stopLon":-74.13059,"zoneID":"","parentStation":""},"200525":{"stopID":"200525","stopName":"JEWETT AV/KRAMER PL","stopLat":40.62915,"stopLon":-74.13048,"zoneID":"","parentStation":""},"200526":{"stopID":"200526","stopName":"JEWETT AV/FOREST AV","stopLat":40.62646,"stopLon":-74.13133,"zoneID":"","parentStation":""},"200527":{"stopID":"200527","stopName":"JEWETT AV/EGBERT AV","stopLat":40.62461,"stopLon":-74.13196,"zoneID":"","parentStation":""},"200528":{"stopID":"200528","stopName":"JEWETT AV/BURNSIDE AV","stopLat":40.62286,"stopLon":-74.13219,"zoneID":"","parentStation":""},"200529":{"stopID":"200529","stopName":"JEWETT AV/COLLEGE AV","stopLat":40.62071,"stopLon":-74.13181,"zoneID":"","parentStation":""},"200530":{"stopID":"200530","stopName":"JEWETT AV/THE BOULEVARD","stopLat":40.61821,"stopLon":-74.13142,"zoneID":"","parentStation":""},"200531":{"stopID":"200531","stopName":"JEWETT AV/WATERS AV","stopLat":40.61659,"stopLon":-74.13126,"zoneID":"","parentStation":""},"200532":{"stopID":"200532","stopName":"JEWETT AV/MARKHAM PL","stopLat":40.61554,"stopLon":-74.13117,"zoneID":"","parentStation":""},"200533":{"stopID":"200533","stopName":"JEWETT AV/WATCHOGUE RD","stopLat":40.61297,"stopLon":-74.13087,"zoneID":"","parentStation":""},"200534":{"stopID":"200534","stopName":"VICTORY BLVD/PERRY AV","stopLat":40.61247,"stopLon":-74.12983,"zoneID":"","parentStation":""},"200535":{"stopID":"200535","stopName":"VICTORY BLVD/MOUNTAINVIEW AV","stopLat":40.61274,"stopLon":-74.12654,"zoneID":"","parentStation":""},"200536":{"stopID":"200536","stopName":"VICTORY BLVD/LESTER ST","stopLat":40.6129,"stopLon":-74.12449,"zoneID":"","parentStation":""},"200537":{"stopID":"200537","stopName":"VICTORY BLVD/MANOR RD","stopLat":40.61304,"stopLon":-74.12223,"zoneID":"","parentStation":""},"200538":{"stopID":"200538","stopName":"VICTORY BLVD/TODT HILL RD","stopLat":40.61331,"stopLon":-74.1189,"zoneID":"","parentStation":""},"200539":{"stopID":"200539","stopName":"VICTORY BLVD/SLOSSON AV","stopLat":40.61348,"stopLon":-74.11638,"zoneID":"","parentStation":""},"200540":{"stopID":"200540","stopName":"VICTORY BLVD/LITTLE CLOVE RD","stopLat":40.61373,"stopLon":-74.11294,"zoneID":"","parentStation":""},"200541":{"stopID":"200541","stopName":"VICTORY BLVD/ALBERT ST","stopLat":40.61412,"stopLon":-74.11103,"zoneID":"","parentStation":""},"200542":{"stopID":"200542","stopName":"VICTORY BLVD/RENWICK AV","stopLat":40.61486,"stopLon":-74.10756,"zoneID":"","parentStation":""},"200543":{"stopID":"200543","stopName":"VICTORY BLVD/SENECA AV","stopLat":40.61585,"stopLon":-74.10466,"zoneID":"","parentStation":""},"200544":{"stopID":"200544","stopName":"VICTORY BLVD/CLOVE RD","stopLat":40.61661,"stopLon":-74.103,"zoneID":"","parentStation":""},"200545":{"stopID":"200545","stopName":"VICTORY BLVD/GRAND AV","stopLat":40.61767,"stopLon":-74.10153,"zoneID":"","parentStation":""},"200546":{"stopID":"200546","stopName":"VICTORY BLVD/HIGHLAND AV","stopLat":40.61982,"stopLon":-74.09937,"zoneID":"","parentStation":""},"200548":{"stopID":"200548","stopName":"VICTORY BLVD/THERESA PL","stopLat":40.62448,"stopLon":-74.09357,"zoneID":"","parentStation":""},"200549":{"stopID":"200549","stopName":"VICTORY BLVD/EDDY ST","stopLat":40.62676,"stopLon":-74.09134,"zoneID":"","parentStation":""},"200550":{"stopID":"200550","stopName":"VICTORY BLVD/FOREST AV","stopLat":40.63028,"stopLon":-74.08882,"zoneID":"","parentStation":""},"200551":{"stopID":"200551","stopName":"VICTORY BLVD/AUSTIN PL","stopLat":40.63248,"stopLon":-74.08681,"zoneID":"","parentStation":""},"200552":{"stopID":"200552","stopName":"VICTORY BLVD/CEBRA AV","stopLat":40.63421,"stopLon":-74.08544,"zoneID":"","parentStation":""},"200553":{"stopID":"200553","stopName":"VICTORY BLVD/JERSEY ST","stopLat":40.63562,"stopLon":-74.08386,"zoneID":"","parentStation":""},"200570":{"stopID":"200570","stopName":"VICTORY BLVD/JERSEY ST","stopLat":40.63582,"stopLon":-74.08368,"zoneID":"","parentStation":""},"200571":{"stopID":"200571","stopName":"VICTORY BLVD/CEBRA AV","stopLat":40.63386,"stopLon":-74.086,"zoneID":"","parentStation":""},"200572":{"stopID":"200572","stopName":"VICTORY BLVD/WOODSTOCK AV","stopLat":40.63179,"stopLon":-74.08763,"zoneID":"","parentStation":""},"200573":{"stopID":"200573","stopName":"VICTORY BLVD/FOREST AV","stopLat":40.62986,"stopLon":-74.08943,"zoneID":"","parentStation":""},"200574":{"stopID":"200574","stopName":"VICTORY BLVD/EDDY ST","stopLat":40.62629,"stopLon":-74.09185,"zoneID":"","parentStation":""},"200575":{"stopID":"200575","stopName":"VICTORY BLVD/THERESA PL","stopLat":40.62404,"stopLon":-74.09441,"zoneID":"","parentStation":""},"200576":{"stopID":"200576","stopName":"VICTORY BLVD/SILVER LAKE GOLF COURSE","stopLat":40.62257,"stopLon":-74.09633,"zoneID":"","parentStation":""},"200579":{"stopID":"200579","stopName":"VICTORY BLVD/MELROSE AV","stopLat":40.6178,"stopLon":-74.10165,"zoneID":"","parentStation":""},"200580":{"stopID":"200580","stopName":"VICTORY BLVD/CLOVE RD","stopLat":40.61608,"stopLon":-74.10455,"zoneID":"","parentStation":""},"200582":{"stopID":"200582","stopName":"VICTORY BLVD/ALBERT ST","stopLat":40.61419,"stopLon":-74.11137,"zoneID":"","parentStation":""},"200583":{"stopID":"200583","stopName":"VICTORY BLVD/LITTLE CLOVE RD","stopLat":40.61382,"stopLon":-74.11364,"zoneID":"","parentStation":""},"200584":{"stopID":"200584","stopName":"VICTORY BLVD/SLOSSON AV","stopLat":40.61355,"stopLon":-74.11733,"zoneID":"","parentStation":""},"200585":{"stopID":"200585","stopName":"VICTORY BLVD/BEECHWOOD PL","stopLat":40.61328,"stopLon":-74.1203,"zoneID":"","parentStation":""},"200586":{"stopID":"200586","stopName":"VICTORY BLVD/MANOR RD","stopLat":40.61311,"stopLon":-74.12301,"zoneID":"","parentStation":""},"200590":{"stopID":"200590","stopName":"JEWETT AV/KIMBALL AV","stopLat":40.61493,"stopLon":-74.13088,"zoneID":"","parentStation":""},"200591":{"stopID":"200591","stopName":"JEWETT AV/GOODWIN AV","stopLat":40.61641,"stopLon":-74.13105,"zoneID":"","parentStation":""},"200592":{"stopID":"200592","stopName":"JEWETT AV/KEIBER CT","stopLat":40.61857,"stopLon":-74.13134,"zoneID":"","parentStation":""},"200593":{"stopID":"200593","stopName":"JEWETT AV/COLLEGE AV","stopLat":40.62134,"stopLon":-74.1318,"zoneID":"","parentStation":""},"200594":{"stopID":"200594","stopName":"JEWETT AV/BURNSIDE AV","stopLat":40.62256,"stopLon":-74.132,"zoneID":"","parentStation":""},"200595":{"stopID":"200595","stopName":"JEWETT AV/EGBERT AV","stopLat":40.62443,"stopLon":-74.13187,"zoneID":"","parentStation":""},"200596":{"stopID":"200596","stopName":"JEWETT AV/FOREST AV","stopLat":40.6262,"stopLon":-74.13122,"zoneID":"","parentStation":""},"200597":{"stopID":"200597","stopName":"JEWETT AV/HOLBERNT CT","stopLat":40.62945,"stopLon":-74.13015,"zoneID":"","parentStation":""},"200598":{"stopID":"200598","stopName":"JEWETT AV/POST AV","stopLat":40.63077,"stopLon":-74.13037,"zoneID":"","parentStation":""},"200612":{"stopID":"200612","stopName":"CLOVE RD/SCHOHARIE ST","stopLat":40.61431,"stopLon":-74.10189,"zoneID":"","parentStation":""},"200614":{"stopID":"200614","stopName":"HOWARD AV/CLOVE RD","stopLat":40.61246,"stopLon":-74.09896,"zoneID":"","parentStation":""},"200616":{"stopID":"200616","stopName":"HOWARD AV/WAGNER COLLEGE PLAZA","stopLat":40.61613,"stopLon":-74.09511,"zoneID":"","parentStation":""},"200618":{"stopID":"200618","stopName":"HOWARD AV/SIGNAL HILL RD","stopLat":40.61856,"stopLon":-74.09114,"zoneID":"","parentStation":""},"200619":{"stopID":"200619","stopName":"ARLO RD/HOWARD AV","stopLat":40.61957,"stopLon":-74.09044,"zoneID":"","parentStation":""},"200620":{"stopID":"200620","stopName":"ARLO RD/GRYMES HILL APARTMENTS","stopLat":40.61998,"stopLon":-74.09266,"zoneID":"","parentStation":""},"200621":{"stopID":"200621","stopName":"ARLO RD/STRATFORD RD","stopLat":40.61976,"stopLon":-74.09447,"zoneID":"","parentStation":""},"200622":{"stopID":"200622","stopName":"HOWARD AV/SETH CT","stopLat":40.61818,"stopLon":-74.0941,"zoneID":"","parentStation":""},"200623":{"stopID":"200623","stopName":"HOWARD AV/WAGNER STADIUM DRIVEWAY","stopLat":40.6163,"stopLon":-74.09501,"zoneID":"","parentStation":""},"200624":{"stopID":"200624","stopName":"HOWARD AV/CAMPUS RD","stopLat":40.61567,"stopLon":-74.09653,"zoneID":"","parentStation":""},"200626":{"stopID":"200626","stopName":"CLOVE RD/FOOTE AV","stopLat":40.61342,"stopLon":-74.10035,"zoneID":"","parentStation":""},"200627":{"stopID":"200627","stopName":"CLOVE RD/VAN CORTLANDT AV","stopLat":40.61486,"stopLon":-74.10219,"zoneID":"","parentStation":""},"200646":{"stopID":"200646","stopName":"CLOVE RD/BEMENT AV","stopLat":40.62048,"stopLon":-74.10979,"zoneID":"","parentStation":""},"200652":{"stopID":"200652","stopName":"CLOVE RD/MILFORD DR","stopLat":40.61038,"stopLon":-74.09761,"zoneID":"","parentStation":""},"200660":{"stopID":"200660","stopName":"HYLAN BLVD/NORWAY AV","stopLat":40.5985,"stopLon":-74.08127,"zoneID":"","parentStation":""},"200661":{"stopID":"200661","stopName":"HYLAN BLVD/LAMPORT BLVD","stopLat":40.59841,"stopLon":-74.07912,"zoneID":"","parentStation":""},"200662":{"stopID":"200662","stopName":"HYLAN BLVD/KRAMER ST","stopLat":40.59802,"stopLon":-74.07621,"zoneID":"","parentStation":""},"200663":{"stopID":"200663","stopName":"HYLAN BLVD/LINWOOD AV","stopLat":40.59752,"stopLon":-74.07394,"zoneID":"","parentStation":""},"200664":{"stopID":"200664","stopName":"HYLAN BLVD/SAND LN","stopLat":40.59844,"stopLon":-74.0725,"zoneID":"","parentStation":""},"200678":{"stopID":"200678","stopName":"MILFORD DR/OCEAN TER","stopLat":40.60984,"stopLon":-74.10391,"zoneID":"","parentStation":""},"200694":{"stopID":"200694","stopName":"SAND LN/McCLEAN AV","stopLat":40.59703,"stopLon":-74.07048,"zoneID":"","parentStation":""},"200695":{"stopID":"200695","stopName":"SAND LN/HYLAN BLVD","stopLat":40.59857,"stopLon":-74.07182,"zoneID":"","parentStation":""},"200696":{"stopID":"200696","stopName":"HYLAN BLVD/FINGERBOARD RD","stopLat":40.60153,"stopLon":-74.07266,"zoneID":"","parentStation":""},"200697":{"stopID":"200697","stopName":"HYLAN BLVD/BIONIA AV","stopLat":40.59805,"stopLon":-74.07583,"zoneID":"","parentStation":""},"200698":{"stopID":"200698","stopName":"HYLAN BLVD/STEUBEN ST","stopLat":40.59858,"stopLon":-74.07805,"zoneID":"","parentStation":""},"200699":{"stopID":"200699","stopName":"HYLAN BLVD/ALLENDALE RD","stopLat":40.59867,"stopLon":-74.07989,"zoneID":"","parentStation":""},"200700":{"stopID":"200700","stopName":"HYLAN BLVD/CLOVE RD","stopLat":40.59866,"stopLon":-74.08106,"zoneID":"","parentStation":""},"200708":{"stopID":"200708","stopName":"NARROWS RD NORTH/RICHMOND RD","stopLat":40.60973,"stopLon":-74.09073,"zoneID":"","parentStation":""},"200710":{"stopID":"200710","stopName":"CLOVE RD/HOWARD AV","stopLat":40.61272,"stopLon":-74.09952,"zoneID":"","parentStation":""},"200713":{"stopID":"200713","stopName":"CLOVE RD/VICTORY BLVD","stopLat":40.61659,"stopLon":-74.10352,"zoneID":"","parentStation":""},"200714":{"stopID":"200714","stopName":"CLOVE RD/BEVERLY AV","stopLat":40.6179,"stopLon":-74.1047,"zoneID":"","parentStation":""},"200715":{"stopID":"200715","stopName":"CLOVE RD/CLOVE LAKE PARK","stopLat":40.61951,"stopLon":-74.1075,"zoneID":"","parentStation":""},"200716":{"stopID":"200716","stopName":"CLOVE RD/BEMENT AV","stopLat":40.62094,"stopLon":-74.11031,"zoneID":"","parentStation":""},"200746":{"stopID":"200746","stopName":"CLYDE PL/ARNOLD ST","stopLat":40.63899,"stopLon":-74.09014,"zoneID":"","parentStation":""},"200747":{"stopID":"200747","stopName":"FRANKLIN AV/PROSPECT AV","stopLat":40.6397,"stopLon":-74.0911,"zoneID":"","parentStation":""},"200748":{"stopID":"200748","stopName":"PROSPECT AV/PENDELTON PL","stopLat":40.63968,"stopLon":-74.09196,"zoneID":"","parentStation":""},"200749":{"stopID":"200749","stopName":"PROSPECT AV/LAFAYETTE AV","stopLat":40.63938,"stopLon":-74.09366,"zoneID":"","parentStation":""},"200750":{"stopID":"200750","stopName":"LAFAYETTE AV/ALDEN PL","stopLat":40.63696,"stopLon":-74.09364,"zoneID":"","parentStation":""},"200751":{"stopID":"200751","stopName":"LAFAYETTE AV/BRIGHTON AV","stopLat":40.63567,"stopLon":-74.09265,"zoneID":"","parentStation":""},"200752":{"stopID":"200752","stopName":"BRIGHTON AV/WEBSTER AV","stopLat":40.63578,"stopLon":-74.08943,"zoneID":"","parentStation":""},"200753":{"stopID":"200753","stopName":"BRIGHTON AV/JERSEY ST","stopLat":40.63775,"stopLon":-74.08736,"zoneID":"","parentStation":""},"200754":{"stopID":"200754","stopName":"JERSEY ST/HENDRICKS AV","stopLat":40.64014,"stopLon":-74.08707,"zoneID":"","parentStation":""},"200755":{"stopID":"200755","stopName":"JERSEY ST/LAYTON AV","stopLat":40.64146,"stopLon":-74.08671,"zoneID":"","parentStation":""},"200756":{"stopID":"200756","stopName":"JERSEY ST/CRESCENT AV","stopLat":40.6424,"stopLon":-74.0865,"zoneID":"","parentStation":""},"200757":{"stopID":"200757","stopName":"WESTERVELT AV/CRESCENT AV","stopLat":40.64373,"stopLon":-74.08431,"zoneID":"","parentStation":""},"200758":{"stopID":"200758","stopName":"WESTERVELT AV/HAMILTON AV","stopLat":40.64571,"stopLon":-74.08575,"zoneID":"","parentStation":""},"200761":{"stopID":"200761","stopName":"HAMILTON AV/SAINT MARKS PL","stopLat":40.64472,"stopLon":-74.0807,"zoneID":"","parentStation":""},"200762":{"stopID":"200762","stopName":"SAINT MARKS PL/WALL ST","stopLat":40.64319,"stopLon":-74.07914,"zoneID":"","parentStation":""},"200763":{"stopID":"200763","stopName":"SAINT MARKS PL/FORT PL","stopLat":40.64234,"stopLon":-74.07844,"zoneID":"","parentStation":""},"200764":{"stopID":"200764","stopName":"HYATT ST/CENTRAL AV","stopLat":40.64182,"stopLon":-74.07713,"zoneID":"","parentStation":""},"200765":{"stopID":"200765","stopName":"SLOSSON TERR/BAY ST","stopLat":40.63955,"stopLon":-74.07582,"zoneID":"","parentStation":""},"200771":{"stopID":"200771","stopName":"BRIGHTON AV/LAFAYETTE AV","stopLat":40.63549,"stopLon":-74.09242,"zoneID":"","parentStation":""},"200775":{"stopID":"200775","stopName":"BRIGHTON AV/CASTLETON AV","stopLat":40.6341,"stopLon":-74.09719,"zoneID":"","parentStation":""},"200779":{"stopID":"200779","stopName":"SLOSSON TERR/BAY ST","stopLat":40.63963,"stopLon":-74.07614,"zoneID":"","parentStation":""},"200780":{"stopID":"200780","stopName":"CENTRAL AV/HYATT ST","stopLat":40.64184,"stopLon":-74.07694,"zoneID":"","parentStation":""},"200781":{"stopID":"200781","stopName":"SAINT MARKS PL/HYATT ST","stopLat":40.64196,"stopLon":-74.07801,"zoneID":"","parentStation":""},"200782":{"stopID":"200782","stopName":"SAINT MARKS PL/WALL ST","stopLat":40.64368,"stopLon":-74.07933,"zoneID":"","parentStation":""},"200783":{"stopID":"200783","stopName":"SAINT MARKS PL/HAMILTON AV","stopLat":40.64509,"stopLon":-74.08043,"zoneID":"","parentStation":""},"200784":{"stopID":"200784","stopName":"SAINT MARKS PL/NICHOLAS ST","stopLat":40.64619,"stopLon":-74.0818,"zoneID":"","parentStation":""},"200785":{"stopID":"200785","stopName":"WESTERVELT AV/SAINT MARKS PL","stopLat":40.64639,"stopLon":-74.08655,"zoneID":"","parentStation":""},"200786":{"stopID":"200786","stopName":"WESTERVELT AV/CLEVELAND ST","stopLat":40.64467,"stopLon":-74.08516,"zoneID":"","parentStation":""},"200787":{"stopID":"200787","stopName":"CRESCENT AV/WESTERVELT AV","stopLat":40.64335,"stopLon":-74.0845,"zoneID":"","parentStation":""},"200791":{"stopID":"200791","stopName":"JERSEY ST/BRIGHTON AV","stopLat":40.63815,"stopLon":-74.08755,"zoneID":"","parentStation":""},"200792":{"stopID":"200792","stopName":"BRIGHTON AV/PINE ST","stopLat":40.63698,"stopLon":-74.08868,"zoneID":"","parentStation":""},"200793":{"stopID":"200793","stopName":"BRIGHTON AV/WEBSTER AV","stopLat":40.63577,"stopLon":-74.08964,"zoneID":"","parentStation":""},"200795":{"stopID":"200795","stopName":"LAFAYETTE AV/ALDEN PL","stopLat":40.63758,"stopLon":-74.09367,"zoneID":"","parentStation":""},"200796":{"stopID":"200796","stopName":"LAFAYETTE AV/PROSPECT AV","stopLat":40.63892,"stopLon":-74.09397,"zoneID":"","parentStation":""},"200797":{"stopID":"200797","stopName":"PROSPECT AV/PENDELTON PL","stopLat":40.6395,"stopLon":-74.0922,"zoneID":"","parentStation":""},"200798":{"stopID":"200798","stopName":"PROSPECT AV/FRANKLIN AV","stopLat":40.63974,"stopLon":-74.09103,"zoneID":"","parentStation":""},"200820":{"stopID":"200820","stopName":"MORNINGSTAR RD/FOREST  AV","stopLat":40.62573,"stopLon":-74.14856,"zoneID":"","parentStation":""},"200821":{"stopID":"200821","stopName":"MORNINGSTAR RD/BOWLES AV","stopLat":40.62775,"stopLon":-74.14799,"zoneID":"","parentStation":""},"200822":{"stopID":"200822","stopName":"MORNINGSTAR RD/ST ADALBERT PL","stopLat":40.62962,"stopLon":-74.14738,"zoneID":"","parentStation":""},"200823":{"stopID":"200823","stopName":"MORNINGSTAR RD/WALKER ST","stopLat":40.63103,"stopLon":-74.1469,"zoneID":"","parentStation":""},"200836":{"stopID":"200836","stopName":"POST AV/DECKER AV","stopLat":40.63212,"stopLon":-74.13294,"zoneID":"","parentStation":""},"200837":{"stopID":"200837","stopName":"POST AV/JEWETT AV","stopLat":40.63095,"stopLon":-74.13078,"zoneID":"","parentStation":""},"200838":{"stopID":"200838","stopName":"POST AV/GREENLEAF AV","stopLat":40.6311,"stopLon":-74.12773,"zoneID":"","parentStation":""},"200839":{"stopID":"200839","stopName":"POST AV/CLOVE RD","stopLat":40.6316,"stopLon":-74.12507,"zoneID":"","parentStation":""},"200840":{"stopID":"200840","stopName":"CARY AV/TAYLOR ST","stopLat":40.63189,"stopLon":-74.12294,"zoneID":"","parentStation":""},"200841":{"stopID":"200841","stopName":"CARY AV/ELIZABETH ST","stopLat":40.63217,"stopLon":-74.12051,"zoneID":"","parentStation":""},"200842":{"stopID":"200842","stopName":"CARY AV/CAROLINE ST","stopLat":40.63233,"stopLon":-74.11925,"zoneID":"","parentStation":""},"200843":{"stopID":"200843","stopName":"CARY AV/BROADWAY","stopLat":40.63264,"stopLon":-74.11641,"zoneID":"","parentStation":""},"200844":{"stopID":"200844","stopName":"CARY AV/NORTH BURGHER AV","stopLat":40.63285,"stopLon":-74.11438,"zoneID":"","parentStation":""},"200845":{"stopID":"200845","stopName":"CARY AV/BEMENT AV","stopLat":40.63318,"stopLon":-74.11203,"zoneID":"","parentStation":""},"200846":{"stopID":"200846","stopName":"BEMENT AV/CASTLETON AV","stopLat":40.63463,"stopLon":-74.11213,"zoneID":"","parentStation":""},"200847":{"stopID":"200847","stopName":"BEMENT AV/HENDERSON AV","stopLat":40.6374,"stopLon":-74.1127,"zoneID":"","parentStation":""},"200848":{"stopID":"200848","stopName":"HENDERSON AV/PELTON AV","stopLat":40.63766,"stopLon":-74.1111,"zoneID":"","parentStation":""},"200850":{"stopID":"200850","stopName":"HENDERSON AV/BARD AV","stopLat":40.63827,"stopLon":-74.10774,"zoneID":"","parentStation":""},"200853":{"stopID":"200853","stopName":"HENDERSON AV/DEVON PL","stopLat":40.63968,"stopLon":-74.10164,"zoneID":"","parentStation":""},"200855":{"stopID":"200855","stopName":"HENDERSON AV/LAFAYETTE AV","stopLat":40.64065,"stopLon":-74.09518,"zoneID":"","parentStation":""},"200856":{"stopID":"200856","stopName":"LAFAYETTE AV/CASSIDY PL","stopLat":40.64174,"stopLon":-74.09498,"zoneID":"","parentStation":""},"200857":{"stopID":"200857","stopName":"LAFAYETTE AV/FILLMORE ST","stopLat":40.64314,"stopLon":-74.09541,"zoneID":"","parentStation":""},"200858":{"stopID":"200858","stopName":"LAFAYETTE AV/RICHMOND TERR","stopLat":40.64446,"stopLon":-74.09579,"zoneID":"","parentStation":""},"200878":{"stopID":"200878","stopName":"LAFAYETTE AV/RICHMOND TERR","stopLat":40.64449,"stopLon":-74.09596,"zoneID":"","parentStation":""},"200879":{"stopID":"200879","stopName":"LAFAYETTE AV/FILLMORE ST","stopLat":40.64351,"stopLon":-74.09567,"zoneID":"","parentStation":""},"200880":{"stopID":"200880","stopName":"LAFAYETTE AV/CASSIDY PL","stopLat":40.64231,"stopLon":-74.09531,"zoneID":"","parentStation":""},"200881":{"stopID":"200881","stopName":"LAFAYETTE AV/HENDERSON AV","stopLat":40.64111,"stopLon":-74.09495,"zoneID":"","parentStation":""},"200883":{"stopID":"200883","stopName":"HENDERSON AV/DEVON PL","stopLat":40.63996,"stopLon":-74.10099,"zoneID":"","parentStation":""},"200884":{"stopID":"200884","stopName":"HENDERSON AV/WESTBURY AV","stopLat":40.6393,"stopLon":-74.1037,"zoneID":"","parentStation":""},"200886":{"stopID":"200886","stopName":"HENDERSON AV/BARD AV","stopLat":40.63876,"stopLon":-74.10702,"zoneID":"","parentStation":""},"200888":{"stopID":"200888","stopName":"HENDERSON AV/PELTON AV","stopLat":40.63783,"stopLon":-74.11047,"zoneID":"","parentStation":""},"200889":{"stopID":"200889","stopName":"HENDERSON AV/BEMENT AV","stopLat":40.63763,"stopLon":-74.11234,"zoneID":"","parentStation":""},"200890":{"stopID":"200890","stopName":"BEMENT AV/CASTLETON AV","stopLat":40.63489,"stopLon":-74.11242,"zoneID":"","parentStation":""},"200891":{"stopID":"200891","stopName":"BEMENT AV/CARY AV","stopLat":40.63336,"stopLon":-74.11205,"zoneID":"","parentStation":""},"200892":{"stopID":"200892","stopName":"CARY AV/NORTH BURGHER AV","stopLat":40.63306,"stopLon":-74.11405,"zoneID":"","parentStation":""},"200893":{"stopID":"200893","stopName":"CARY AV/BROADWAY","stopLat":40.63269,"stopLon":-74.11692,"zoneID":"","parentStation":""},"200894":{"stopID":"200894","stopName":"CARY AV/CAROLINE ST","stopLat":40.63245,"stopLon":-74.11908,"zoneID":"","parentStation":""},"200895":{"stopID":"200895","stopName":"CARY AV/ELIZABETH ST","stopLat":40.63228,"stopLon":-74.12065,"zoneID":"","parentStation":""},"200896":{"stopID":"200896","stopName":"CARY AV/TAYLOR ST","stopLat":40.63203,"stopLon":-74.1227,"zoneID":"","parentStation":""},"200897":{"stopID":"200897","stopName":"CARY AV/CLOVE RD","stopLat":40.63178,"stopLon":-74.1248,"zoneID":"","parentStation":""},"200898":{"stopID":"200898","stopName":"POST AV/DRIPROCK ST","stopLat":40.6312,"stopLon":-74.12783,"zoneID":"","parentStation":""},"200899":{"stopID":"200899","stopName":"POST AV/JEWETT AV","stopLat":40.63092,"stopLon":-74.13038,"zoneID":"","parentStation":""},"200900":{"stopID":"200900","stopName":"POST AV/DECKER AV","stopLat":40.63235,"stopLon":-74.13312,"zoneID":"","parentStation":""},"200902":{"stopID":"200902","stopName":"PORT RICHMOND AV/ALBION PL","stopLat":40.63446,"stopLon":-74.13564,"zoneID":"","parentStation":""},"200915":{"stopID":"200915","stopName":"MORNINGSTAR RD/DAVID PL","stopLat":40.62959,"stopLon":-74.14752,"zoneID":"","parentStation":""},"200916":{"stopID":"200916","stopName":"MORNINGSTAR RD/DIXON AV","stopLat":40.62841,"stopLon":-74.14789,"zoneID":"","parentStation":""},"200930":{"stopID":"200930","stopName":"RICHMOND AV/RIVINGTON AV","stopLat":40.597,"stopLon":-74.16251,"zoneID":"","parentStation":""},"200966":{"stopID":"200966","stopName":"MAIN ST/AMBOY RD","stopLat":40.5089,"stopLon":-74.24688,"zoneID":"","parentStation":""},"200967":{"stopID":"200967","stopName":"MAIN ST/HYLAN BLVD","stopLat":40.50424,"stopLon":-74.2453,"zoneID":"","parentStation":""},"200968":{"stopID":"200968","stopName":"HYLAN BLVD/BRIGHTON ST","stopLat":40.5044,"stopLon":-74.2436,"zoneID":"","parentStation":""},"200969":{"stopID":"200969","stopName":"HYLAN BLVD/YETMAN AV","stopLat":40.50472,"stopLon":-74.24173,"zoneID":"","parentStation":""},"200970":{"stopID":"200970","stopName":"HYLAN BLVD/SPRAGUE AV","stopLat":40.5054,"stopLon":-74.23832,"zoneID":"","parentStation":""},"200971":{"stopID":"200971","stopName":"HYLAN BLVD/JOLINE AV","stopLat":40.50607,"stopLon":-74.23507,"zoneID":"","parentStation":""},"200972":{"stopID":"200972","stopName":"HYLAN BLVD/BEDELL AV","stopLat":40.50662,"stopLon":-74.23314,"zoneID":"","parentStation":""},"200973":{"stopID":"200973","stopName":"HYLAN BLVD/PAGE AV","stopLat":40.50772,"stopLon":-74.22957,"zoneID":"","parentStation":""},"200974":{"stopID":"200974","stopName":"HYLAN BLVD/RICHARD AV","stopLat":40.50848,"stopLon":-74.22392,"zoneID":"","parentStation":""},"200977":{"stopID":"200977","stopName":"HYLAN BLVD/SHARROTT AV","stopLat":40.51153,"stopLon":-74.21054,"zoneID":"","parentStation":""},"200978":{"stopID":"200978","stopName":"HYLAN BLVD/WOODVALE AV","stopLat":40.51422,"stopLon":-74.20633,"zoneID":"","parentStation":""},"200979":{"stopID":"200979","stopName":"HYLAN BLVD/BAY VIEW AV","stopLat":40.51646,"stopLon":-74.20287,"zoneID":"","parentStation":""},"200980":{"stopID":"200980","stopName":"HYLAN BLVD/INEZ ST","stopLat":40.51834,"stopLon":-74.19983,"zoneID":"","parentStation":""},"200981":{"stopID":"200981","stopName":"HYLAN BLVD/SEGUINE AV","stopLat":40.51907,"stopLon":-74.19692,"zoneID":"","parentStation":""},"200982":{"stopID":"200982","stopName":"HYLAN BLVD/CORNELIA AV","stopLat":40.52243,"stopLon":-74.19007,"zoneID":"","parentStation":""},"200983":{"stopID":"200983","stopName":"HYLAN BLVD/LUTEN AV","stopLat":40.52324,"stopLon":-74.18783,"zoneID":"","parentStation":""},"200984":{"stopID":"200984","stopName":"HYLAN BLVD/HUGUENOT AV","stopLat":40.52386,"stopLon":-74.18622,"zoneID":"","parentStation":""},"200985":{"stopID":"200985","stopName":"HYLAN BLVD/ARBUTUS AV","stopLat":40.52611,"stopLon":-74.17993,"zoneID":"","parentStation":""},"200987":{"stopID":"200987","stopName":"HYLAN BLVD/POILLON AV","stopLat":40.52662,"stopLon":-74.17439,"zoneID":"","parentStation":""},"200988":{"stopID":"200988","stopName":"HYLAN BLVD/DOLE ST","stopLat":40.52657,"stopLon":-74.17264,"zoneID":"","parentStation":""},"200990":{"stopID":"200990","stopName":"HYLAN BLVD/LIPSETT AV","stopLat":40.52647,"stopLon":-74.16863,"zoneID":"","parentStation":""},"200991":{"stopID":"200991","stopName":"HYLAN BLVD/BARCLAY AV","stopLat":40.52697,"stopLon":-74.16683,"zoneID":"","parentStation":""},"200992":{"stopID":"200992","stopName":"HYLAN BLVD/HOLDRIDGE AV","stopLat":40.52795,"stopLon":-74.16447,"zoneID":"","parentStation":""},"200993":{"stopID":"200993","stopName":"HYLAN BLVD/ARDEN AV","stopLat":40.52943,"stopLon":-74.16094,"zoneID":"","parentStation":""},"200994":{"stopID":"200994","stopName":"HYLAN BLVD/WOODS OF ARDEN RD","stopLat":40.53067,"stopLon":-74.15812,"zoneID":"","parentStation":""},"200995":{"stopID":"200995","stopName":"HYLAN BLVD/HALES AV","stopLat":40.53227,"stopLon":-74.15571,"zoneID":"","parentStation":""},"201003":{"stopID":"201003","stopName":"HYLAN BLVD/NELSON AV","stopLat":40.54259,"stopLon":-74.14557,"zoneID":"","parentStation":""},"201005":{"stopID":"201005","stopName":"HYLAN BLVD/HILLSIDE TERR","stopLat":40.54557,"stopLon":-74.14235,"zoneID":"","parentStation":""},"201006":{"stopID":"201006","stopName":"HYLAN BLVD/GREAT KILLS RD","stopLat":40.54656,"stopLon":-74.14103,"zoneID":"","parentStation":""},"201007":{"stopID":"201007","stopName":"HYLAN BLVD/FIELDWAY AV","stopLat":40.54802,"stopLon":-74.13906,"zoneID":"","parentStation":""},"201008":{"stopID":"201008","stopName":"HYLAN BLVD/KEEGANS LN","stopLat":40.54975,"stopLon":-74.1369,"zoneID":"","parentStation":""},"201009":{"stopID":"201009","stopName":"HYLAN BLVD/REDGRAVE AV","stopLat":40.55137,"stopLon":-74.13419,"zoneID":"","parentStation":""},"201010":{"stopID":"201010","stopName":"HYLAN BLVD/BAY TERR","stopLat":40.55249,"stopLon":-74.13281,"zoneID":"","parentStation":""},"201011":{"stopID":"201011","stopName":"HYLAN BLVD/JUSTIN AV","stopLat":40.5535,"stopLon":-74.13155,"zoneID":"","parentStation":""},"201012":{"stopID":"201012","stopName":"HYLAN BLVD/BUFFALO ST","stopLat":40.55681,"stopLon":-74.12764,"zoneID":"","parentStation":""},"201013":{"stopID":"201013","stopName":"HYLAN BLVD/CHESTERTON AV","stopLat":40.55801,"stopLon":-74.12633,"zoneID":"","parentStation":""},"201014":{"stopID":"201014","stopName":"HYLAN BLVD/MONTREAL AV","stopLat":40.5591,"stopLon":-74.12515,"zoneID":"","parentStation":""},"201016":{"stopID":"201016","stopName":"HYLAN BLVD/GUYON AV","stopLat":40.56058,"stopLon":-74.11967,"zoneID":"","parentStation":""},"201017":{"stopID":"201017","stopName":"HYLAN BLVD/OAK AV","stopLat":40.5623,"stopLon":-74.11783,"zoneID":"","parentStation":""},"201020":{"stopID":"201020","stopName":"HYLAN BLVD/EBBITTS ST","stopLat":40.56668,"stopLon":-74.11339,"zoneID":"","parentStation":""},"201022":{"stopID":"201022","stopName":"HYLAN BLVD/JACQUES AV","stopLat":40.5709,"stopLon":-74.10912,"zoneID":"","parentStation":""},"201023":{"stopID":"201023","stopName":"HYLAN BLVD/BURBANK AV","stopLat":40.57226,"stopLon":-74.10779,"zoneID":"","parentStation":""},"201026":{"stopID":"201026","stopName":"HYLAN BLVD/ELMTREE AV","stopLat":40.57472,"stopLon":-74.10531,"zoneID":"","parentStation":""},"201028":{"stopID":"201028","stopName":"HYLAN BLVD/MIDLAND AV","stopLat":40.57825,"stopLon":-74.10194,"zoneID":"","parentStation":""},"201029":{"stopID":"201029","stopName":"HYLAN BLVD/HAMDEN AV","stopLat":40.57931,"stopLon":-74.10069,"zoneID":"","parentStation":""},"201030":{"stopID":"201030","stopName":"HYLAN BLVD/ADAMS AV","stopLat":40.58031,"stopLon":-74.09942,"zoneID":"","parentStation":""},"201031":{"stopID":"201031","stopName":"HYLAN BLVD/JEFFERSON AV","stopLat":40.58139,"stopLon":-74.09806,"zoneID":"","parentStation":""},"201032":{"stopID":"201032","stopName":"HYLAN BLVD/SEAVER AV","stopLat":40.5833,"stopLon":-74.09566,"zoneID":"","parentStation":""},"201033":{"stopID":"201033","stopName":"HYLAN BLVD/NAUGHTON AV","stopLat":40.58409,"stopLon":-74.09478,"zoneID":"","parentStation":""},"201034":{"stopID":"201034","stopName":"HYLAN BLVD/BUEL AV","stopLat":40.58541,"stopLon":-74.093,"zoneID":"","parentStation":""},"201036":{"stopID":"201036","stopName":"HYLAN BLVD/CROMWELL AV","stopLat":40.58783,"stopLon":-74.09077,"zoneID":"","parentStation":""},"201037":{"stopID":"201037","stopName":"HYLAN BLVD/DELAWARE AV","stopLat":40.58922,"stopLon":-74.08955,"zoneID":"","parentStation":""},"201038":{"stopID":"201038","stopName":"HYLAN BLVD/EVERGREEN AV","stopLat":40.59125,"stopLon":-74.08786,"zoneID":"","parentStation":""},"201039":{"stopID":"201039","stopName":"HYLAN BLVD/BENTON AV","stopLat":40.59247,"stopLon":-74.08715,"zoneID":"","parentStation":""},"201042":{"stopID":"201042","stopName":"HYLAN BLVD/PARKINSON AV","stopLat":40.59791,"stopLon":-74.08345,"zoneID":"","parentStation":""},"201049":{"stopID":"201049","stopName":"HYLAN BLVD/FINGERBOARD RD","stopLat":40.60164,"stopLon":-74.07251,"zoneID":"","parentStation":""},"201050":{"stopID":"201050","stopName":"HYLAN BLVD/PIEDMONT AV","stopLat":40.60275,"stopLon":-74.07412,"zoneID":"","parentStation":""},"201052":{"stopID":"201052","stopName":"HYLAN BLVD/NARROWS RD SOUTH","stopLat":40.60529,"stopLon":-74.07656,"zoneID":"","parentStation":""},"201053":{"stopID":"201053","stopName":"HYLAN BLVD/DONLEY AV","stopLat":40.60761,"stopLon":-74.07621,"zoneID":"","parentStation":""},"201054":{"stopID":"201054","stopName":"HYLAN BLVD/REYNOLDS ST","stopLat":40.6098,"stopLon":-74.0743,"zoneID":"","parentStation":""},"201055":{"stopID":"201055","stopName":"HYLAN BLVD/TOMPKINS AV","stopLat":40.61147,"stopLon":-74.07125,"zoneID":"","parentStation":""},"201059":{"stopID":"201059","stopName":"TOMPKINS AV/TOWNSEND AV","stopLat":40.61842,"stopLon":-74.07543,"zoneID":"","parentStation":""},"201060":{"stopID":"201060","stopName":"TOMPKINS AV/VANDERBILT AV","stopLat":40.62047,"stopLon":-74.07715,"zoneID":"","parentStation":""},"201061":{"stopID":"201061","stopName":"TOMPKINS AV/HILL ST","stopLat":40.62232,"stopLon":-74.07834,"zoneID":"","parentStation":""},"201062":{"stopID":"201062","stopName":"TOMPKINS AV/BROAD ST","stopLat":40.6245,"stopLon":-74.07946,"zoneID":"","parentStation":""},"201064":{"stopID":"201064","stopName":"VAN DUZER ST/BEACH ST","stopLat":40.62919,"stopLon":-74.07943,"zoneID":"","parentStation":""},"201066":{"stopID":"201066","stopName":"VAN DUZER ST/GRANT ST","stopLat":40.63373,"stopLon":-74.07635,"zoneID":"","parentStation":""},"201077":{"stopID":"201077","stopName":"ST PAULS AV/VAN DUZER ST","stopLat":40.63736,"stopLon":-74.0781,"zoneID":"","parentStation":""},"201078":{"stopID":"201078","stopName":"ST PAULS AV/SWAN ST","stopLat":40.63461,"stopLon":-74.07861,"zoneID":"","parentStation":""},"201080":{"stopID":"201080","stopName":"ST PAULS AV/CEBRA AV","stopLat":40.63041,"stopLon":-74.08136,"zoneID":"","parentStation":""},"201081":{"stopID":"201081","stopName":"BEACH ST/VAN DUZER ST","stopLat":40.62897,"stopLon":-74.0799,"zoneID":"","parentStation":""},"201082":{"stopID":"201082","stopName":"BEACH ST/UNION PL","stopLat":40.62776,"stopLon":-74.07766,"zoneID":"","parentStation":""},"201083":{"stopID":"201083","stopName":"CANAL ST/WRIGHT ST","stopLat":40.62686,"stopLon":-74.07806,"zoneID":"","parentStation":""},"201084":{"stopID":"201084","stopName":"TOMPKINS AV/BROAD ST","stopLat":40.6243,"stopLon":-74.07953,"zoneID":"","parentStation":""},"201085":{"stopID":"201085","stopName":"TOMPKINS AV/HILL ST","stopLat":40.62165,"stopLon":-74.07818,"zoneID":"","parentStation":""},"201086":{"stopID":"201086","stopName":"TOMPKINS AV/VANDERBILT AV","stopLat":40.62023,"stopLon":-74.07711,"zoneID":"","parentStation":""},"201087":{"stopID":"201087","stopName":"TOMPKINS AV/TOWNSEND AV","stopLat":40.61864,"stopLon":-74.07576,"zoneID":"","parentStation":""},"201088":{"stopID":"201088","stopName":"TOMPKINS AV/CHESTNUT AV","stopLat":40.61531,"stopLon":-74.07345,"zoneID":"","parentStation":""},"201090":{"stopID":"201090","stopName":"HYLAN BLVD/VAUGHN ST","stopLat":40.61131,"stopLon":-74.07183,"zoneID":"","parentStation":""},"201092":{"stopID":"201092","stopName":"HYLAN BLVD/DONLEY AV","stopLat":40.60769,"stopLon":-74.07701,"zoneID":"","parentStation":""},"201093":{"stopID":"201093","stopName":"OLGA PL/POUCH TERR","stopLat":40.60391,"stopLon":-74.07629,"zoneID":"","parentStation":""},"201094":{"stopID":"201094","stopName":"HYLAN BLVD/PIEDMONT AV","stopLat":40.60274,"stopLon":-74.07446,"zoneID":"","parentStation":""},"201096":{"stopID":"201096","stopName":"HYLAN BLVD/WEST FINGERBOARD RD","stopLat":40.60021,"stopLon":-74.07216,"zoneID":"","parentStation":""},"201102":{"stopID":"201102","stopName":"HYLAN BLVD/PARKINSON AV","stopLat":40.59783,"stopLon":-74.08416,"zoneID":"","parentStation":""},"201104":{"stopID":"201104","stopName":"HYLAN BLVD/REID AV","stopLat":40.59383,"stopLon":-74.08686,"zoneID":"","parentStation":""},"201105":{"stopID":"201105","stopName":"HYLAN BLVD/COOPER AV","stopLat":40.59251,"stopLon":-74.08741,"zoneID":"","parentStation":""},"201106":{"stopID":"201106","stopName":"HYLAN BLVD/BURGHER AV","stopLat":40.59046,"stopLon":-74.08871,"zoneID":"","parentStation":""},"201107":{"stopID":"201107","stopName":"HYLAN BLVD/DELAWARE AV","stopLat":40.58884,"stopLon":-74.09015,"zoneID":"","parentStation":""},"201108":{"stopID":"201108","stopName":"HYLAN BLVD/CROMWELL AV","stopLat":40.58745,"stopLon":-74.09146,"zoneID":"","parentStation":""},"201109":{"stopID":"201109","stopName":"HYLAN BLVD/SEAVIEW AV","stopLat":40.58637,"stopLon":-74.09234,"zoneID":"","parentStation":""},"201110":{"stopID":"201110","stopName":"HYLAN BLVD/BUEL AV","stopLat":40.58508,"stopLon":-74.09379,"zoneID":"","parentStation":""},"201112":{"stopID":"201112","stopName":"HYLAN BLVD/SEAVER AV","stopLat":40.58292,"stopLon":-74.09651,"zoneID":"","parentStation":""},"201113":{"stopID":"201113","stopName":"HYLAN BLVD/JEFFERSON AV","stopLat":40.58109,"stopLon":-74.09881,"zoneID":"","parentStation":""},"201114":{"stopID":"201114","stopName":"HYLAN BLVD/ADAMS AV","stopLat":40.58005,"stopLon":-74.10013,"zoneID":"","parentStation":""},"201115":{"stopID":"201115","stopName":"HYLAN BLVD/HAMDEN AV","stopLat":40.57899,"stopLon":-74.10145,"zoneID":"","parentStation":""},"201117":{"stopID":"201117","stopName":"HYLAN BLVD/LINCOLN AV","stopLat":40.57629,"stopLon":-74.10409,"zoneID":"","parentStation":""},"201118":{"stopID":"201118","stopName":"HYLAN BLVD/BANCROFT AV","stopLat":40.57421,"stopLon":-74.10617,"zoneID":"","parentStation":""},"201119":{"stopID":"201119","stopName":"HYLAN BLVD/OTIS AV","stopLat":40.57306,"stopLon":-74.10732,"zoneID":"","parentStation":""},"201120":{"stopID":"201120","stopName":"HYLAN BLVD/BURBANK AV","stopLat":40.57195,"stopLon":-74.10844,"zoneID":"","parentStation":""},"201121":{"stopID":"201121","stopName":"HYLAN BLVD/NEW DORP LN","stopLat":40.57029,"stopLon":-74.11012,"zoneID":"","parentStation":""},"201122":{"stopID":"201122","stopName":"HYLAN BLVD/ROSE AV","stopLat":40.56915,"stopLon":-74.11126,"zoneID":"","parentStation":""},"201123":{"stopID":"201123","stopName":"HYLAN BLVD/STERLING AV","stopLat":40.56803,"stopLon":-74.1124,"zoneID":"","parentStation":""},"201124":{"stopID":"201124","stopName":"HYLAN BLVD/LINDBERGH AV","stopLat":40.56686,"stopLon":-74.11358,"zoneID":"","parentStation":""},"201125":{"stopID":"201125","stopName":"HYLAN BLVD/CANNON BLVD","stopLat":40.56517,"stopLon":-74.11527,"zoneID":"","parentStation":""},"201126":{"stopID":"201126","stopName":"HYLAN BLVD/TYSENS LN","stopLat":40.56374,"stopLon":-74.11677,"zoneID":"","parentStation":""},"201127":{"stopID":"201127","stopName":"HYLAN BLVD/OAK AV","stopLat":40.56195,"stopLon":-74.11855,"zoneID":"","parentStation":""},"201128":{"stopID":"201128","stopName":"HYLAN BLVD/GUYON AV","stopLat":40.56021,"stopLon":-74.12044,"zoneID":"","parentStation":""},"201129":{"stopID":"201129","stopName":"HYLAN BLVD/CHAMPLAIN AV","stopLat":40.55969,"stopLon":-74.12431,"zoneID":"","parentStation":""},"201130":{"stopID":"201130","stopName":"HYLAN BLVD/MONTREAL AV","stopLat":40.55876,"stopLon":-74.12588,"zoneID":"","parentStation":""},"201131":{"stopID":"201131","stopName":"HYLAN BLVD/CURRIE AV","stopLat":40.55744,"stopLon":-74.12733,"zoneID":"","parentStation":""},"201132":{"stopID":"201132","stopName":"HYLAN BLVD/BUFFALO ST","stopLat":40.5564,"stopLon":-74.12847,"zoneID":"","parentStation":""},"201133":{"stopID":"201133","stopName":"HYLAN BLVD/BAY TERR","stopLat":40.55226,"stopLon":-74.13347,"zoneID":"","parentStation":""},"201134":{"stopID":"201134","stopName":"HYLAN BLVD/BAY TERR","stopLat":40.55218,"stopLon":-74.13357,"zoneID":"","parentStation":""},"201135":{"stopID":"201135","stopName":"HYLAN BLVD/REDGRAVE AV","stopLat":40.55118,"stopLon":-74.13498,"zoneID":"","parentStation":""},"201136":{"stopID":"201136","stopName":"HYLAN BLVD/KEEGANS LN","stopLat":40.54943,"stopLon":-74.13781,"zoneID":"","parentStation":""},"201137":{"stopID":"201137","stopName":"HYLAN BLVD/FIELDWAY AV","stopLat":40.54767,"stopLon":-74.13991,"zoneID":"","parentStation":""},"201138":{"stopID":"201138","stopName":"HYLAN BLVD/GREAT KILLS RD","stopLat":40.5463,"stopLon":-74.14177,"zoneID":"","parentStation":""},"201139":{"stopID":"201139","stopName":"HYLAN BLVD/HILLSIDE TERR","stopLat":40.54529,"stopLon":-74.14308,"zoneID":"","parentStation":""},"201141":{"stopID":"201141","stopName":"HYLAN BLVD/NELSON AV","stopLat":40.54223,"stopLon":-74.14624,"zoneID":"","parentStation":""},"201171":{"stopID":"201171","stopName":"HYLAN BLVD/HALES AV","stopLat":40.53193,"stopLon":-74.15635,"zoneID":"","parentStation":""},"201172":{"stopID":"201172","stopName":"HYLAN BLVD/WOODS OF ARDEN RD","stopLat":40.53044,"stopLon":-74.15892,"zoneID":"","parentStation":""},"201173":{"stopID":"201173","stopName":"HYLAN BLVD/ARDEN AV","stopLat":40.52927,"stopLon":-74.16173,"zoneID":"","parentStation":""},"201174":{"stopID":"201174","stopName":"HYLAN BLVD/HOLDRIDGE AV","stopLat":40.52784,"stopLon":-74.1653,"zoneID":"","parentStation":""},"201175":{"stopID":"201175","stopName":"HYLAN BLVD/BARCLAY AV","stopLat":40.52686,"stopLon":-74.16768,"zoneID":"","parentStation":""},"201176":{"stopID":"201176","stopName":"HYLAN BLVD/LIPSETT AV","stopLat":40.52668,"stopLon":-74.16958,"zoneID":"","parentStation":""},"201177":{"stopID":"201177","stopName":"HYLAN BLVD/LIPSETT AV","stopLat":40.52677,"stopLon":-74.17258,"zoneID":"","parentStation":""},"201178":{"stopID":"201178","stopName":"HYLAN BLVD/POILLON AV","stopLat":40.52685,"stopLon":-74.17523,"zoneID":"","parentStation":""},"201179":{"stopID":"201179","stopName":"HYLAN BLVD/WENDY DR","stopLat":40.5268,"stopLon":-74.17826,"zoneID":"","parentStation":""},"201181":{"stopID":"201181","stopName":"HYLAN BLVD/HUGUENOT AV","stopLat":40.52396,"stopLon":-74.1865,"zoneID":"","parentStation":""},"201182":{"stopID":"201182","stopName":"HYLAN BLVD/LUTEN AV","stopLat":40.52312,"stopLon":-74.18865,"zoneID":"","parentStation":""},"201183":{"stopID":"201183","stopName":"HYLAN BLVD/CORNELIA AV","stopLat":40.52252,"stopLon":-74.19044,"zoneID":"","parentStation":""},"201184":{"stopID":"201184","stopName":"HYLAN BLVD/SEGUINE AV","stopLat":40.51925,"stopLon":-74.19696,"zoneID":"","parentStation":""},"201185":{"stopID":"201185","stopName":"HYLAN BLVD/INEZ ST","stopLat":40.51833,"stopLon":-74.20032,"zoneID":"","parentStation":""},"201186":{"stopID":"201186","stopName":"HYLAN BLVD/BAYVIEW AV","stopLat":40.5168,"stopLon":-74.2027,"zoneID":"","parentStation":""},"201187":{"stopID":"201187","stopName":"HYLAN BLVD/WOODVALE AV","stopLat":40.51428,"stopLon":-74.20659,"zoneID":"","parentStation":""},"201188":{"stopID":"201188","stopName":"HYLAN BLVD/SHARROTT AV","stopLat":40.51189,"stopLon":-74.21027,"zoneID":"","parentStation":""},"201189":{"stopID":"201189","stopName":"HYLAN BLVD/KENNY RD","stopLat":40.50976,"stopLon":-74.21792,"zoneID":"","parentStation":""},"201190":{"stopID":"201190","stopName":"HYLAN BLVD/CUNNINGHAM RD","stopLat":40.50905,"stopLon":-74.22136,"zoneID":"","parentStation":""},"201191":{"stopID":"201191","stopName":"HYLAN BLVD/RICHARD AV","stopLat":40.50872,"stopLon":-74.22358,"zoneID":"","parentStation":""},"201192":{"stopID":"201192","stopName":"HYLAN BLVD/PAGE AV","stopLat":40.50787,"stopLon":-74.2299,"zoneID":"","parentStation":""},"201193":{"stopID":"201193","stopName":"HYLAN BLVD/BEDELL AV","stopLat":40.50686,"stopLon":-74.23296,"zoneID":"","parentStation":""},"201194":{"stopID":"201194","stopName":"HYLAN BLVD/JOLINE AV","stopLat":40.5063,"stopLon":-74.23478,"zoneID":"","parentStation":""},"201195":{"stopID":"201195","stopName":"HYLAN BLVD/SPRAGUE AV","stopLat":40.50565,"stopLon":-74.23801,"zoneID":"","parentStation":""},"201196":{"stopID":"201196","stopName":"HYLAN BLVD/BRIGHTON ST","stopLat":40.50458,"stopLon":-74.24335,"zoneID":"","parentStation":""},"201198":{"stopID":"201198","stopName":"HYLAN BLVD/CARTERET ST","stopLat":40.50386,"stopLon":-74.24692,"zoneID":"","parentStation":""},"201220":{"stopID":"201220","stopName":"FINGERBOARD RD/HYLAN BLVD","stopLat":40.60157,"stopLon":-74.07193,"zoneID":"","parentStation":""},"201221":{"stopID":"201221","stopName":"FINGERBOARD RD/CLEVELAND PL","stopLat":40.60326,"stopLon":-74.06933,"zoneID":"","parentStation":""},"201222":{"stopID":"201222","stopName":"FINGERBOARD RD/LINCOLN PL","stopLat":40.60474,"stopLon":-74.06878,"zoneID":"","parentStation":""},"201223":{"stopID":"201223","stopName":"FINGERBOARD RD/TOMPKINS AV","stopLat":40.6069,"stopLon":-74.06717,"zoneID":"","parentStation":""},"201224":{"stopID":"201224","stopName":"TOMPKINS AV/BELAIR RD","stopLat":40.60908,"stopLon":-74.06902,"zoneID":"","parentStation":""},"201225":{"stopID":"201225","stopName":"TOMPKINS AV/HYLAN BLVD","stopLat":40.61129,"stopLon":-74.07091,"zoneID":"","parentStation":""},"201235":{"stopID":"201235","stopName":"BEACH ST/VAN DUZER ST","stopLat":40.62884,"stopLon":-74.0794,"zoneID":"","parentStation":""},"201236":{"stopID":"201236","stopName":"CEBRA AV/SAINT PAULS AV","stopLat":40.63062,"stopLon":-74.08163,"zoneID":"","parentStation":""},"201237":{"stopID":"201237","stopName":"CEBRA AV/WARD AV","stopLat":40.63253,"stopLon":-74.08362,"zoneID":"","parentStation":""},"201238":{"stopID":"201238","stopName":"CEBRA AV/VICTORY BLVD","stopLat":40.63397,"stopLon":-74.08558,"zoneID":"","parentStation":""},"201241":{"stopID":"201241","stopName":"JERSEY ST/SCRIBNER AV","stopLat":40.63779,"stopLon":-74.08696,"zoneID":"","parentStation":""},"201256":{"stopID":"201256","stopName":"RICHMOND TERR/SAINT GEORGE FERRY","stopLat":40.64326,"stopLon":-74.0758,"zoneID":"","parentStation":""},"201269":{"stopID":"201269","stopName":"JERSEY ST/CASTLETON AV","stopLat":40.63647,"stopLon":-74.08551,"zoneID":"","parentStation":""},"201271":{"stopID":"201271","stopName":"CEBRA AV/VICTORY BLVD","stopLat":40.63396,"stopLon":-74.08591,"zoneID":"","parentStation":""},"201272":{"stopID":"201272","stopName":"CEBRA AV/WARD AV","stopLat":40.63201,"stopLon":-74.08327,"zoneID":"","parentStation":""},"201273":{"stopID":"201273","stopName":"CEBRA AV/SAINT PAULS AV","stopLat":40.63053,"stopLon":-74.08174,"zoneID":"","parentStation":""},"201282":{"stopID":"201282","stopName":"TOMPKINS AV/SAINT MARYS AV","stopLat":40.61379,"stopLon":-74.0723,"zoneID":"","parentStation":""},"201283":{"stopID":"201283","stopName":"TOMPKINS AV/HYLAN BLVD","stopLat":40.61126,"stopLon":-74.07111,"zoneID":"","parentStation":""},"201284":{"stopID":"201284","stopName":"TOMPKINS AV/BELAIR RD","stopLat":40.60944,"stopLon":-74.06948,"zoneID":"","parentStation":""},"201285":{"stopID":"201285","stopName":"TOMPKINS AV/FINGERBOARD RD","stopLat":40.60701,"stopLon":-74.0673,"zoneID":"","parentStation":""},"201286":{"stopID":"201286","stopName":"FINGERBOARD RD/LINCOLN PL","stopLat":40.60489,"stopLon":-74.06895,"zoneID":"","parentStation":""},"201288":{"stopID":"201288","stopName":"FINGERBOARD RD/GRASMERE DR","stopLat":40.60188,"stopLon":-74.07166,"zoneID":"","parentStation":""},"201289":{"stopID":"201289","stopName":"SAND LN/HYLAN BLVD","stopLat":40.59824,"stopLon":-74.07209,"zoneID":"","parentStation":""},"201291":{"stopID":"201291","stopName":"McCLEAN AV/LINWOOD AV","stopLat":40.59611,"stopLon":-74.07253,"zoneID":"","parentStation":""},"201294":{"stopID":"201294","stopName":"McCLEAN AV/MALLORY AV","stopLat":40.59428,"stopLon":-74.07817,"zoneID":"","parentStation":""},"201315":{"stopID":"201315","stopName":"DECKER AV/PALMER AV","stopLat":40.6305,"stopLon":-74.13474,"zoneID":"","parentStation":""},"201316":{"stopID":"201316","stopName":"DECKER AV/CATHERINE ST","stopLat":40.62854,"stopLon":-74.13709,"zoneID":"","parentStation":""},"201317":{"stopID":"201317","stopName":"DECKER AV/BEEKMAN ST","stopLat":40.62754,"stopLon":-74.1382,"zoneID":"","parentStation":""},"201318":{"stopID":"201318","stopName":"DECKER AV/HAGAMAN PL","stopLat":40.62592,"stopLon":-74.14017,"zoneID":"","parentStation":""},"201319":{"stopID":"201319","stopName":"DECKER AV/FOREST AV","stopLat":40.62477,"stopLon":-74.14164,"zoneID":"","parentStation":""},"201320":{"stopID":"201320","stopName":"WILLOWBROOK RD/FOREST AV","stopLat":40.62468,"stopLon":-74.14414,"zoneID":"","parentStation":""},"201321":{"stopID":"201321","stopName":"WILLOWBROOK RD/HOUSTON ST","stopLat":40.62264,"stopLon":-74.14441,"zoneID":"","parentStation":""},"201322":{"stopID":"201322","stopName":"WILLOWBROOK RD/VEDDER AV","stopLat":40.62078,"stopLon":-74.14465,"zoneID":"","parentStation":""},"201323":{"stopID":"201323","stopName":"WILLOWBROOK RD/DEVENS ST","stopLat":40.61918,"stopLon":-74.14494,"zoneID":"","parentStation":""},"201324":{"stopID":"201324","stopName":"WILLOWBROOK RD/WATCHOGUE RD","stopLat":40.61705,"stopLon":-74.1452,"zoneID":"","parentStation":""},"201325":{"stopID":"201325","stopName":"WATCHOGUE RD/CRYSTAL AV","stopLat":40.61649,"stopLon":-74.14205,"zoneID":"","parentStation":""},"201326":{"stopID":"201326","stopName":"WATCHOGUE RD/GLASCOE AV","stopLat":40.61628,"stopLon":-74.14047,"zoneID":"","parentStation":""},"201356":{"stopID":"201356","stopName":"BRADLEY AV/PURDY AV","stopLat":40.61038,"stopLon":-74.13245,"zoneID":"","parentStation":""},"201358":{"stopID":"201358","stopName":"BRADLEY AV/WESTWOOD AV","stopLat":40.6057,"stopLon":-74.13192,"zoneID":"","parentStation":""},"201359":{"stopID":"201359","stopName":"BRADLEY AV/WILLOWBROOK RD","stopLat":40.6038,"stopLon":-74.13164,"zoneID":"","parentStation":""},"201360":{"stopID":"201360","stopName":"BRADLEY AV/HAROLD ST","stopLat":40.60153,"stopLon":-74.13136,"zoneID":"","parentStation":""},"201363":{"stopID":"201363","stopName":"BRIELLE AV/ROANOKE ST","stopLat":40.59713,"stopLon":-74.13316,"zoneID":"","parentStation":""},"201366":{"stopID":"201366","stopName":"BRIELLE AV/ROCKLAND AV","stopLat":40.58913,"stopLon":-74.13871,"zoneID":"","parentStation":""},"201369":{"stopID":"201369","stopName":"ROCKLAND AV/MEISNER AV","stopLat":40.58263,"stopLon":-74.13037,"zoneID":"","parentStation":""},"201370":{"stopID":"201370","stopName":"ROCKLAND AV/NEVADA AV","stopLat":40.57963,"stopLon":-74.12753,"zoneID":"","parentStation":""},"201373":{"stopID":"201373","stopName":"RICHMOND RD/SUMMIT AV","stopLat":40.57577,"stopLon":-74.12421,"zoneID":"","parentStation":""},"201374":{"stopID":"201374","stopName":"RICHMOND RD/ROSE AV","stopLat":40.57516,"stopLon":-74.12127,"zoneID":"","parentStation":""},"201375":{"stopID":"201375","stopName":"ROSE AV/3 ST","stopLat":40.57414,"stopLon":-74.11951,"zoneID":"","parentStation":""},"201378":{"stopID":"201378","stopName":"NEW DORP LN/3 ST","stopLat":40.57525,"stopLon":-74.1186,"zoneID":"","parentStation":""},"201380":{"stopID":"201380","stopName":"AMBOY RD/OAKLEY PL","stopLat":40.57393,"stopLon":-74.12182,"zoneID":"","parentStation":""},"201382":{"stopID":"201382","stopName":"AMBOY RD/BELFAST AV","stopLat":40.57024,"stopLon":-74.12311,"zoneID":"","parentStation":""},"201383":{"stopID":"201383","stopName":"AMBOY RD/TYSENS LN","stopLat":40.56876,"stopLon":-74.12531,"zoneID":"","parentStation":""},"201385":{"stopID":"201385","stopName":"GUYON AV/AMBOY RD","stopLat":40.56507,"stopLon":-74.12967,"zoneID":"","parentStation":""},"201387":{"stopID":"201387","stopName":"GUYON AV/SOUTH RAILROAD AV","stopLat":40.56445,"stopLon":-74.12691,"zoneID":"","parentStation":""},"201388":{"stopID":"201388","stopName":"GUYON AV/TARRING ST","stopLat":40.5633,"stopLon":-74.12501,"zoneID":"","parentStation":""},"201389":{"stopID":"201389","stopName":"GUYON AV/WHITEHALL ST","stopLat":40.56241,"stopLon":-74.12351,"zoneID":"","parentStation":""},"201390":{"stopID":"201390","stopName":"GUYON AV/CLAWSON ST","stopLat":40.56108,"stopLon":-74.12132,"zoneID":"","parentStation":""},"201422":{"stopID":"201422","stopName":"VICTORY BLVD/JEWETT AV","stopLat":40.61262,"stopLon":-74.1304,"zoneID":"","parentStation":""},"201427":{"stopID":"201427","stopName":"WATCHOGUE RD/GLASCOE AV","stopLat":40.61652,"stopLon":-74.1411,"zoneID":"","parentStation":""},"201428":{"stopID":"201428","stopName":"WATCHOGUE RD/CRYSTAL AV","stopLat":40.61671,"stopLon":-74.14266,"zoneID":"","parentStation":""},"201429":{"stopID":"201429","stopName":"WATCHOGUE RD/WILLOWBROOK RD","stopLat":40.61703,"stopLon":-74.14498,"zoneID":"","parentStation":""},"201430":{"stopID":"201430","stopName":"WILLOWBROOK RD/LEONARD AV","stopLat":40.61913,"stopLon":-74.1447,"zoneID":"","parentStation":""},"201431":{"stopID":"201431","stopName":"WILLOWBROOK RD/LATHROP AV","stopLat":40.62028,"stopLon":-74.14455,"zoneID":"","parentStation":""},"201432":{"stopID":"201432","stopName":"WILLOWBROOK RD/COLLEGE AV","stopLat":40.62282,"stopLon":-74.14421,"zoneID":"","parentStation":""},"201433":{"stopID":"201433","stopName":"WILLOWBROOK RD/FOREST AV","stopLat":40.62486,"stopLon":-74.14394,"zoneID":"","parentStation":""},"201434":{"stopID":"201434","stopName":"DECKER AV/FOREST AV","stopLat":40.62499,"stopLon":-74.14102,"zoneID":"","parentStation":""},"201435":{"stopID":"201435","stopName":"DECKER AV/HAGAMAN PL","stopLat":40.62624,"stopLon":-74.13954,"zoneID":"","parentStation":""},"201436":{"stopID":"201436","stopName":"DECKER AV/BARRETT AV","stopLat":40.62743,"stopLon":-74.13805,"zoneID":"","parentStation":""},"201437":{"stopID":"201437","stopName":"DECKER AV/CATHERINE ST","stopLat":40.6288,"stopLon":-74.13645,"zoneID":"","parentStation":""},"201448":{"stopID":"201448","stopName":"GUYAN AV/SOUTH RAILROAD AV","stopLat":40.5647,"stopLon":-74.12705,"zoneID":"","parentStation":""},"201450":{"stopID":"201450","stopName":"AMBOY RD/EAST BROADWAY","stopLat":40.56791,"stopLon":-74.12642,"zoneID":"","parentStation":""},"201451":{"stopID":"201451","stopName":"AMBOY RD/TYSENS LN","stopLat":40.56909,"stopLon":-74.12455,"zoneID":"","parentStation":""},"201453":{"stopID":"201453","stopName":"AMBOY RD/BEACH AV","stopLat":40.57164,"stopLon":-74.1214,"zoneID":"","parentStation":""},"201455":{"stopID":"201455","stopName":"ROSE AV/3 ST","stopLat":40.57408,"stopLon":-74.11938,"zoneID":"","parentStation":""},"201459":{"stopID":"201459","stopName":"RICHMOND RD/NEW DORP LN","stopLat":40.57593,"stopLon":-74.11938,"zoneID":"","parentStation":""},"201460":{"stopID":"201460","stopName":"RICHMOND RD/BEACON AV","stopLat":40.57588,"stopLon":-74.12329,"zoneID":"","parentStation":""},"201462":{"stopID":"201462","stopName":"ROCKLAND AV/SAINT GEORGE RD","stopLat":40.57747,"stopLon":-74.12716,"zoneID":"","parentStation":""},"201463":{"stopID":"201463","stopName":"ROCKLAND AV/NEVADA AV","stopLat":40.57971,"stopLon":-74.12739,"zoneID":"","parentStation":""},"201464":{"stopID":"201464","stopName":"ROCKLAND AV/FLORIDA TERR","stopLat":40.58107,"stopLon":-74.12846,"zoneID":"","parentStation":""},"201465":{"stopID":"201465","stopName":"ROCKLAND AV/MANOR RD","stopLat":40.58311,"stopLon":-74.13059,"zoneID":"","parentStation":""},"201473":{"stopID":"201473","stopName":"BRADLEY AV/BRIELLE AV","stopLat":40.59908,"stopLon":-74.13078,"zoneID":"","parentStation":""},"201474":{"stopID":"201474","stopName":"BRADLEY AV/PORTAGE AV","stopLat":40.60025,"stopLon":-74.131,"zoneID":"","parentStation":""},"201476":{"stopID":"201476","stopName":"BRADLEY AV/HOLDEN BLVD","stopLat":40.60389,"stopLon":-74.13148,"zoneID":"","parentStation":""},"201477":{"stopID":"201477","stopName":"BRADLEY AV/WESTWOOD AV","stopLat":40.60537,"stopLon":-74.13163,"zoneID":"","parentStation":""},"201480":{"stopID":"201480","stopName":"BRADLEY AV/VICTORY BLVD","stopLat":40.61231,"stopLon":-74.1322,"zoneID":"","parentStation":""},"201484":{"stopID":"201484","stopName":"FOREST AV/HARBOR PLAZA","stopLat":40.62676,"stopLon":-74.16349,"zoneID":"","parentStation":""},"201485":{"stopID":"201485","stopName":"FOREST AV/AMITY PL","stopLat":40.62647,"stopLon":-74.16078,"zoneID":"","parentStation":""},"201488":{"stopID":"201488","stopName":"FOREST AV/EUNICE PL","stopLat":40.62543,"stopLon":-74.15241,"zoneID":"","parentStation":""},"201489":{"stopID":"201489","stopName":"FOREST AV/SANDERS ST","stopLat":40.62528,"stopLon":-74.15094,"zoneID":"","parentStation":""},"201492":{"stopID":"201492","stopName":"FOREST AV/CRYSTAL AV","stopLat":40.62455,"stopLon":-74.14142,"zoneID":"","parentStation":""},"201493":{"stopID":"201493","stopName":"FOREST AV/TARGET","stopLat":40.62426,"stopLon":-74.13917,"zoneID":"","parentStation":""},"201494":{"stopID":"201494","stopName":"FOREST AV/LIVERMORE AV","stopLat":40.62417,"stopLon":-74.13747,"zoneID":"","parentStation":""},"201495":{"stopID":"201495","stopName":"FOREST AV/BURNSIDE AV","stopLat":40.62542,"stopLon":-74.13513,"zoneID":"","parentStation":""},"201496":{"stopID":"201496","stopName":"FOREST AV/HAMLIN PL","stopLat":40.62631,"stopLon":-74.13301,"zoneID":"","parentStation":""},"201497":{"stopID":"201497","stopName":"FOREST AV/JEWETT AV","stopLat":40.62627,"stopLon":-74.13092,"zoneID":"","parentStation":""},"201498":{"stopID":"201498","stopName":"FOREST AV/DUBOIS AV","stopLat":40.62659,"stopLon":-74.12838,"zoneID":"","parentStation":""},"201499":{"stopID":"201499","stopName":"FOREST AV/MANOR RD","stopLat":40.62702,"stopLon":-74.1253,"zoneID":"","parentStation":""},"201500":{"stopID":"201500","stopName":"FOREST AV/RAYMOND PL","stopLat":40.62719,"stopLon":-74.12374,"zoneID":"","parentStation":""},