{"140057":{"stopID":"140057","stopName":"Taggart Student Center","stopLat":41.74371,"stopLon":-111.81396},"140058":{"stopID":"140058","stopName":"Center Stadium","stopLat":41.75285,"stopLon":-111.81308},"140059":{"stopID":"140059","stopName":"South Stadium","stopLat":41.75057,"stopLon":-111.81307},"140060":{"stopID":"140060","stopName":"Field House","stopLat":41.74446,"stopLon":-111.81345},"140061":{"stopID":"140061","stopName":"Veterinary Science","stopLat":41.74443,"stopLon":-111.81103},"140062":{"stopID":"140062","stopName":"Industrial Science","stopLat":41.74435,"stopLon":-111.80827},"140063":{"stopID":"140063","stopName":"Aggie Ice Cream","stopLat":41.74516,"stopLon":-111.80431},"140064":{"stopID":"140064","stopName":"Lundstrum","stopLat":41.74962,"stopLon":-111.80208},"140065":{"stopID":"140065","stopName":"Aggie Village 1","stopLat":41.75082,"stopLon":-111.80439},"140066":{"stopID":"140066","stopName":"Aggie Village 2","stopLat":41.75308,"stopLon":-111.80606},"140067":{"stopID":"140067","stopName":"Aggie Village 3","stopLat":41.75161,"stopLon":-111.80927},"140068":{"stopID":"140068","stopName":"800 E 900 N","stopLat":41.7486,"stopLon":-111.81408},"140069":{"stopID":"140069","stopName":"West Stadium","stopLat":41.75168,"stopLon":-111.81388},"140070":{"stopID":"140070","stopName":"ASTE Bldg","stopLat":41.75888,"stopLon":-111.81382},"140071":{"stopID":"140071","stopName":"Innovation Visitor Center","stopLat":41.76129,"stopLon":-111.81783},"140072":{"stopID":"140072","stopName":"Innovation Campus","stopLat":41.76219,"stopLon":-111.81998},"140073":{"stopID":"140073","stopName":"USTAR Bldg","stopLat":41.7611,"stopLon":-111.81724},"140074":{"stopID":"140074","stopName":"Oakridge Apartments","stopLat":41.75674,"stopLon":-111.81395},"140075":{"stopID":"140075","stopName":"Blue Square Apartments","stopLat":41.7516,"stopLon":-111.81396},"140076":{"stopID":"140076","stopName":"The Bull","stopLat":41.75005,"stopLon":-111.81328},"140077":{"stopID":"140077","stopName":"Logan Cemetery","stopLat":41.74996,"stopLon":-111.80587},"140078":{"stopID":"140078","stopName":"Fine Arts Bldg","stopLat":41.74344,"stopLon":-111.80434},"140079":{"stopID":"140079","stopName":"Family Life Bldg","stopLat":41.74007,"stopLon":-111.81113},"140080":{"stopID":"140080","stopName":"670 E 500 N","stopLat":41.74061,"stopLon":-111.81767},"140081":{"stopID":"140081","stopName":"Human Resources Bldg","stopLat":41.7444,"stopLon":-111.80492},"140082":{"stopID":"140082","stopName":"Richards Hall","stopLat":41.74446,"stopLon":-111.8081},"140083":{"stopID":"140083","stopName":"Education Bldg","stopLat":41.74448,"stopLon":-111.81094},"140084":{"stopID":"140084","stopName":"Aggie Rec Center","stopLat":41.74456,"stopLon":-111.81311},"140085":{"stopID":"140085","stopName":"Aggie Village South","stopLat":41.75001,"stopLon":-111.8051},"140086":{"stopID":"140086","stopName":"Charter","stopLat":41.75607,"stopLon":-111.81231},"152017":{"stopID":"152017","stopName":"Water Lab","stopLat":41.73996,"stopLon":-111.79273},"152018":{"stopID":"152018","stopName":"650 N 1200 E","stopLat":41.74343,"stopLon":-111.80426},"152543":{"stopID":"152543","stopName":"Terrace Lot","stopLat":41.74949,"stopLon":-111.81286},"152544":{"stopID":"152544","stopName":"Holiday Inn","stopLat":41.77291,"stopLon":-111.83595},"152545":{"stopID":"152545","stopName":"Comfort Inn","stopLat":41.76249,"stopLon":-111.83434},"152546":{"stopID":"152546","stopName":"Days Inn","stopLat":41.73988,"stopLon":-111.83488},"152547":{"stopID":"152547","stopName":"Hampton Inn","stopLat":41.73572,"stopLon":-111.83551},"152548":{"stopID":"152548","stopName":"Best Western Plus","stopLat":41.73598,"stopLon":-111.83479},"152549":{"stopID":"152549","stopName":"Baugh Motel","stopLat":41.72838,"stopLon":-111.83512},"152550":{"stopID":"152550","stopName":"Super 8","stopLat":41.71548,"stopLon":-111.83645},"152551":{"stopID":"152551","stopName":"Springhill Suites","stopLat":41.72075,"stopLon":-111.83367},"152552":{"stopID":"152552","stopName":"Towneplace Suites","stopLat":41.72271,"stopLon":-111.83412},"152553":{"stopID":"152553","stopName":"Space Dynamics Lab Social","stopLat":41.76327,"stopLon":-111.82092},"152554":{"stopID":"152554","stopName":"Millenial Towers","stopLat":41.75009,"stopLon":-111.81905},"152555":{"stopID":"152555","stopName":"Alpine Flats","stopLat":41.74836,"stopLon":-111.81558},"153415":{"stopID":"153415","stopName":"La Quinta","stopLat":41.71646,"stopLon":-111.83595},"154404":{"stopID":"154404","stopName":"Center Stadium Small Sat","stopLat":41.75263,"stopLon":-111.81311},"154405":{"stopID":"154405","stopName":"Oakridge Apartments (Orange)","stopLat":41.75648,"stopLon":-111.81391},"154475":{"stopID":"154475","stopName":"Public Safety","stopLat":41.75453,"stopLon":-111.81239}}