{"21512":{"stopID":"21512","stopName":"Killingworth Village, Killingworth, CT, USA","stopLat":41.35071,"stopLon":-72.56116},"21516":{"stopID":"21516","stopName":"Route 81 & Killingworth Village","stopLat":41.35083,"stopLon":-72.56146},"21517":{"stopID":"21517","stopName":"Route 81 & Route 154 Higganum","stopLat":41.49606,"stopLon":-72.55858},"21518":{"stopID":"21518","stopName":"Route 81 & Lake Ave, Higganum","stopLat":41.49198,"stopLon":-72.55827},"21519":{"stopID":"21519","stopName":"Route 81 & Skinner Rd, Higganum","stopLat":41.48068,"stopLon":-72.55626},"21520":{"stopID":"21520","stopName":"415 Killingworth Rd, Haddam, CT, USA","stopLat":41.46872,"stopLon":-72.55814},"21521":{"stopID":"21521","stopName":"Route 81 & Little City Rd, Higganum","stopLat":41.46408,"stopLon":-72.55645},"21523":{"stopID":"21523","stopName":"Route 81 & Ivy Rd, Higganum","stopLat":41.44569,"stopLon":-72.55568},"21524":{"stopID":"21524","stopName":"Route 81 & Woods Rd, Higganum","stopLat":41.44308,"stopLon":-72.55598},"21525":{"stopID":"21525","stopName":"Route 81 & Burr Rd, Higganum","stopLat":41.4321,"stopLon":-72.55954},"21526":{"stopID":"21526","stopName":"Route 81 & Brault Hill Rd, Higganum","stopLat":41.43046,"stopLon":-72.56036},"21527":{"stopID":"21527","stopName":"Route 81 & Hidden Lake Rd, Higganum","stopLat":41.4192,"stopLon":-72.56387},"21528":{"stopID":"21528","stopName":"Route 81 & N Parker Hill, Killingworth","stopLat":41.40705,"stopLon":-72.56188},"21530":{"stopID":"21530","stopName":"Route 81 & HK Middle School, Killingworth","stopLat":41.38589,"stopLon":-72.56463},"21532":{"stopID":"21532","stopName":"Route 81 & Beechwood Rd, Killingworth","stopLat":41.37484,"stopLon":-72.56546},"21534":{"stopID":"21534","stopName":"Route 81 & Killingworth Library","stopLat":41.36597,"stopLon":-72.56611},"21543":{"stopID":"21543","stopName":"Route 81 & Egypt Ln, Clinton","stopLat":41.30956,"stopLon":-72.5391},"21544":{"stopID":"21544","stopName":"Route 81 & Rock Ledge, Clinton","stopLat":41.30581,"stopLon":-72.53555},"21545":{"stopID":"21545","stopName":"Route 81 & Margo Ln, Clinton","stopLat":41.30131,"stopLon":-72.53361},"21546":{"stopID":"21546","stopName":"Route 81 & Woodland Dr, Clinton","stopLat":41.29813,"stopLon":-72.53302},"21548":{"stopID":"21548","stopName":"Route 81 & Walnut Hill Rd, Clinton","stopLat":41.295,"stopLon":-72.53153},"21549":{"stopID":"21549","stopName":"Route 81 & Morgan High School, Clinton","stopLat":41.29969,"stopLon":-72.53286},"21550":{"stopID":"21550","stopName":"Route 81 & Hurd Bridge Rd, Clinton","stopLat":41.30595,"stopLon":-72.53519},"21551":{"stopID":"21551","stopName":"Route 81 & Indian River Rec Complex, Clinton","stopLat":41.30971,"stopLon":-72.53871},"21552":{"stopID":"21552","stopName":"Route 81 & Evergreen, Clinton","stopLat":41.31618,"stopLon":-72.54087},"21553":{"stopID":"21553","stopName":"Route 81 & Hemlock Hill Rd, Clinton","stopLat":41.32182,"stopLon":-72.54448},"21554":{"stopID":"21554","stopName":"Route 81 & Silver Birch Ln, Clinton","stopLat":41.325,"stopLon":-72.5484},"21555":{"stopID":"21555","stopName":"Route 81 & Roast Meat Hill, Clinton","stopLat":41.32681,"stopLon":-72.54924},"21556":{"stopID":"21556","stopName":"Route 81 & Sherwood Forest, Killingworth","stopLat":41.33714,"stopLon":-72.55428},"21557":{"stopID":"21557","stopName":"Route 81 & Stevens Rd, Killingworth","stopLat":41.34758,"stopLon":-72.55967},"21558":{"stopID":"21558","stopName":"Route 81 & Chittenden Rd, Killingworth","stopLat":41.35535,"stopLon":-72.56328},"21559":{"stopID":"21559","stopName":"Route 81 & Route 80, Killingworth","stopLat":41.35934,"stopLon":-72.56565},"21560":{"stopID":"21560","stopName":"Route 81 & Hemlock Dr, Killingworth","stopLat":41.36264,"stopLon":-72.56584},"21561":{"stopID":"21561","stopName":"Route 81 & Killingworth Library, Killingworth","stopLat":41.36595,"stopLon":-72.56583},"21562":{"stopID":"21562","stopName":"Route 81 & Killingworth Town Hall","stopLat":41.36883,"stopLon":-72.56506},"21563":{"stopID":"21563","stopName":"Route 81 & Beechwood Dr","stopLat":41.37463,"stopLon":-72.565},"21564":{"stopID":"21564","stopName":"Route 81 & Lovers Ln, Killingworth","stopLat":41.38159,"stopLon":-72.56562},"21565":{"stopID":"21565","stopName":"Route 81 & HK Middle School","stopLat":41.38565,"stopLon":-72.56436},"21566":{"stopID":"21566","stopName":"Route 81 & Route 148, Killingworth","stopLat":41.39045,"stopLon":-72.56266},"21567":{"stopID":"21567","stopName":"Route 81 & N Parker Hill Rd, Killingworth","stopLat":41.40654,"stopLon":-72.5614},"21568":{"stopID":"21568","stopName":"Route 81 & Old Country Rd, Higganum","stopLat":41.41892,"stopLon":-72.56353},"21569":{"stopID":"21569","stopName":"Route 81 & Parker Hill Rd, Higganum","stopLat":41.43117,"stopLon":-72.5595},"21570":{"stopID":"21570","stopName":"Route 81 & Barman Rd, Higganum","stopLat":41.44429,"stopLon":-72.55544},"21571":{"stopID":"21571","stopName":"Route 81 & Soobitsky Rd, Higganum","stopLat":41.45191,"stopLon":-72.55511},"21572":{"stopID":"21572","stopName":"Route 81 & Ponsett Rd, Higganum","stopLat":41.46366,"stopLon":-72.55576},"21573":{"stopID":"21573","stopName":"415 Killingworth Rd, Higganum","stopLat":41.46905,"stopLon":-72.55743},"21574":{"stopID":"21574","stopName":"Route 81 & Morris Hubbard Rd, Higganum","stopLat":41.48028,"stopLon":-72.55592},"21575":{"stopID":"21575","stopName":"Route 81 & Lake Rd, Higganum","stopLat":41.4922,"stopLon":-72.558},"21576":{"stopID":"21576","stopName":"Route 81 & Route 154, Higganum","stopLat":41.49607,"stopLon":-72.55846},"21577":{"stopID":"21577","stopName":"New London Train Station","stopLat":41.35571,"stopLon":-72.09345},"21578":{"stopID":"21578","stopName":"Route 1 & Flanders Rd","stopLat":41.3662,"stopLon":-72.21065},"21588":{"stopID":"21588","stopName":"Four Mile River Rd & Route 1","stopLat":41.34174,"stopLon":-72.26611},"21592":{"stopID":"21592","stopName":"Four Mile River RD & Colton Rd","stopLat":41.32039,"stopLon":-72.25835},"21594":{"stopID":"21594","stopName":"Four Mile River Rd & Shore Rd","stopLat":41.30937,"stopLon":-72.25555},"21600":{"stopID":"21600","stopName":"Shore Rd & Sea Spray Rd","stopLat":41.29019,"stopLon":-72.27433},"21603":{"stopID":"21603","stopName":"Shore Rd & Cottage Ln","stopLat":41.29048,"stopLon":-72.28043},"21611":{"stopID":"21611","stopName":"Shore Rd & Heflon Farm Rd","stopLat":41.293,"stopLon":-72.31423},"21612":{"stopID":"21612","stopName":"Shore Rd & Bailey Rd","stopLat":41.29522,"stopLon":-72.31587},"21614":{"stopID":"21614","stopName":"Shore Rd & McCurdy Rd","stopLat":41.30135,"stopLon":-72.32676},"21620":{"stopID":"21620","stopName":"Lyme St & Center School","stopLat":41.31783,"stopLon":-72.3295},"21621":{"stopID":"21621","stopName":"Old Lyme Fire Department","stopLat":41.3203,"stopLon":-72.32903},"21622":{"stopID":"21622","stopName":"Lyme Art Academy","stopLat":41.32199,"stopLon":-72.3283},"21623":{"stopID":"21623","stopName":"Rt 1 & Florence Griswold Museum","stopLat":41.32398,"stopLon":-72.32853},"21625":{"stopID":"21625","stopName":"Old Lyme Marketplace","stopLat":41.32243,"stopLon":-72.33768},"21626":{"stopID":"21626","stopName":"Route 156 & Route 1","stopLat":41.32178,"stopLon":-72.34012},"21627":{"stopID":"21627","stopName":"Springbrook Rd & I 95","stopLat":41.31223,"stopLon":-72.36587},"21628":{"stopID":"21628","stopName":"Springbrook Rd & Route 1","stopLat":41.30967,"stopLon":-72.36739},"21631":{"stopID":"21631","stopName":"Old Saybrook Train Station Bus Shelter","stopLat":41.29973,"stopLon":-72.37811},"21633":{"stopID":"21633","stopName":"Route 1 & River St","stopLat":41.2987,"stopLon":-72.37598},"21634":{"stopID":"21634","stopName":"Route 1 & Mill Rock Rd","stopLat":41.30328,"stopLon":-72.37561},"21635":{"stopID":"21635","stopName":"Route 1 & Roamtree Dr","stopLat":41.30716,"stopLon":-72.36939},"21636":{"stopID":"21636","stopName":"Route 1 & Springbrook","stopLat":41.30998,"stopLon":-72.36615},"21637":{"stopID":"21637","stopName":"Route 1 & I 95 N","stopLat":41.31161,"stopLon":-72.36421},"21638":{"stopID":"21638","stopName":"Route 156 Park & Ride","stopLat":41.32123,"stopLon":-72.33945},"21639":{"stopID":"21639","stopName":"Route 1 & Old Lyme Shopping Center","stopLat":41.32381,"stopLon":-72.33377},"21640":{"stopID":"21640","stopName":"Route 1 & Florence Griswold Museum","stopLat":41.32384,"stopLon":-72.32873},"21641":{"stopID":"21641","stopName":"Lyme Academy of Fine Arts","stopLat":41.32224,"stopLon":-72.32831},"21642":{"stopID":"21642","stopName":"Old Lyme Fire Station","stopLat":41.32027,"stopLon":-72.32917},"21643":{"stopID":"21643","stopName":"Lyme Youth Services Bureau","stopLat":41.31887,"stopLon":-72.3295},"21644":{"stopID":"21644","stopName":"Old Lyme Town Hall","stopLat":41.31745,"stopLon":-72.32972},"21645":{"stopID":"21645","stopName":"Lyme St & Library Ln","stopLat":41.31596,"stopLon":-72.32987},"21646":{"stopID":"21646","stopName":"Lyme St & Academy Ln","stopLat":41.31436,"stopLon":-72.33067},"21647":{"stopID":"21647","stopName":"Lyme St & Ferry Rd","stopLat":41.31285,"stopLon":-72.33154},"21648":{"stopID":"21648","stopName":"McCurdy Rd & Johnny Cake Hill Rd","stopLat":41.30866,"stopLon":-72.32729},"21649":{"stopID":"21649","stopName":"McCurdy Rd & Old Lyme Country Club","stopLat":41.3044,"stopLon":-72.32703},"21650":{"stopID":"21650","stopName":"McCurdy Rd & Shore Rd","stopLat":41.30202,"stopLon":-72.32714},"21652":{"stopID":"21652","stopName":"Shore Rd & Pine Rd","stopLat":41.29453,"stopLon":-72.31534},"21653":{"stopID":"21653","stopName":"Shore Rd & Hefflon Farm Rd","stopLat":41.29275,"stopLon":-72.31424},"21654":{"stopID":"21654","stopName":"Shore Rd & Homestead Cir","stopLat":41.2907,"stopLon":-72.31295},"21655":{"stopID":"21655","stopName":"Shore Rd & Old Shore Rd","stopLat":41.28781,"stopLon":-72.31066},"21656":{"stopID":"21656","stopName":"Shore Rd & Buttonball Rd","stopLat":41.2865,"stopLon":-72.30663},"21657":{"stopID":"21657","stopName":"Shore Rd & Haywagon Dr","stopLat":41.28753,"stopLon":-72.29439},"21658":{"stopID":"21658","stopName":"Shore Rd & Dogwood Dr","stopLat":41.28839,"stopLon":-72.2902},"21659":{"stopID":"21659","stopName":"Shore Rd & Center Beach Ave","stopLat":41.28917,"stopLon":-72.28664},"21660":{"stopID":"21660","stopName":"Shore Rd & Columbus Ave","stopLat":41.28979,"stopLon":-72.28432},"21661":{"stopID":"21661","stopName":"Shore Rd & Biscayne Blvd","stopLat":41.29046,"stopLon":-72.282},"21662":{"stopID":"21662","stopName":"Shore Rd & Miami Ave","stopLat":41.29038,"stopLon":-72.2802},"21663":{"stopID":"21663","stopName":"Shore Rd & Hartford Ave","stopLat":41.29031,"stopLon":-72.27845},"21664":{"stopID":"21664","stopName":"Shore Rd & Breen Ave","stopLat":41.29022,"stopLon":-72.27604},"21665":{"stopID":"21665","stopName":"Shore Rd & Sea Spray","stopLat":41.29007,"stopLon":-72.27413},"21666":{"stopID":"21666","stopName":"Shore Rd & Billow Rd","stopLat":41.28993,"stopLon":-72.27194},"21667":{"stopID":"21667","stopName":"Shore Rd & Shore Acres Rd","stopLat":41.29718,"stopLon":-72.25846},"21668":{"stopID":"21668","stopName":"Shore Rd & Oakridge Dr","stopLat":41.30044,"stopLon":-72.25754},"21669":{"stopID":"21669","stopName":"Shore Rd & Mile Creek Rd","stopLat":41.30494,"stopLon":-72.2589},"21670":{"stopID":"21670","stopName":"Shore Rd & Riverdale Landing","stopLat":41.30661,"stopLon":-72.25816},"21671":{"stopID":"21671","stopName":"Shore Rd & Four Mile River Rd","stopLat":41.30864,"stopLon":-72.25556},"21672":{"stopID":"21672","stopName":"Four Mile River Rd & Jean Dr","stopLat":41.31336,"stopLon":-72.25639},"21673":{"stopID":"21673","stopName":"Four Mile River Rd & Colton Rd","stopLat":41.32046,"stopLon":-72.25828},"21674":{"stopID":"21674","stopName":"Four Mile River Rd & Hatchetts Hill Rd","stopLat":41.32205,"stopLon":-72.25906},"21675":{"stopID":"21675","stopName":"Four Mile River Rd & Park & Ride","stopLat":41.32396,"stopLon":-72.25958},"21676":{"stopID":"21676","stopName":"Four Mile River Rd & Over Brook Rd","stopLat":41.33431,"stopLon":-72.26284},"21677":{"stopID":"21677","stopName":"Four Mile Road & Route 1","stopLat":41.34201,"stopLon":-72.26615},"21678":{"stopID":"21678","stopName":"Old Lyme Senior Center","stopLat":41.35036,"stopLon":-72.30576},"21679":{"stopID":"21679","stopName":"Route 1 & Plants Dam Rd","stopLat":41.34485,"stopLon":-72.26017},"21680":{"stopID":"21680","stopName":"Route 1 & Stone Ranch Rd","stopLat":41.35131,"stopLon":-72.25531},"21681":{"stopID":"21681","stopName":"Route 1 & N Bride Brook Rd","stopLat":41.35542,"stopLon":-72.25122},"21682":{"stopID":"21682","stopName":"Route 1 & Dean Rd","stopLat":41.35916,"stopLon":-72.24623},"21683":{"stopID":"21683","stopName":"Route 1 & Naomi Ln","stopLat":41.36087,"stopLon":-72.24019},"21685":{"stopID":"21685","stopName":"Route 1 & Ancient Hwy","stopLat":41.36696,"stopLon":-72.22695},"21686":{"stopID":"21686","stopName":"Route 1 & Upper Pattagansett Rd","stopLat":41.36744,"stopLon":-72.21881},"21687":{"stopID":"21687","stopName":"Route 1 & Church Ln","stopLat":41.36598,"stopLon":-72.21493},"21688":{"stopID":"21688","stopName":"Route 1 & Flanders Road","stopLat":41.36613,"stopLon":-72.2101},"21689":{"stopID":"21689","stopName":"Huntington & Broad St","stopLat":41.35611,"stopLon":-72.09963},"21691":{"stopID":"21691","stopName":"Main St & Elm St","stopLat":41.29517,"stopLon":-72.37684},"21693":{"stopID":"21693","stopName":"Main St & Elmwood St","stopLat":41.29353,"stopLon":-72.37638},"21694":{"stopID":"21694","stopName":"Elm St & Pond Rd","stopLat":41.29502,"stopLon":-72.3778},"21695":{"stopID":"21695","stopName":"Route 1 & Pond Rd","stopLat":41.29443,"stopLon":-72.38055},"21696":{"stopID":"21696","stopName":"Route 1 & King St","stopLat":41.29206,"stopLon":-72.38336},"21697":{"stopID":"21697","stopName":"Route 1 & Ocean State Job Lot","stopLat":41.29004,"stopLon":-72.38633},"21699":{"stopID":"21699","stopName":"Route 1 & Ingham Hill Rd","stopLat":41.2876,"stopLon":-72.39416},"21701":{"stopID":"21701","stopName":"Route 1 & Captain Ln","stopLat":41.28746,"stopLon":-72.40017},"21702":{"stopID":"21702","stopName":"Route 1 & School House Rd","stopLat":41.28735,"stopLon":-72.4044},"21703":{"stopID":"21703","stopName":"Route 1 & Pier Blue Guesthouse","stopLat":41.2869,"stopLon":-72.40757},"21705":{"stopID":"21705","stopName":"Route 1 & Big Y","stopLat":41.28648,"stopLon":-72.41485},"21708":{"stopID":"21708","stopName":"Route 1 & Apple Rehab","stopLat":41.28418,"stopLon":-72.42092},"21710":{"stopID":"21710","stopName":"Route 1 & Green Acres Park","stopLat":41.28083,"stopLon":-72.42797},"21711":{"stopID":"21711","stopName":"Route 1 & Seaford Rd","stopLat":41.28102,"stopLon":-72.42878},"21712":{"stopID":"21712","stopName":"Route 1 & Old Forge Rd","stopLat":41.28071,"stopLon":-72.43188},"21713":{"stopID":"21713","stopName":"Route 1 & SARAH","stopLat":41.28081,"stopLon":-72.43523},"21716":{"stopID":"21716","stopName":"Route 1 & Westbrook Heights Rd","stopLat":41.2834,"stopLon":-72.44157},"21717":{"stopID":"21717","stopName":"Route 1 & Westbrook Ambulance Assoc","stopLat":41.28435,"stopLon":-72.44507},"21718":{"stopID":"21718","stopName":"Essex Rd & Route 1","stopLat":41.28599,"stopLon":-72.44821},"21719":{"stopID":"21719","stopName":"Essex Rd & Emergi Ln","stopLat":41.28769,"stopLon":-72.4478},"21723":{"stopID":"21723","stopName":"Route 1 & Wesley Ave","stopLat":41.28247,"stopLon":-72.45612},"21724":{"stopID":"21724","stopName":"Route 1 & Westbrook Town Hall","stopLat":41.28066,"stopLon":-72.45883},"21725":{"stopID":"21725","stopName":"Route 1 & Eckford Ave","stopLat":41.27951,"stopLon":-72.46055},"21727":{"stopID":"21727","stopName":"Route 1 & Hammock Rd","stopLat":41.27746,"stopLon":-72.46968},"21728":{"stopID":"21728","stopName":"Route 1 & Tidewater Bait & Tackle","stopLat":41.27512,"stopLon":-72.47457},"21729":{"stopID":"21729","stopName":"Route 1 & Osprey Circle","stopLat":41.27503,"stopLon":-72.4796},"21730":{"stopID":"21730","stopName":"Route 1 & Grove Beach Rd N","stopLat":41.27477,"stopLon":-72.48335},"21731":{"stopID":"21731","stopName":"Route 1 & Chestnut Dr","stopLat":41.27405,"stopLon":-72.48607},"21732":{"stopID":"21732","stopName":"Route 1 & Goodwill","stopLat":41.27369,"stopLon":-72.48747},"21733":{"stopID":"21733","stopName":"Route 1 & Grove Gardens","stopLat":41.2733,"stopLon":-72.48913},"21734":{"stopID":"21734","stopName":"Route 1 & Bluff Ave","stopLat":41.2726,"stopLon":-72.49211},"21735":{"stopID":"21735","stopName":"Route 1 & Marine Ave","stopLat":41.27212,"stopLon":-72.49413},"21737":{"stopID":"21737","stopName":"Shoprite","stopLat":41.27044,"stopLon":-72.50212},"21738":{"stopID":"21738","stopName":"Route 1 & Lamplighter","stopLat":41.27167,"stopLon":-72.50445},"21739":{"stopID":"21739","stopName":"Route 1 & AutoZone","stopLat":41.27321,"stopLon":-72.50778},"21740":{"stopID":"21740","stopName":"Route 1 & Plymouth Ct","stopLat":41.27386,"stopLon":-72.50936},"21743":{"stopID":"21743","stopName":"Route 1 & Liberty Green","stopLat":41.27675,"stopLon":-72.51739},"21745":{"stopID":"21745","stopName":"Route 1 & Pierson School","stopLat":41.27754,"stopLon":-72.52144},"21746":{"stopID":"21746","stopName":"Route 1 & Church Rd","stopLat":41.27775,"stopLon":-72.52262},"21748":{"stopID":"21748","stopName":"Killingworth Tpke & Glenwood Rd","stopLat":41.28921,"stopLon":-72.52913},"21750":{"stopID":"21750","stopName":"Killingworth Tpke & Park & Ride","stopLat":41.28925,"stopLon":-72.52935},"21752":{"stopID":"21752","stopName":"Route 1 & John St","stopLat":41.27877,"stopLon":-72.52887},"21754":{"stopID":"21754","stopName":"Route 1 & Lumberyard Rd","stopLat":41.27849,"stopLon":-72.53603},"21756":{"stopID":"21756","stopName":"Route 1 & Evergreen Springs","stopLat":41.27762,"stopLon":-72.54053},"21761":{"stopID":"21761","stopName":"Route 1 & Hamonnasset","stopLat":41.27412,"stopLon":-72.55712},"21763":{"stopID":"21763","stopName":"Route 1 & Signal Hill Rd","stopLat":41.27413,"stopLon":-72.57242},"21765":{"stopID":"21765","stopName":"Route 1 & Lovers Ln","stopLat":41.27792,"stopLon":-72.58468},"21766":{"stopID":"21766","stopName":"Route 1 & Scotland Ave","stopLat":41.27889,"stopLon":-72.59023},"21767":{"stopID":"21767","stopName":"Route 1 & Wall St","stopLat":41.27968,"stopLon":-72.59391},"21768":{"stopID":"21768","stopName":"Wall St & Brookside Rd","stopLat":41.28137,"stopLon":-72.59395},"21769":{"stopID":"21769","stopName":"Bradley Rd & Wall St","stopLat":41.28306,"stopLon":-72.5941},"21770":{"stopID":"21770","stopName":"Bradley Rd & Vista Life Innovations","stopLat":41.28318,"stopLon":-72.59619},"21771":{"stopID":"21771","stopName":"Bradley Road & Route 79","stopLat":41.28235,"stopLon":-72.59826},"21772":{"stopID":"21772","stopName":"Route 79 & Bradley Rd","stopLat":41.28102,"stopLon":-72.5992},"21773":{"stopID":"21773","stopName":"Samson Rock Rd & Route 1","stopLat":41.27884,"stopLon":-72.59833},"21774":{"stopID":"21774","stopName":"Scranton Gazebo Madison","stopLat":41.27862,"stopLon":-72.59531},"21775":{"stopID":"21775","stopName":"Route 1 & E Wharf Rd","stopLat":41.2789,"stopLon":-72.59058},"21777":{"stopID":"21777","stopName":"Route 1 & Sunny Hill Dr","stopLat":41.27663,"stopLon":-72.57951},"21778":{"stopID":"21778","stopName":"Route 1 & Liberty St","stopLat":41.27444,"stopLon":-72.57353},"21779":{"stopID":"21779","stopName":"Route 1 & Beach Tree Cottages","stopLat":41.27346,"stopLon":-72.56586},"21780":{"stopID":"21780","stopName":"Route 1 & Hammonassett","stopLat":41.27403,"stopLon":-72.5574},"21781":{"stopID":"21781","stopName":"Route 1 & Dudley Ln","stopLat":41.27425,"stopLon":-72.55403},"21782":{"stopID":"21782","stopName":"Route 1 & Madison Marketplace","stopLat":41.27443,"stopLon":-72.551},"21783":{"stopID":"21783","stopName":"Route 1 & Cottage Rd","stopLat":41.2752,"stopLon":-72.54823},"21784":{"stopID":"21784","stopName":"Route 1 & William St","stopLat":41.27716,"stopLon":-72.54262},"21785":{"stopID":"21785","stopName":"Route 1 & Knollwood Dr","stopLat":41.27781,"stopLon":-72.53881},"21786":{"stopID":"21786","stopName":"Route 1 & Grove St","stopLat":41.27927,"stopLon":-72.53211},"21788":{"stopID":"21788","stopName":"High St & Silverbrook Ln","stopLat":41.28253,"stopLon":-72.52656},"21789":{"stopID":"21789","stopName":"High St & Sterling Dr","stopLat":41.28396,"stopLon":-72.52649},"21790":{"stopID":"21790","stopName":"High St & Old Mill Rd","stopLat":41.28479,"stopLon":-72.52675},"21791":{"stopID":"21791","stopName":"Killingworth Tpke & HCH Library","stopLat":41.29133,"stopLon":-72.53006},"21792":{"stopID":"21792","stopName":"Clinton Crossings Mall","stopLat":41.29277,"stopLon":-72.53388},"21793":{"stopID":"21793","stopName":"High St & N High St","stopLat":41.28691,"stopLon":-72.52817},"21794":{"stopID":"21794","stopName":"High St & John St","stopLat":41.28349,"stopLon":-72.52656},"21796":{"stopID":"21796","stopName":"Route 1 & Clinton Town Hall","stopLat":41.27786,"stopLon":-72.5233},"21797":{"stopID":"21797","stopName":"Route 1 & Canterbury Ln","stopLat":41.2772,"stopLon":-72.51991},"21799":{"stopID":"21799","stopName":"Route 1 & College St","stopLat":41.27644,"stopLon":-72.51554},"21801":{"stopID":"21801","stopName":"Route 1 & Beach Park Rd","stopLat":41.27367,"stopLon":-72.50912},"21802":{"stopID":"21802","stopName":"Stop & Shop Clinton","stopLat":41.27367,"stopLon":-72.50538},"21803":{"stopID":"21803","stopName":"Route 1 & Log Cabin","stopLat":41.27181,"stopLon":-72.50515},"21804":{"stopID":"21804","stopName":"Route 1 & Moorings","stopLat":41.27097,"stopLon":-72.4996},"21805":{"stopID":"21805","stopName":"Route 1 & Beach Rd","stopLat":41.27225,"stopLon":-72.49325},"21806":{"stopID":"21806","stopName":"Route 1 & Holiday Motel","stopLat":41.27267,"stopLon":-72.49145},"21808":{"stopID":"21808","stopName":"Route 1 & Malones","stopLat":41.27365,"stopLon":-72.48729},"21809":{"stopID":"21809","stopName":"Route 1 & Broadway S","stopLat":41.27405,"stopLon":-72.48576},"21810":{"stopID":"21810","stopName":"Route 1 & Grove Beach Rd S","stopLat":41.27469,"stopLon":-72.48331},"21811":{"stopID":"21811","stopName":"Route 1 & Riverview Rd","stopLat":41.27492,"stopLon":-72.47957},"21812":{"stopID":"21812","stopName":"Route 1 & Brewers West","stopLat":41.27485,"stopLon":-72.47549},"21813":{"stopID":"21813","stopName":"Route 1 & Hammock Rd S","stopLat":41.27704,"stopLon":-72.47055},"21814":{"stopID":"21814","stopName":"Route 1 & Pilot Point Marina","stopLat":41.27839,"stopLon":-72.46486},"21815":{"stopID":"21815","stopName":"Route 1 @ Jet Laundrette","stopLat":41.27918,"stopLon":-72.46107},"21816":{"stopID":"21816","stopName":"Route 1 & Bellstone Ave","stopLat":41.2806,"stopLon":-72.45877},"21817":{"stopID":"21817","stopName":"Route 1 & Seaside Ave","stopLat":41.28247,"stopLon":-72.45599},"21819":{"stopID":"21819","stopName":"S Main St & Route 1","stopLat":41.28502,"stopLon":-72.45122},"21820":{"stopID":"21820","stopName":"Flat Rock Pl & Essex Rd","stopLat":41.28988,"stopLon":-72.44508},"21822":{"stopID":"21822","stopName":"Shoreline Medical Center","stopLat":41.28993,"stopLon":-72.43739},"21823":{"stopID":"21823","stopName":"Essex Rd & Norris Ave","stopLat":41.28779,"stopLon":-72.4478},"21824":{"stopID":"21824","stopName":"Route 1 & Golf Links Rd","stopLat":41.28517,"stopLon":-72.44713},"21825":{"stopID":"21825","stopName":"Route 1 & Salt Island Rd","stopLat":41.28428,"stopLon":-72.44514},"21826":{"stopID":"21826","stopName":"Route 1 & Westbrook Post Office","stopLat":41.28325,"stopLon":-72.44129},"21827":{"stopID":"21827","stopName":"Route 1 & Economy Dr","stopLat":41.28245,"stopLon":-72.43938},"21828":{"stopID":"21828","stopName":"Route 1 & Waters Edge","stopLat":41.28129,"stopLon":-72.43681},"21829":{"stopID":"21829","stopName":"Route 1 & Ripley Hill Rd","stopLat":41.28079,"stopLon":-72.43543},"21830":{"stopID":"21830","stopName":"Route 1 & Foxwood","stopLat":41.28078,"stopLon":-72.43111},"21831":{"stopID":"21831","stopName":"Route 1 & Old Salt Works Rd","stopLat":41.281,"stopLon":-72.42937},"21832":{"stopID":"21832","stopName":"Route 1 Green Acres","stopLat":41.28072,"stopLon":-72.42785},"21833":{"stopID":"21833","stopName":"Route 1 & Sagamore Terrace Rd","stopLat":41.28022,"stopLon":-72.42583},"21834":{"stopID":"21834","stopName":"Route 1 & Chapman Beach Rd","stopLat":41.28126,"stopLon":-72.42325},"21835":{"stopID":"21835","stopName":"Route 1 & Thompson Ln","stopLat":41.28414,"stopLon":-72.42083},"21836":{"stopID":"21836","stopName":"Route 1 & Harvey Dr","stopLat":41.28542,"stopLon":-72.41908},"21837":{"stopID":"21837","stopName":"Route 1 & Spencer Plains Rd","stopLat":41.2862,"stopLon":-72.41718},"21838":{"stopID":"21838","stopName":"Route 1 & Food Bag","stopLat":41.28637,"stopLon":-72.41478},"21839":{"stopID":"21839","stopName":"Route 1 & Center Rd","stopLat":41.28634,"stopLon":-72.41206},"21840":{"stopID":"21840","stopName":"Route 1 & Pier Blue","stopLat":41.28681,"stopLon":-72.40751},"21842":{"stopID":"21842","stopName":"Route 1 & Captains Ln","stopLat":41.28737,"stopLon":-72.40029},"21843":{"stopID":"21843","stopName":"Route 1 & Donnelly Rd","stopLat":41.28743,"stopLon":-72.39782},"21844":{"stopID":"21844","stopName":"Route 1 & Old Post Rd","stopLat":41.28751,"stopLon":-72.3941},"21845":{"stopID":"21845","stopName":"Route 1 & Old Boston Post Rd","stopLat":41.28799,"stopLon":-72.39042},"21846":{"stopID":"21846","stopName":"Route 1 & Staples","stopLat":41.28985,"stopLon":-72.38639},"21848":{"stopID":"21848","stopName":"Route 1 & Lynde St","stopLat":41.2937,"stopLon":-72.38117},"21849":{"stopID":"21849","stopName":"Elm St & Route 1","stopLat":41.29522,"stopLon":-72.38091},"21850":{"stopID":"21850","stopName":"Route 1 & Pizza Hut","stopLat":41.29601,"stopLon":-72.37838},"21851":{"stopID":"21851","stopName":"Old Saybrook Senior Center","stopLat":41.29219,"stopLon":-72.37295},"21853":{"stopID":"21853","stopName":"Route 1 & Stage Rd","stopLat":41.29883,"stopLon":-72.37774},"21857":{"stopID":"21857","stopName":"Middlesex Tpke & St Joseph's","stopLat":41.40091,"stopLon":-72.44183},"21860":{"stopID":"21860","stopName":"Main St & Kirkland Commons","stopLat":41.3924,"stopLon":-72.43867},"21861":{"stopID":"21861","stopName":"Main St & Piano Works","stopLat":41.39064,"stopLon":-72.43815},"21862":{"stopID":"21862","stopName":"Main St & Bridge St","stopLat":41.38918,"stopLon":-72.43743},"21864":{"stopID":"21864","stopName":"Main St & Walgreens","stopLat":41.3846,"stopLon":-72.43546},"21865":{"stopID":"21865","stopName":"Main St & Dunkin Donuts","stopLat":41.38031,"stopLon":-72.43427},"21867":{"stopID":"21867","stopName":"Main St & Pent Rd","stopLat":41.37331,"stopLon":-72.43003},"21868":{"stopID":"21868","stopName":"Main St & Deep River Market","stopLat":41.37111,"stopLon":-72.42881},"21870":{"stopID":"21870","stopName":"Main St & Auto Plus","stopLat":41.36743,"stopLon":-72.42599},"21873":{"stopID":"21873","stopName":"Route 154 & Centerbrook Post Office","stopLat":41.35317,"stopLon":-72.4172},"21876":{"stopID":"21876","stopName":"Bokum Shopping Plaza","stopLat":41.33993,"stopLon":-72.41382},"21877":{"stopID":"21877","stopName":"Westbrook Rd & Meadowbrook","stopLat":41.34668,"stopLon":-72.41471},"21878":{"stopID":"21878","stopName":"Westbrook Rd & Main St","stopLat":41.35093,"stopLon":-72.41681},"21879":{"stopID":"21879","stopName":"Main St & FTD","stopLat":41.35175,"stopLon":-72.41244},"21881":{"stopID":"21881","stopName":"Main St & Essex Steam Train","stopLat":41.35158,"stopLon":-72.4055},"21886":{"stopID":"21886","stopName":"Essex Center","stopLat":41.3532,"stopLon":-72.39096},"21887":{"stopID":"21887","stopName":"Main St & Nott Ln","stopLat":41.35278,"stopLon":-72.38993},"21890":{"stopID":"21890","stopName":"S Main St & Saybrook Rd","stopLat":41.34714,"stopLon":-72.394},"21891":{"stopID":"21891","stopName":"Saybrook Rd & Gates Rd","stopLat":41.34325,"stopLon":-72.39221},"21892":{"stopID":"21892","stopName":"Saybrook Rd & Essex Hills Dr","stopLat":41.33777,"stopLon":-72.38559},"21894":{"stopID":"21894","stopName":"Middlesex Tpke & Saybrook Vetrinary","stopLat":41.32779,"stopLon":-72.37841},"21897":{"stopID":"21897","stopName":"Stage Rd & Route 1","stopLat":41.29915,"stopLon":-72.37626},"21898":{"stopID":"21898","stopName":"Old Saybrook Stop and Shop","stopLat":41.29671,"stopLon":-72.3834},"21899":{"stopID":"21899","stopName":"Elm St & Main St","stopLat":41.29494,"stopLon":-72.3773},"21905":{"stopID":"21905","stopName":"Main St & Maple Ave","stopLat":41.28389,"stopLon":-72.37176},"21906":{"stopID":"21906","stopName":"College St & S Cove Rd","stopLat":41.2834,"stopLon":-72.36262},"21908":{"stopID":"21908","stopName":"Saybrook Point","stopLat":41.28411,"stopLon":-72.35003},"21909":{"stopID":"21909","stopName":"College St & Willard Ave","stopLat":41.28389,"stopLon":-72.35761},"21910":{"stopID":"21910","stopName":"Main St & N Cove Rd","stopLat":41.28337,"stopLon":-72.36365},"21911":{"stopID":"21911","stopName":"Main St & Planting Field Pl","stopLat":41.28408,"stopLon":-72.37247},"21912":{"stopID":"21912","stopName":"Main St & Banbury Crossing","stopLat":41.28466,"stopLon":-72.37444},"21913":{"stopID":"21913","stopName":"Main St & Pennywise Ln","stopLat":41.28664,"stopLon":-72.37536},"21914":{"stopID":"21914","stopName":"Main St & Old Boston Post Rd","stopLat":41.28881,"stopLon":-72.37574},"21915":{"stopID":"21915","stopName":"Main St & Sheffield St","stopLat":41.29079,"stopLon":-72.37597},"21916":{"stopID":"21916","stopName":"Main St & Maynard Rd","stopLat":41.2925,"stopLon":-72.37621},"21917":{"stopID":"21917","stopName":"Main St & Coulter St","stopLat":41.2949,"stopLon":-72.37656},"21918":{"stopID":"21918","stopName":"N Main St & Route 1","stopLat":41.29798,"stopLon":-72.37736},"21919":{"stopID":"21919","stopName":"Route 1 & Main St","stopLat":41.29648,"stopLon":-72.37783},"21922":{"stopID":"21922","stopName":"Middlesex Tpke & Bokum Rd","stopLat":41.31507,"stopLon":-72.38241},"21924":{"stopID":"21924","stopName":"Middlesex Tpke & Old Spring Brook Rd","stopLat":41.32407,"stopLon":-72.37797},"21925":{"stopID":"21925","stopName":"Middlesex Tpke & Essex Rd","stopLat":41.32616,"stopLon":-72.37791},"21926":{"stopID":"21926","stopName":"Middlesex Tpke & Oceanside Auto","stopLat":41.3278,"stopLon":-72.3783},"21927":{"stopID":"21927","stopName":"Middlesex Tpke & Otter Cove","stopLat":41.33176,"stopLon":-72.37956},"21928":{"stopID":"21928","stopName":"Middlesex Tpke & S Cove Rd","stopLat":41.33769,"stopLon":-72.38532},"21929":{"stopID":"21929","stopName":"Middlesex Tpke & Gates Rd","stopLat":41.34335,"stopLon":-72.39219},"21930":{"stopID":"21930","stopName":"Middlesex Tpke & S Main St","stopLat":41.3461,"stopLon":-72.39377},"21931":{"stopID":"21931","stopName":"S Main St & Mack Ln","stopLat":41.34865,"stopLon":-72.39325},"21932":{"stopID":"21932","stopName":"S Main St & Evans Ln","stopLat":41.35133,"stopLon":-72.39371},"21933":{"stopID":"21933","stopName":"Main St & Parker Ln","stopLat":41.35174,"stopLon":-72.38753},"21934":{"stopID":"21934","stopName":"Pratt St & Ferry St","stopLat":41.35269,"stopLon":-72.38642},"21935":{"stopID":"21935","stopName":"Pratt St & N Main St","stopLat":41.35342,"stopLon":-72.39077},"21936":{"stopID":"21936","stopName":"West Ave & Grove St","stopLat":41.35391,"stopLon":-72.39668},"21937":{"stopID":"21937","stopName":"West Ave & Parker Terr","stopLat":41.35398,"stopLon":-72.39884},"21938":{"stopID":"21938","stopName":"West Ave & Sunset Terr","stopLat":41.35288,"stopLon":-72.40093},"21939":{"stopID":"21939","stopName":"West Ave & Middlesex Tpke","stopLat":41.35133,"stopLon":-72.40228},"21940":{"stopID":"21940","stopName":"Main St & Essex Plaza","stopLat":41.35169,"stopLon":-72.40526},"21941":{"stopID":"21941","stopName":"Main St & Essex Court","stopLat":41.35192,"stopLon":-72.4085},"21942":{"stopID":"21942","stopName":"Main St & Quality Care Pharmacy","stopLat":41.35186,"stopLon":-72.41221},"21943":{"stopID":"21943","stopName":"Main and Walnut Ivoryton","stopLat":41.34608,"stopLon":-72.44652},"21945":{"stopID":"21945","stopName":"Westbrook Rd & Industrial Park Rd","stopLat":41.34752,"stopLon":-72.41567},"21946":{"stopID":"21946","stopName":"Route 154 & VFW","stopLat":41.35287,"stopLon":-72.41653},"21947":{"stopID":"21947","stopName":"Route 154 & Park & Ride","stopLat":41.36267,"stopLon":-72.42395},"21948":{"stopID":"21948","stopName":"Main St & Dump Rd","stopLat":41.36516,"stopLon":-72.42445},"21949":{"stopID":"21949","stopName":"Main St & Deep River Rent All","stopLat":41.36771,"stopLon":-72.42611},"21950":{"stopID":"21950","stopName":"Main St & Kelsey Hill Rd","stopLat":41.37004,"stopLon":-72.4281},"21951":{"stopID":"21951","stopName":"Main St & Georgetown Woods","stopLat":41.37135,"stopLon":-72.42886},"21952":{"stopID":"21952","stopName":"Main St & Rattling Valley Rd","stopLat":41.37358,"stopLon":-72.43009},"21953":{"stopID":"21953","stopName":"Main St & Riverview Ave","stopLat":41.37559,"stopLon":-72.43125},"21954":{"stopID":"21954","stopName":"Main St & Union St","stopLat":41.38004,"stopLon":-72.43411},"21955":{"stopID":"21955","stopName":"Main St & Adam's Market Deep River","stopLat":41.38466,"stopLon":-72.43538},"21956":{"stopID":"21956","stopName":"Main St & Village St","stopLat":41.38673,"stopLon":-72.43594},"21958":{"stopID":"21958","stopName":"Main St & Kirtland ST","stopLat":41.3909,"stopLon":-72.43812},"21959":{"stopID":"21959","stopName":"Main St & Spring St","stopLat":41.39209,"stopLon":-72.43847},"21960":{"stopID":"21960","stopName":"Main St & Winter Ave","stopLat":41.39378,"stopLon":-72.43897},"21961":{"stopID":"21961","stopName":"Middlesex Tpke & Pratt St","stopLat":41.40013,"stopLon":-72.44162},"21962":{"stopID":"21962","stopName":"Main St & Railroad Ave","stopLat":41.40135,"stopLon":-72.44177},"21963":{"stopID":"21963","stopName":"Main St & Middlesex Tpke","stopLat":41.40197,"stopLon":-72.44268},"21964":{"stopID":"21964","stopName":"Main St & School Ln","stopLat":41.40223,"stopLon":-72.44512},"21965":{"stopID":"21965","stopName":"Main St & Maple St","stopLat":41.40238,"stopLon":-72.44917},"21966":{"stopID":"21966","stopName":"Main St & William St","stopLat":41.55811,"stopLon":-72.64837},"21967":{"stopID":"21967","stopName":"Main St & Crescent St","stopLat":41.55545,"stopLon":-72.64617},"21969":{"stopID":"21969","stopName":"Randloph Rd & Saybrook Rd","stopLat":41.53528,"stopLon":-72.61488},"21971":{"stopID":"21971","stopName":"Saybrook Rd & Freeman Rd","stopLat":41.51062,"stopLon":-72.591},"21973":{"stopID":"21973","stopName":"Saybrook Rd & Johnson Rd","stopLat":41.5032,"stopLon":-72.57277},"21974":{"stopID":"21974","stopName":"Saybrook Rd & Dunkin Donuts","stopLat":41.50007,"stopLon":-72.56678},"21976":{"stopID":"21976","stopName":"Saybrook Rd & Route 81 Higganum","stopLat":41.49684,"stopLon":-72.55774},"21977":{"stopID":"21977","stopName":"Saybrook Rd & Depot Hill Rd","stopLat":41.49806,"stopLon":-72.55091},"21980":{"stopID":"21980","stopName":"Saybrook Rd & Island Dock Rd","stopLat":41.48527,"stopLon":-72.51853},"21984":{"stopID":"21984","stopName":"Saybrook Rd & Plains Rd","stopLat":41.47086,"stopLon":-72.49502},"21985":{"stopID":"21985","stopName":"Saybrook Rd & Old Turnpike Rd","stopLat":41.4686,"stopLon":-72.48672},"21992":{"stopID":"21992","stopName":"Saybrook Rd & Goose Hill Rd","stopLat":41.42851,"stopLon":-72.4512},"21993":{"stopID":"21993","stopName":"Saybrook Rd & Denlar Dr","stopLat":41.42382,"stopLon":-72.44732},"21995":{"stopID":"21995","stopName":"Route 154 & Chester Town Hall","stopLat":41.42029,"stopLon":-72.44495},"21997":{"stopID":"21997","stopName":"Route 154 & Water St","stopLat":41.41211,"stopLon":-72.44041},"21998":{"stopID":"21998","stopName":"Water St & Story Hill Rd","stopLat":41.41042,"stopLon":-72.44344},"21999":{"stopID":"21999","stopName":"Water St & E Liberty St","stopLat":41.40772,"stopLon":-72.44486},"22000":{"stopID":"22000","stopName":"W Main St & Pelton Hill Rd","stopLat":41.40124,"stopLon":-72.45439},"22001":{"stopID":"22001","stopName":"W Main St & Bokum Rd","stopLat":41.39928,"stopLon":-72.46315},"22002":{"stopID":"22002","stopName":"W Main St & Inspiration Ln","stopLat":41.39976,"stopLon":-72.47073},"22003":{"stopID":"22003","stopName":"Chester Park and Ride","stopLat":41.39896,"stopLon":-72.47407},"22004":{"stopID":"22004","stopName":"Middlesex Tpke & Yale NH Medical Center","stopLat":41.32146,"stopLon":-72.37881},"22005":{"stopID":"22005","stopName":"Middlesex Tpke & Tractor Supply","stopLat":41.31234,"stopLon":-72.38273},"22007":{"stopID":"22007","stopName":"Stage Rd & Rt 1","stopLat":41.29904,"stopLon":-72.37639},"22008":{"stopID":"22008","stopName":"Middlesex Tpke & Reservoir Rd","stopLat":41.30923,"stopLon":-72.38181},"22009":{"stopID":"22009","stopName":"Essex Park and Ride","stopLat":41.36247,"stopLon":-72.42443},"22010":{"stopID":"22010","stopName":"W Main & Inspiration Ln","stopLat":41.39947,"stopLon":-72.47028},"22011":{"stopID":"22011","stopName":"W Main & Bokum Rd","stopLat":41.39923,"stopLon":-72.46297},"22012":{"stopID":"22012","stopName":"W Main & Straights Rd","stopLat":41.40045,"stopLon":-72.45883},"22013":{"stopID":"22013","stopName":"W Main & Pelton Hill Rd","stopLat":41.40129,"stopLon":-72.45408},"22014":{"stopID":"22014","stopName":"Chester Center","stopLat":41.40375,"stopLon":-72.44952},"22015":{"stopID":"22015","stopName":"W Main & E Liberty St","stopLat":41.40771,"stopLon":-72.44477},"22016":{"stopID":"22016","stopName":"W Main & Story Hill Rd","stopLat":41.40996,"stopLon":-72.44379},"22017":{"stopID":"22017","stopName":"W Main & Route 154","stopLat":41.41161,"stopLon":-72.44059},"22018":{"stopID":"22018","stopName":"Route 154 & Kings Hwy","stopLat":41.41628,"stopLon":-72.4422},"22019":{"stopID":"22019","stopName":"Route 154 & Castle View Dr","stopLat":41.42062,"stopLon":-72.44506},"22020":{"stopID":"22020","stopName":"Route 154 & Cherry Hill","stopLat":41.42237,"stopLon":-72.44624},"22021":{"stopID":"22021","stopName":"Route 154 & Denlar Dr","stopLat":41.42388,"stopLon":-72.44725},"22022":{"stopID":"22022","stopName":"Route 154 & Parkers Point Rd","stopLat":41.42878,"stopLon":-72.45131},"22023":{"stopID":"22023","stopName":"Saybrook Rd & Dudley Clark Rd","stopLat":41.44025,"stopLon":-72.46483},"22024":{"stopID":"22024","stopName":"Saybrook Rd & Bridge Rd","stopLat":41.44749,"stopLon":-72.47517},"22026":{"stopID":"22026","stopName":"Saybrook Rd & Saybrook at Haddam","stopLat":41.4505,"stopLon":-72.47762},"22027":{"stopID":"22027","stopName":"Saybrook Rd & Camp Bethel Rd","stopLat":41.45605,"stopLon":-72.47954},"22028":{"stopID":"22028","stopName":"Saybrook Rd & Rutty Ferry Rd","stopLat":41.46334,"stopLon":-72.47924},"22029":{"stopID":"22029","stopName":"Saybrook Rd & River Rd","stopLat":41.46543,"stopLon":-72.48},"22030":{"stopID":"22030","stopName":"Saybrook Rd & Horton Rd","stopLat":41.46918,"stopLon":-72.48866},"22031":{"stopID":"22031","stopName":"Saybrook Rd & River Buff Rd","stopLat":41.47108,"stopLon":-72.49559},"22032":{"stopID":"22032","stopName":"Saybrook Rd & UConn Extension","stopLat":41.47363,"stopLon":-72.50276},"22033":{"stopID":"22033","stopName":"Saybrook Rd & School House Ln","stopLat":41.47849,"stopLon":-72.51379},"22035":{"stopID":"22035","stopName":"Saybrook Rd & Haddam Meadows","stopLat":41.4853,"stopLon":-72.51841},"22036":{"stopID":"22036","stopName":"Saybrook Rd & High Meadow Pl","stopLat":41.48926,"stopLon":-72.52129},"22037":{"stopID":"22037","stopName":"Saybrook Rd & Walkley Hill Rd","stopLat":41.49667,"stopLon":-72.54112},"22038":{"stopID":"22038","stopName":"Saybrook Rd & Depot Hill","stopLat":41.49813,"stopLon":-72.55109},"22039":{"stopID":"22039","stopName":"Rt. 154 and Rt. 81 Higganum","stopLat":41.49693,"stopLon":-72.55773},"22040":{"stopID":"22040","stopName":"Saybrook Rd & Haddam Elementary","stopLat":41.49752,"stopLon":-72.56144},"22041":{"stopID":"22041","stopName":"Rt 154 & Harry's Barber Shop","stopLat":41.50018,"stopLon":-72.56681},"22042":{"stopID":"22042","stopName":"Rt 154 & Johnson Rd","stopLat":41.50371,"stopLon":-72.57365},"22043":{"stopID":"22043","stopName":"Saybrook Rd & Seven Falls","stopLat":41.50668,"stopLon":-72.58009},"22044":{"stopID":"22044","stopName":"Sasybrook Rd & Freeman Rd","stopLat":41.51111,"stopLon":-72.59128},"22045":{"stopID":"22045","stopName":"Saybrook Rd & Aircraft Rd","stopLat":41.5122,"stopLon":-72.5924},"22046":{"stopID":"22046","stopName":"Randolph Rd & Saybrook Rd","stopLat":41.53516,"stopLon":-72.61504},"22047":{"stopID":"22047","stopName":"Middlesex Community College","stopLat":41.53986,"stopLon":-72.61207},"22048":{"stopID":"22048","stopName":"Saybrook Rd & Middletown Professional Park","stopLat":41.54094,"stopLon":-72.62352},"22049":{"stopID":"22049","stopName":"Middlesex Hospital","stopLat":41.55576,"stopLon":-72.64621},"22050":{"stopID":"22050","stopName":"Main & MLK","stopLat":41.55795,"stopLon":-72.64795},"22051":{"stopID":"22051","stopName":"Middletown Bus Terminal","stopLat":41.56129,"stopLon":-72.64918},"22052":{"stopID":"22052","stopName":"Main St & Essex Elementary","stopLat":41.35105,"stopLon":-72.41942},"22053":{"stopID":"22053","stopName":"Main St & Earl St","stopLat":41.34937,"stopLon":-72.4226},"22054":{"stopID":"22054","stopName":"Main St & Falls River Dr","stopLat":41.34739,"stopLon":-72.43148},"22055":{"stopID":"22055","stopName":"Main St & Comstock","stopLat":41.34746,"stopLon":-72.43657},"22056":{"stopID":"22056","stopName":"Main St & N Main St","stopLat":41.3484,"stopLon":-72.44115},"22057":{"stopID":"22057","stopName":"Main St & Ivoryton Inn","stopLat":41.34721,"stopLon":-72.44297},"22058":{"stopID":"22058","stopName":"Town Woods & Rogers Lake","stopLat":41.35049,"stopLon":-72.30291},"22059":{"stopID":"22059","stopName":"Town Woods & Grassy Hill Rd","stopLat":41.34989,"stopLon":-72.29532},"22060":{"stopID":"22060","stopName":"Lymewood","stopLat":41.34981,"stopLon":-72.28563},"22061":{"stopID":"22061","stopName":"Rye Field","stopLat":41.34747,"stopLon":-72.28042},"24093":{"stopID":"24093","stopName":"Route 1 & Old Clinton Rd Westbrook","stopLat":41.28588,"stopLon":-72.45131},"24095":{"stopID":"24095","stopName":"S Main St & Route 1 Westbrook","stopLat":41.28344,"stopLon":-72.45405},"25459":{"stopID":"25459","stopName":"Westbrook Outlets","stopLat":41.28864,"stopLon":-72.42863},"27053":{"stopID":"27053","stopName":"288 Flanders Rd","stopLat":41.36176,"stopLon":-72.20973},"27054":{"stopID":"27054","stopName":"288 Flanders Rd, East Lyme, CT, USA","stopLat":41.36229,"stopLon":-72.20938},"27060":{"stopID":"27060","stopName":"Lobster Landing","stopLat":41.2693,"stopLon":-72.52818},"27061":{"stopID":"27061","stopName":"Route 1 & Downtown Clinton","stopLat":41.27861,"stopLon":-72.52569},"27077":{"stopID":"27077","stopName":"Clinton Town Docks","stopLat":41.26948,"stopLon":-72.53004},"27079":{"stopID":"27079","stopName":"East End","stopLat":41.2732,"stopLon":-72.48918},"56597":{"stopID":"56597","stopName":"Valley Shore Ymca, Westbrook, CT, USA","stopLat":41.29365,"stopLon":-72.43417},"56598":{"stopID":"56598","stopName":"Goodspeed Opera House","stopLat":41.45234,"stopLon":-72.46199},"58391":{"stopID":"58391","stopName":"E Main St & Downtown Clinton (Clinton Arts District)","stopLat":41.27846,"stopLon":-72.52545},"58393":{"stopID":"58393","stopName":"Hammonasset Beach","stopLat":41.26143,"stopLon":-72.55682},"58395":{"stopID":"58395","stopName":"Madison Train Station","stopLat":41.28261,"stopLon":-72.59914},"58396":{"stopID":"58396","stopName":"Madison Park and Ride","stopLat":41.28879,"stopLon":-72.60175},"58397":{"stopID":"58397","stopName":"Stop & Shop Commons","stopLat":41.27291,"stopLon":-72.50747},"58398":{"stopID":"58398","stopName":"Route 1 & Pearl Street","stopLat":41.27869,"stopLon":-72.52888},"58399":{"stopID":"58399","stopName":"Liberty Green & Route 1","stopLat":41.27689,"stopLon":-72.5175},"97739":{"stopID":"97739","stopName":"Hammonassett Campgrounds","stopLat":41.26916,"stopLon":-72.55711},"97740":{"stopID":"97740","stopName":"Clinton Train Station Central Ave","stopLat":41.27999,"stopLon":-72.5284},"97742":{"stopID":"97742","stopName":"Madison Center -Wall Street","stopLat":41.28009,"stopLon":-72.59458},"144946":{"stopID":"144946","stopName":"Church Street/ Broad Street","stopLat":41.5562,"stopLon":-72.6493},"144947":{"stopID":"144947","stopName":"William & Hamlin","stopLat":41.55664,"stopLon":-72.65209},"144948":{"stopID":"144948","stopName":"Wadsworth St / Henley St","stopLat":41.54136,"stopLon":-72.67527},"144949":{"stopID":"144949","stopName":"Pine St / Randolph Rd","stopLat":41.52543,"stopLon":-72.66827},"144950":{"stopID":"144950","stopName":"Blue & Wesleyan Hills","stopLat":41.52421,"stopLon":-72.66678},"144951":{"stopID":"144951","stopName":"Randolph & Highland","stopLat":41.53164,"stopLon":-72.65513},"144952":{"stopID":"144952","stopName":"Washington Street (Washington Plaza)","stopLat":41.55435,"stopLon":-72.68073},"144953":{"stopID":"144953","stopName":"Smith & Middle St","stopLat":41.58433,"stopLon":-72.72047},"144954":{"stopID":"144954","stopName":"Westfield Shopping Town (Meriden Mall)","stopLat":41.55074,"stopLon":-72.8098},"144955":{"stopID":"144955","stopName":"Meriden RailRoad Station","stopLat":41.53963,"stopLon":-72.79984},"144956":{"stopID":"144956","stopName":"Pearl St / Liberty St","stopLat":41.53393,"stopLon":-72.78273},"144957":{"stopID":"144957","stopName":"East Main & Preston","stopLat":41.52605,"stopLon":-72.75392},"144958":{"stopID":"144958","stopName":"William & High (Wesleyan University)","stopLat":41.55572,"stopLon":-72.65449},"144959":{"stopID":"144959","stopName":"East St & Westlake Dr","stopLat":41.59859,"stopLon":-72.69522},"144960":{"stopID":"144960","stopName":"Westlake Dr & Trolley Crossing","stopLat":41.59831,"stopLon":-72.69771},"144961":{"stopID":"144961","stopName":"Washington & High St","stopLat":41.5605,"stopLon":-72.6561},"144962":{"stopID":"144962","stopName":"Daddario Rd / Cubeta Rd","stopLat":41.53824,"stopLon":-72.66757},"144963":{"stopID":"144963","stopName":"South Main St Plaza","stopLat":41.54475,"stopLon":-72.64957},"144964":{"stopID":"144964","stopName":"Marlborough Street Burger King","stopLat":41.57276,"stopLon":-72.6393},"144965":{"stopID":"144965","stopName":"Route 16/ Route 66 Inbound","stopLat":41.56403,"stopLon":-72.54039},"144966":{"stopID":"144966","stopName":"Food Bag - Route 16","stopLat":41.56729,"stopLon":-72.49763},"144967":{"stopID":"144967","stopName":"Lake Drive Turnaround","stopLat":41.60084,"stopLon":-72.48775},"144968":{"stopID":"144968","stopName":"Food bag - Route 66","stopLat":41.5838,"stopLon":-72.5022},"144969":{"stopID":"144969","stopName":"Clark hill rd / North main st","stopLat":41.59596,"stopLon":-72.51192},"144970":{"stopID":"144970","stopName":"Route 16/ Route 66 Outbound","stopLat":41.56448,"stopLon":-72.54019},"144971":{"stopID":"144971","stopName":"Greystone Manor","stopLat":41.57561,"stopLon":-72.62806},"144972":{"stopID":"144972","stopName":"Portland Convalescent","stopLat":41.5786,"stopLon":-72.63621},"144973":{"stopID":"144973","stopName":"Price Rite","stopLat":41.60733,"stopLon":-72.70896},"144974":{"stopID":"144974","stopName":"Wal-Mart","stopLat":41.60589,"stopLon":-72.7125},"144975":{"stopID":"144975","stopName":"FedEx","stopLat":41.59856,"stopLon":-72.72032},"144976":{"stopID":"144976","stopName":"Westlake Dr & East St","stopLat":41.59909,"stopLon":-72.69516},"144977":{"stopID":"144977","stopName":"RT 372 & Willowbrook","stopLat":41.60233,"stopLon":-72.68524},"144978":{"stopID":"144978","stopName":"Newfield / Washington Streets","stopLat":41.55896,"stopLon":-72.66076},"144979":{"stopID":"144979","stopName":"Middletown High Bus Stop Inbound","stopLat":41.57788,"stopLon":-72.6725},"144980":{"stopID":"144980","stopName":"Stop & Shop","stopLat":41.60241,"stopLon":-72.67867},"144981":{"stopID":"144981","stopName":"Newfield & Tuttle Outbound","stopLat":41.59278,"stopLon":-72.67612},"144982":{"stopID":"144982","stopName":"Middletown High Bus Stop Outbound","stopLat":41.5779,"stopLon":-72.67231},"144983":{"stopID":"144983","stopName":"Newfield Towers","stopLat":41.56594,"stopLon":-72.67032},"144984":{"stopID":"144984","stopName":"High / Grand Street","stopLat":41.56372,"stopLon":-72.65733},"144985":{"stopID":"144985","stopName":"North Main Street","stopLat":41.5669,"stopLon":-72.65344},"144986":{"stopID":"144986","stopName":"Pearl Street","stopLat":41.56105,"stopLon":-72.65442},"144987":{"stopID":"144987","stopName":"Big Lots","stopLat":41.55601,"stopLon":-72.68133},"144988":{"stopID":"144988","stopName":"Price Chopper","stopLat":41.55321,"stopLon":-72.68074},"144989":{"stopID":"144989","stopName":"Sagamore Hills","stopLat":41.54981,"stopLon":-72.69126},"144990":{"stopID":"144990","stopName":"4 Corners","stopLat":41.56372,"stopLon":-72.70159},"144991":{"stopID":"144991","stopName":"Luther Ridge","stopLat":41.57026,"stopLon":-72.6935},"144992":{"stopID":"144992","stopName":"West & Wadsworth","stopLat":41.54282,"stopLon":-72.67033},"144993":{"stopID":"144993","stopName":"Shilo Manor","stopLat":41.54911,"stopLon":-72.67044},"144995":{"stopID":"144995","stopName":"Sbona Towers","stopLat":41.55766,"stopLon":-72.64939},"144996":{"stopID":"144996","stopName":"Metro Square","stopLat":41.55877,"stopLon":-72.64648},"144997":{"stopID":"144997","stopName":"Stonegate Apartments","stopLat":41.52759,"stopLon":-72.66286},"144998":{"stopID":"144998","stopName":"Long Hill & Blue","stopLat":41.51676,"stopLon":-72.67082},"144999":{"stopID":"144999","stopName":"Santangelo Circle","stopLat":41.54125,"stopLon":-72.66453},"145000":{"stopID":"145000","stopName":"Marino Manner","stopLat":41.53178,"stopLon":-72.662},"145001":{"stopID":"145001","stopName":"Ridge Rd / Randolph Rd","stopLat":41.53279,"stopLon":-72.64211},"145002":{"stopID":"145002","stopName":"Farm Hill Elementary School","stopLat":41.53855,"stopLon":-72.64236},"145003":{"stopID":"145003","stopName":"Russell St / Huntinghill Ave","stopLat":41.54172,"stopLon":-72.64758},"145004":{"stopID":"145004","stopName":"Main & Pleasant","stopLat":41.55677,"stopLon":-72.64751},"145005":{"stopID":"145005","stopName":"Walnut St / Maple St","stopLat":41.55433,"stopLon":-72.6384},"145006":{"stopID":"145006","stopName":"CVH / Silver St","stopLat":41.55419,"stopLon":-72.6287},"145007":{"stopID":"145007","stopName":"Main St Ext / East Main St","stopLat":41.54913,"stopLon":-72.63958},"145008":{"stopID":"145008","stopName":"Saybrook Road Medical Centers","stopLat":41.54188,"stopLon":-72.62073},"145009":{"stopID":"145009","stopName":"Saybrook Rd / Reservoir Rd","stopLat":41.53917,"stopLon":-72.61991},"145010":{"stopID":"145010","stopName":"Summer Hill Apartments Stop 1","stopLat":41.52894,"stopLon":-72.61146},"145011":{"stopID":"145011","stopName":"Stop & Shop Plaza","stopLat":41.54609,"stopLon":-72.63749},"145012":{"stopID":"145012","stopName":"Downtown Terminal","stopLat":41.56134,"stopLon":-72.64912},"145013":{"stopID":"145013","stopName":"Main Street Market","stopLat":41.56148,"stopLon":-72.65023},"145014":{"stopID":"145014","stopName":"Main & Ferry","stopLat":41.56357,"stopLon":-72.65147},"145015":{"stopID":"145015","stopName":"Main & Rapallo","stopLat":41.56504,"stopLon":-72.65224},"145016":{"stopID":"145016","stopName":"N Main & Free CTR","stopLat":41.56825,"stopLon":-72.65399},"145017":{"stopID":"145017","stopName":"N Main & Pease Ave","stopLat":41.56986,"stopLon":-72.65606},"145018":{"stopID":"145018","stopName":"N Main & High St","stopLat":41.57134,"stopLon":-72.65864},"145019":{"stopID":"145019","stopName":"High & Stack St","stopLat":41.5681,"stopLon":-72.65884},"145020":{"stopID":"145020","stopName":"High & Spring St","stopLat":41.5665,"stopLon":-72.65866},"145021":{"stopID":"145021","stopName":"Grand & Prospect","stopLat":41.563,"stopLon":-72.65987},"145022":{"stopID":"145022","stopName":"Liberty & Berlin","stopLat":41.56098,"stopLon":-72.6615},"145023":{"stopID":"145023","stopName":"Charton Terrace","stopLat":41.56254,"stopLon":-72.66818},"145024":{"stopID":"145024","stopName":"Stonycrest Towers","stopLat":41.56868,"stopLon":-72.67097},"145025":{"stopID":"145025","stopName":"Newfield & Condon St","stopLat":41.57171,"stopLon":-72.67153},"145026":{"stopID":"145026","stopName":"Newfield & Mile Lane","stopLat":41.58327,"stopLon":-72.67319},"145027":{"stopID":"145027","stopName":"Ghezzi's","stopLat":41.58541,"stopLon":-72.67399},"145028":{"stopID":"145028","stopName":"Dunkin Donuts","stopLat":41.60005,"stopLon":-72.67665},"145029":{"stopID":"145029","stopName":"Mcdonalds","stopLat":41.60142,"stopLon":-72.67625},"145030":{"stopID":"145030","stopName":"Newfield & Tuttle Rd","stopLat":41.5948,"stopLon":-72.67679},"145031":{"stopID":"145031","stopName":"Newfield & Mile ln Inbound","stopLat":41.58357,"stopLon":-72.67341},"145032":{"stopID":"145032","stopName":"Newfield & Stonycrest Dr Inbound","stopLat":41.56913,"stopLon":-72.67125},"145033":{"stopID":"145033","stopName":"Newfield Towers Inbound","stopLat":41.56587,"stopLon":-72.67053},"145034":{"stopID":"145034","stopName":"Washington & Veterans Way","stopLat":41.55983,"stopLon":-72.65813},"145035":{"stopID":"145035","stopName":"Washington & Broad","stopLat":41.56145,"stopLon":-72.65326},"145036":{"stopID":"145036","stopName":"Westlake Drive & Russett Ln","stopLat":41.59704,"stopLon":-72.70131},"145037":{"stopID":"145037","stopName":"Westlake Drive & Rising Trail Dr","stopLat":41.59471,"stopLon":-72.70371},"145038":{"stopID":"145038","stopName":"Westlake Drive & Northwoods Ln","stopLat":41.59376,"stopLon":-72.70379},"145039":{"stopID":"145039","stopName":"Westlake Drive & Town Ridge","stopLat":41.5894,"stopLon":-72.70767},"145040":{"stopID":"145040","stopName":"Westlake Drive & Highlands Cr","stopLat":41.58792,"stopLon":-72.70832},"145041":{"stopID":"145041","stopName":"Westlake Drive & Carriage Crossing Ln","stopLat":41.58674,"stopLon":-72.70895},"145042":{"stopID":"145042","stopName":"Westlake Drive & Smith St","stopLat":41.58428,"stopLon":-72.70954},"145043":{"stopID":"145043","stopName":"Smith & Industrial Park Rd","stopLat":41.58388,"stopLon":-72.71649},"145044":{"stopID":"145044","stopName":"Middle & Timber Ridge Rd","stopLat":41.59054,"stopLon":-72.72108},"145045":{"stopID":"145045","stopName":"Main & Mill St","stopLat":41.60873,"stopLon":-72.7185},"145046":{"stopID":"145046","stopName":"West St & Cromwell Hills Dr","stopLat":41.60271,"stopLon":-72.6803},"145047":{"stopID":"145047","stopName":"Main St Extension & Cooley Ave","stopLat":41.55231,"stopLon":-72.64399},"145048":{"stopID":"145048","stopName":"Main St Extension & Mill St","stopLat":41.54864,"stopLon":-72.64003},"145049":{"stopID":"145049","stopName":"E Main & Hillside Av","stopLat":41.54464,"stopLon":-72.63852},"145050":{"stopID":"145050","stopName":"East Main & Jensen Pl","stopLat":41.54222,"stopLon":-72.6362},"145051":{"stopID":"145051","stopName":"Millbrook Rd & Randolph Rd","stopLat":41.53367,"stopLon":-72.63385},"145052":{"stopID":"145052","stopName":"South Fire District Fire Station","stopLat":41.53355,"stopLon":-72.63004},"145053":{"stopID":"145053","stopName":"Xavier High School","stopLat":41.53392,"stopLon":-72.62104},"145054":{"stopID":"145054","stopName":"Summerhill Apartments Stop 2","stopLat":41.53018,"stopLon":-72.61301},"145055":{"stopID":"145055","stopName":"Tradewinds Plaza","stopLat":41.53717,"stopLon":-72.61634},"145056":{"stopID":"145056","stopName":"400 Saybrook Rd","stopLat":41.54429,"stopLon":-72.62745},"145057":{"stopID":"145057","stopName":"Standpipe Rd & Bow Ln","stopLat":41.54752,"stopLon":-72.62984},"145058":{"stopID":"145058","stopName":"Saybrook rd & Plaza Entrance","stopLat":41.54769,"stopLon":-72.63718},"145059":{"stopID":"145059","stopName":"East Main St & Silver St","stopLat":41.55134,"stopLon":-72.64136},"145060":{"stopID":"145060","stopName":"Silver & Wall","stopLat":41.5521,"stopLon":-72.63843},"145061":{"stopID":"145061","stopName":"Silver & Silvermine","stopLat":41.55721,"stopLon":-72.62143},"145062":{"stopID":"145062","stopName":"Maple & East Main","stopLat":41.55434,"stopLon":-72.64299},"145064":{"stopID":"145064","stopName":"Athenian Diner","stopLat":41.55453,"stopLon":-72.68075},"145065":{"stopID":"145065","stopName":"Pratt & Miller","stopLat":41.53847,"stopLon":-72.79835},"145066":{"stopID":"145066","stopName":"Pratt & Center","stopLat":41.54024,"stopLon":-72.79389},"145067":{"stopID":"145067","stopName":"Camp & Broad","stopLat":41.54193,"stopLon":-72.78661},"145068":{"stopID":"145068","stopName":"East Main & Research Pkwy","stopLat":41.52565,"stopLon":-72.76012},"145069":{"stopID":"145069","stopName":"East Main & Pomeroy","stopLat":41.52615,"stopLon":-72.76689},"145070":{"stopID":"145070","stopName":"East Main & Gravel","stopLat":41.5285,"stopLon":-72.77533},"145071":{"stopID":"145071","stopName":"Liberty & Parker","stopLat":41.53512,"stopLon":-72.78934},"145072":{"stopID":"145072","stopName":"Liberty & Center","stopLat":41.53591,"stopLon":-72.79323},"145073":{"stopID":"145073","stopName":"Liberty & Catlin","stopLat":41.53667,"stopLon":-72.79769},"145074":{"stopID":"145074","stopName":"E Main & Pratt","stopLat":41.53741,"stopLon":-72.80043},"145075":{"stopID":"145075","stopName":"Mill & State","stopLat":41.54075,"stopLon":-72.79831},"145076":{"stopID":"145076","stopName":"Main & College","stopLat":41.55951,"stopLon":-72.6493},"145077":{"stopID":"145077","stopName":"South Main & Church","stopLat":41.55587,"stopLon":-72.64871},"145078":{"stopID":"145078","stopName":"South Main & Crescent Outbound","stopLat":41.55479,"stopLon":-72.64897},"145079":{"stopID":"145079","stopName":"South Main & Loveland","stopLat":41.55299,"stopLon":-72.64942},"145080":{"stopID":"145080","stopName":"South Main & Glynn","stopLat":41.55179,"stopLon":-72.64975},"145081":{"stopID":"145081","stopName":"South Main & Warwick","stopLat":41.5502,"stopLon":-72.65013},"145082":{"stopID":"145082","stopName":"South Main & Pameacha","stopLat":41.54748,"stopLon":-72.65096},"145083":{"stopID":"145083","stopName":"South Main & McDonalds","stopLat":41.54022,"stopLon":-72.65326},"145084":{"stopID":"145084","stopName":"Farm Hill Rd @ Plaza","stopLat":41.54304,"stopLon":-72.65061},"145085":{"stopID":"145085","stopName":"Russell & Ridge","stopLat":41.54235,"stopLon":-72.64276},"145086":{"stopID":"145086","stopName":"Randolph & South Main","stopLat":41.53164,"stopLon":-72.66069},"145087":{"stopID":"145087","stopName":"Long Hill & Long Ln","stopLat":41.53612,"stopLon":-72.66613},"145088":{"stopID":"145088","stopName":"Pine & Long Hill","stopLat":41.5373,"stopLon":-72.66231},"145089":{"stopID":"145089","stopName":"Cubeta & Kieft","stopLat":41.54002,"stopLon":-72.66727},"145090":{"stopID":"145090","stopName":"Long Hill & Liberty Bank","stopLat":41.53526,"stopLon":-72.66871},"145091":{"stopID":"145091","stopName":"Long Hill & Randolph","stopLat":41.53113,"stopLon":-72.671},"145092":{"stopID":"145092","stopName":"Long Hill & Daniels","stopLat":41.52802,"stopLon":-72.67226},"145093":{"stopID":"145093","stopName":"Long Hill & Yellow","stopLat":41.52631,"stopLon":-72.67256},"145094":{"stopID":"145094","stopName":"Long Hill & Long Hill","stopLat":41.52403,"stopLon":-72.6709},"145095":{"stopID":"145095","stopName":"DSS / DCF","stopLat":41.50344,"stopLon":-72.67559},"145097":{"stopID":"145097","stopName":"Main & Bartlett","stopLat":41.59056,"stopLon":-72.6239},"145098":{"stopID":"145098","stopName":"Bartlett & High","stopLat":41.58989,"stopLon":-72.62015},"145099":{"stopID":"145099","stopName":"High & William","stopLat":41.58574,"stopLon":-72.62321},"145100":{"stopID":"145100","stopName":"Portland High School","stopLat":41.58058,"stopLon":-72.62552},"145101":{"stopID":"145101","stopName":"High & Freestone","stopLat":41.57092,"stopLon":-72.631},"145102":{"stopID":"145102","stopName":"High & Marlborough","stopLat":41.5698,"stopLon":-72.63164},"145103":{"stopID":"145103","stopName":"Adams Market","stopLat":41.56869,"stopLon":-72.62762},"145104":{"stopID":"145104","stopName":"Solano Inn","stopLat":41.56201,"stopLon":-72.58514},"145105":{"stopID":"145105","stopName":"W High Cobalt Center","stopLat":41.56244,"stopLon":-72.55584},"145106":{"stopID":"145106","stopName":"W High & Maple","stopLat":41.57935,"stopLon":-72.51119},"145107":{"stopID":"145107","stopName":"W High & Childs","stopLat":41.57104,"stopLon":-72.52554},"145108":{"stopID":"145108","stopName":"N Main & Stop and Shop","stopLat":41.58339,"stopLon":-72.50657},"145109":{"stopID":"145109","stopName":"Summit & Flanders","stopLat":41.57995,"stopLon":-72.49735},"145110":{"stopID":"145110","stopName":"Summit & Main","stopLat":41.5759,"stopLon":-72.50231},"145111":{"stopID":"145111","stopName":"East Hampton Public Library","stopLat":41.57289,"stopLon":-72.50126},"145112":{"stopID":"145112","stopName":"Middletown & Skinner","stopLat":41.56468,"stopLon":-72.50846},"145113":{"stopID":"145113","stopName":"Middletown & Aldens Crossing","stopLat":41.56431,"stopLon":-72.52914},"145114":{"stopID":"145114","stopName":"Middletown & Hog Hill","stopLat":41.56406,"stopLon":-72.53822},"145115":{"stopID":"145115","stopName":"Portland-Cobalt & Gospel","stopLat":41.57582,"stopLon":-72.60684},"145116":{"stopID":"145116","stopName":"Main Street","stopLat":41.57207,"stopLon":-72.64157},"145117":{"stopID":"145117","stopName":"High & Church","stopLat":41.55416,"stopLon":-72.65462},"145118":{"stopID":"145118","stopName":"Cross St Freeman Athletic Center","stopLat":41.55199,"stopLon":-72.6618},"145119":{"stopID":"145119","stopName":"Cross & Long","stopLat":41.5511,"stopLon":-72.66434},"145120":{"stopID":"145120","stopName":"Butternut & Thomas","stopLat":41.55114,"stopLon":-72.66805},"145121":{"stopID":"145121","stopName":"Pondview Apartments","stopLat":41.55033,"stopLon":-72.67065},"145122":{"stopID":"145122","stopName":"Butternut & West","stopLat":41.55017,"stopLon":-72.6718},"145123":{"stopID":"145123","stopName":"West & Aresco","stopLat":41.54778,"stopLon":-72.67145},"145124":{"stopID":"145124","stopName":"West & Rogers","stopLat":41.54447,"stopLon":-72.6707},"145125":{"stopID":"145125","stopName":"Wadsworth & Shaefer","stopLat":41.54264,"stopLon":-72.67129},"145126":{"stopID":"145126","stopName":"Hendley & Butternut","stopLat":41.54716,"stopLon":-72.67629},"145127":{"stopID":"145127","stopName":"Middlefield & George","stopLat":41.54316,"stopLon":-72.68686},"145128":{"stopID":"145128","stopName":"George & Washington","stopLat":41.55189,"stopLon":-72.68776},"145129":{"stopID":"145129","stopName":"Camp & Washington","stopLat":41.5539,"stopLon":-72.68617},"145130":{"stopID":"145130","stopName":"Camp & Westfield","stopLat":41.56346,"stopLon":-72.68773},"145131":{"stopID":"145131","stopName":"Ridgewood & Congdon","stopLat":41.56905,"stopLon":-72.69106},"145132":{"stopID":"145132","stopName":"Congdon & East","stopLat":41.56966,"stopLon":-72.70232},"145133":{"stopID":"145133","stopName":"Ballfall & Lorraine","stopLat":41.55003,"stopLon":-72.70105},"145134":{"stopID":"145134","stopName":"Washington & West","stopLat":41.55488,"stopLon":-72.67313},"145135":{"stopID":"145135","stopName":"Washington Street & Rourke Dr","stopLat":41.55613,"stopLon":-72.66876},"145136":{"stopID":"145136","stopName":"Washington & Vine","stopLat":41.55856,"stopLon":-72.66122},"145137":{"stopID":"145137","stopName":"East Main & Baer","stopLat":41.54766,"stopLon":-72.63924},"145138":{"stopID":"145138","stopName":"Silver & Elm","stopLat":41.5517,"stopLon":-72.64036},"145139":{"stopID":"145139","stopName":"Dekoven & Union","stopLat":41.5574,"stopLon":-72.64498},"145140":{"stopID":"145140","stopName":"East Main & Maple","stopLat":41.52553,"stopLon":-72.76246},"145141":{"stopID":"145141","stopName":"South Main & Highland","stopLat":41.53687,"stopLon":-72.65507},"145142":{"stopID":"145142","stopName":"South Main & Ward","stopLat":41.53974,"stopLon":-72.65331},"145143":{"stopID":"145143","stopName":"South Main & Crescent inbound","stopLat":41.55474,"stopLon":-72.64878},"145144":{"stopID":"145144","stopName":"Dekoven Dr & MLK","stopLat":41.55847,"stopLon":-72.64588},"145145":{"stopID":"145145","stopName":"Main & Marlborough","stopLat":41.57339,"stopLon":-72.64024},"145146":{"stopID":"145146","stopName":"Community Health Center","stopLat":41.5651,"stopLon":-72.65264},"145147":{"stopID":"145147","stopName":"Main & Liberty","stopLat":41.5642,"stopLon":-72.65217},"145148":{"stopID":"145148","stopName":"Russell Library","stopLat":41.56017,"stopLon":-72.65209},"145149":{"stopID":"145149","stopName":"Wesleyan University","stopLat":41.55373,"stopLon":-72.65746},"145150":{"stopID":"145150","stopName":"William & Broad","stopLat":41.55718,"stopLon":-72.65033},"145151":{"stopID":"145151","stopName":"Main St Ext & W Silver St","stopLat":41.55121,"stopLon":-72.64331},"145152":{"stopID":"145152","stopName":"Silver St & McKenzie St","stopLat":41.55261,"stopLon":-72.63604},"145153":{"stopID":"145153","stopName":"Silver St & Mullaney Way","stopLat":41.55379,"stopLon":-72.63042},"145154":{"stopID":"145154","stopName":"Silver St & Flood Dr","stopLat":41.55425,"stopLon":-72.62808},"145155":{"stopID":"145155","stopName":"Millbrook & Sand Hill rd","stopLat":41.53906,"stopLon":-72.63479},"145156":{"stopID":"145156","stopName":"Middlesex Health Care Center","stopLat":41.53486,"stopLon":-72.61659},"145157":{"stopID":"145157","stopName":"Maple St & Maple Pl","stopLat":41.55458,"stopLon":-72.64104},"145158":{"stopID":"145158","stopName":"Cafferys Plaza","stopLat":41.57422,"stopLon":-72.67194},"145159":{"stopID":"145159","stopName":"Best Cleaners","stopLat":41.58866,"stopLon":-72.67533},"145160":{"stopID":"145160","stopName":"U-haul","stopLat":41.5912,"stopLon":-72.67578},"145161":{"stopID":"145161","stopName":"East St & Grandview","stopLat":41.59518,"stopLon":-72.69697},"145162":{"stopID":"145162","stopName":"East St & Town Colony","stopLat":41.5912,"stopLon":-72.6989},"145163":{"stopID":"145163","stopName":"Westfield Fire Department","stopLat":41.58177,"stopLon":-72.70204},"145164":{"stopID":"145164","stopName":"East St & York","stopLat":41.57515,"stopLon":-72.70189},"145165":{"stopID":"145165","stopName":"Bestway Inn","stopLat":41.54834,"stopLon":-72.69809},"145166":{"stopID":"145166","stopName":"CVS","stopLat":41.55467,"stopLon":-72.67473},"145167":{"stopID":"145167","stopName":"Middle St & Bysiewicz Dr","stopLat":41.5859,"stopLon":-72.72037},"145168":{"stopID":"145168","stopName":"Middle St & Winsupply","stopLat":41.58869,"stopLon":-72.72073},"145169":{"stopID":"145169","stopName":"Randolph Rd & Farm Hill","stopLat":41.53292,"stopLon":-72.64864},"145170":{"stopID":"145170","stopName":"S Main ST & Ace Hardware","stopLat":41.54315,"stopLon":-72.65211},"145171":{"stopID":"145171","stopName":"Pine Street & Randolph Road, Middletown, CT, USA","stopLat":41.53184,"stopLon":-72.66324},"145172":{"stopID":"145172","stopName":"Portland Quick Mart","stopLat":41.56854,"stopLon":-72.62753},"145173":{"stopID":"145173","stopName":"Rt 66 & Gospel Ln Portland","stopLat":41.57553,"stopLon":-72.60681},"145174":{"stopID":"145174","stopName":"Gulf Station Portland","stopLat":41.57197,"stopLon":-72.64136},"145175":{"stopID":"145175","stopName":"Burger King Portland SB","stopLat":41.57244,"stopLon":-72.63903},"145176":{"stopID":"145176","stopName":"Subway Portland","stopLat":41.56966,"stopLon":-72.63251},"151791":{"stopID":"151791","stopName":"Route 1 & Orchard St","stopLat":41.29229,"stopLon":-72.38287}}