{"83658":{"stopID":"83658","stopName":"Downtown Transfer Center","stopLat":44.52382,"stopLon":-89.58235},"83659":{"stopID":"83659","stopName":"Strongs & Arlington","stopLat":44.52082,"stopLon":-89.58152},"83660":{"stopID":"83660","stopName":"Strongs & Brawley","stopLat":44.51951,"stopLon":-89.58025},"83661":{"stopID":"83661","stopName":"Strongs & Wisconsin","stopLat":44.5178,"stopLon":-89.57865},"83662":{"stopID":"83662","stopName":"Strongs & Shaurette","stopLat":44.51616,"stopLon":-89.57712},"83663":{"stopID":"83663","stopName":"Strongs & Park","stopLat":44.51451,"stopLon":-89.5756},"83664":{"stopID":"83664","stopName":"Church & Matilda SB","stopLat":44.51067,"stopLon":-89.57159},"83665":{"stopID":"83665","stopName":"Church & Rice","stopLat":44.50817,"stopLon":-89.56935},"83666":{"stopID":"83666","stopName":"Rice & Church","stopLat":44.50821,"stopLon":-89.5689},"83667":{"stopID":"83667","stopName":"Rice & Blaine","stopLat":44.50818,"stopLon":-89.56572},"83668":{"stopID":"83668","stopName":"Rice & Welsby","stopLat":44.5082,"stopLon":-89.56242},"83669":{"stopID":"83669","stopName":"Rice & Lindbergh","stopLat":44.50811,"stopLon":-89.55816},"83670":{"stopID":"83670","stopName":"Rice & Frontenac","stopLat":44.50809,"stopLon":-89.55555},"83671":{"stopID":"83671","stopName":"Indiana & Bush","stopLat":44.5102,"stopLon":-89.55406},"83672":{"stopID":"83672","stopName":"Bush & Frontenac","stopLat":44.51037,"stopLon":-89.55543},"83673":{"stopID":"83673","stopName":"Bush & Minnesota","stopLat":44.51041,"stopLon":-89.55923},"83674":{"stopID":"83674","stopName":"Bush & Michigan","stopLat":44.51039,"stopLon":-89.56419},"83675":{"stopID":"83675","stopName":"Michigan & Patch","stopLat":44.51192,"stopLon":-89.56429},"83676":{"stopID":"83676","stopName":"Dixon & Welsby","stopLat":44.51568,"stopLon":-89.56328},"83677":{"stopID":"83677","stopName":"Dixon & Minnesota","stopLat":44.51574,"stopLon":-89.5599},"83678":{"stopID":"83678","stopName":"Dixon & Frontenac","stopLat":44.5158,"stopLon":-89.55588},"83679":{"stopID":"83679","stopName":"Dixon & California","stopLat":44.51579,"stopLon":-89.55345},"83680":{"stopID":"83680","stopName":"Texas & McCulloch","stopLat":44.51672,"stopLon":-89.55187},"83681":{"stopID":"83681","stopName":"Texas & Center","stopLat":44.51827,"stopLon":-89.55182},"83682":{"stopID":"83682","stopName":"Texas & Algoma","stopLat":44.52059,"stopLon":-89.55181},"83683":{"stopID":"83683","stopName":"Algoma & Frontenac","stopLat":44.52062,"stopLon":-89.55539},"83684":{"stopID":"83684","stopName":"Jefferson & Frontenac","stopLat":44.51957,"stopLon":-89.55607},"83685":{"stopID":"83685","stopName":"Jefferson & Minnesota","stopLat":44.51959,"stopLon":-89.5594},"83686":{"stopID":"83686","stopName":"Jefferson & Michigan East","stopLat":44.51952,"stopLon":-89.56396},"83687":{"stopID":"83687","stopName":"Michigan & Algoma","stopLat":44.52083,"stopLon":-89.56454},"83689":{"stopID":"83689","stopName":"Michigan & Sims","stopLat":44.52501,"stopLon":-89.56452},"83690":{"stopID":"83690","stopName":"Sims & Fremont","stopLat":44.52527,"stopLon":-89.56728},"83691":{"stopID":"83691","stopName":"Fremont & Stanley","stopLat":44.52707,"stopLon":-89.56797},"83692":{"stopID":"83692","stopName":"Reserve & Stanley","stopLat":44.52717,"stopLon":-89.5697},"83693":{"stopID":"83693","stopName":"Reserve & Portage","stopLat":44.52569,"stopLon":-89.56983},"83694":{"stopID":"83694","stopName":"Reserve & Main","stopLat":44.52357,"stopLon":-89.56971},"83695":{"stopID":"83695","stopName":"Main & Phillips","stopLat":44.52353,"stopLon":-89.57208},"83696":{"stopID":"83696","stopName":"Main & Rogers","stopLat":44.52352,"stopLon":-89.57661},"83697":{"stopID":"83697","stopName":"Centerpoint & Smith","stopLat":44.52426,"stopLon":-89.57846},"83698":{"stopID":"83698","stopName":"Arlington & Water","stopLat":44.5202,"stopLon":-89.58269},"83699":{"stopID":"83699","stopName":"Water & Wisconsin SB","stopLat":44.51722,"stopLon":-89.58069},"83700":{"stopID":"83700","stopName":"Water & Shaurette SB","stopLat":44.5153,"stopLon":-89.57901},"83701":{"stopID":"83701","stopName":"Park & Water SB","stopLat":44.51363,"stopLon":-89.5774},"83702":{"stopID":"83702","stopName":"Water & Francis","stopLat":44.51071,"stopLon":-89.57473},"83703":{"stopID":"83703","stopName":"Water & Matilda","stopLat":44.50916,"stopLon":-89.57329},"83704":{"stopID":"83704","stopName":"Water & Whiting","stopLat":44.50775,"stopLon":-89.57201},"83705":{"stopID":"83705","stopName":"Ruth Gilfry","stopLat":44.50628,"stopLon":-89.57341},"83706":{"stopID":"83706","stopName":"825 Whiting","stopLat":44.50713,"stopLon":-89.57283},"83708":{"stopID":"83708","stopName":"3056 Water","stopLat":44.50445,"stopLon":-89.56884},"83709":{"stopID":"83709","stopName":"Save-A-Lot","stopLat":44.50327,"stopLon":-89.56667},"83710":{"stopID":"83710","stopName":"Water & River View","stopLat":44.5016,"stopLon":-89.56621},"83711":{"stopID":"83711","stopName":"1800 River View","stopLat":44.50109,"stopLon":-89.56961},"83712":{"stopID":"83712","stopName":"River View & Whiting","stopLat":44.50121,"stopLon":-89.57356},"83713":{"stopID":"83713","stopName":"Whiting & River View","stopLat":44.50034,"stopLon":-89.5746},"83714":{"stopID":"83714","stopName":"Fireside Apartments","stopLat":44.49411,"stopLon":-89.57979},"83715":{"stopID":"83715","stopName":"1800 Sherman","stopLat":44.49366,"stopLon":-89.58173},"83716":{"stopID":"83716","stopName":"Sherman & Albert","stopLat":44.49382,"stopLon":-89.56934},"83717":{"stopID":"83717","stopName":"Sherman & Conant","stopLat":44.4937,"stopLon":-89.56682},"83718":{"stopID":"83718","stopName":"Sherman & Linden","stopLat":44.49368,"stopLon":-89.56422},"83719":{"stopID":"83719","stopName":"Linden & Chestnut","stopLat":44.49515,"stopLon":-89.56407},"83720":{"stopID":"83720","stopName":"Polk & Linden","stopLat":44.49725,"stopLon":-89.56337},"83721":{"stopID":"83721","stopName":"Whiting Park","stopLat":44.49291,"stopLon":-89.55636},"83728":{"stopID":"83728","stopName":"School & McDill","stopLat":44.49247,"stopLon":-89.54835},"83729":{"stopID":"83729","stopName":"McDill & Locust","stopLat":44.49262,"stopLon":-89.54976},"83730":{"stopID":"83730","stopName":"Post & Minnesota","stopLat":44.49703,"stopLon":-89.55923},"83731":{"stopID":"83731","stopName":"3425 Church","stopLat":44.49827,"stopLon":-89.56149},"83732":{"stopID":"83732","stopName":"3349 Church","stopLat":44.49987,"stopLon":-89.56315},"83733":{"stopID":"83733","stopName":"Church & Nebel","stopLat":44.50113,"stopLon":-89.5641},"83734":{"stopID":"83734","stopName":"Church & Heffron","stopLat":44.50453,"stopLon":-89.56658},"83735":{"stopID":"83735","stopName":"3057 Church","stopLat":44.50611,"stopLon":-89.5678},"83736":{"stopID":"83736","stopName":"Church & Matilda NB","stopLat":44.51004,"stopLon":-89.57084},"83737":{"stopID":"83737","stopName":"Church & Francis","stopLat":44.51133,"stopLon":-89.57179},"83738":{"stopID":"83738","stopName":"Park & Water NB","stopLat":44.51375,"stopLon":-89.57699},"83739":{"stopID":"83739","stopName":"Water & Shaurette NB","stopLat":44.5154,"stopLon":-89.57887},"83740":{"stopID":"83740","stopName":"Water & Wisconsin NB","stopLat":44.51653,"stopLon":-89.57989},"83741":{"stopID":"83741","stopName":"ADRC - Lincoln Center","stopLat":44.51974,"stopLon":-89.58241},"83742":{"stopID":"83742","stopName":"Water & Main","stopLat":44.52331,"stopLon":-89.58674},"83743":{"stopID":"83743","stopName":"1st & Portage","stopLat":44.52583,"stopLon":-89.58686},"83744":{"stopID":"83744","stopName":"601 Main","stopLat":44.52339,"stopLon":-89.58708},"83749":{"stopID":"83749","stopName":"Clark & Pearl","stopLat":44.5197,"stopLon":-89.59425},"83750":{"stopID":"83750","stopName":"Pearl & Karner","stopLat":44.51876,"stopLon":-89.59392},"83751":{"stopID":"83751","stopName":"Pearl & Scott","stopLat":44.51775,"stopLon":-89.59336},"83752":{"stopID":"83752","stopName":"CAP Services","stopLat":44.51743,"stopLon":-89.59206},"83753":{"stopID":"83753","stopName":"River & Clark","stopLat":44.52006,"stopLon":-89.59306},"83754":{"stopID":"83754","stopName":"3rd & Clark","stopLat":44.52233,"stopLon":-89.58469},"83755":{"stopID":"83755","stopName":"1450 Water","stopLat":44.52104,"stopLon":-89.58442},"83756":{"stopID":"83756","stopName":"Arlington & Elk","stopLat":44.52038,"stopLon":-89.58202},"83757":{"stopID":"83757","stopName":"Church & Main","stopLat":44.52328,"stopLon":-89.58041},"83758":{"stopID":"83758","stopName":"UWSP MCCH","stopLat":44.52898,"stopLon":-89.57125},"83759":{"stopID":"83759","stopName":"4th & Isadore","stopLat":44.52896,"stopLon":-89.57294},"83760":{"stopID":"83760","stopName":"4th & Vincent WB","stopLat":44.52893,"stopLon":-89.57638},"83761":{"stopID":"83761","stopName":"Prentice & 6th NB","stopLat":44.53136,"stopLon":-89.57761},"83762":{"stopID":"83762","stopName":"Prentice & Maria","stopLat":44.53378,"stopLon":-89.57763},"83763":{"stopID":"83763","stopName":"Prentice & Scholfield NB","stopLat":44.53686,"stopLon":-89.57767},"83764":{"stopID":"83764","stopName":"Prentice & North Point","stopLat":44.53994,"stopLon":-89.57811},"83765":{"stopID":"83765","stopName":"Evergreen Apartments","stopLat":44.54118,"stopLon":-89.58151},"83766":{"stopID":"83766","stopName":"North Point & 2nd","stopLat":44.54121,"stopLon":-89.58482},"83767":{"stopID":"83767","stopName":"2nd & Johns","stopLat":44.53968,"stopLon":-89.58594},"83768":{"stopID":"83768","stopName":"300 2nd","stopLat":44.53787,"stopLon":-89.58592},"83769":{"stopID":"83769","stopName":"2nd & Red Arrow","stopLat":44.53657,"stopLon":-89.58585},"83771":{"stopID":"83771","stopName":"2nd & Maria","stopLat":44.53365,"stopLon":-89.58584},"83772":{"stopID":"83772","stopName":"2nd & Wadleigh","stopLat":44.5326,"stopLon":-89.5859},"83773":{"stopID":"83773","stopName":"2nd & Bukolt","stopLat":44.53075,"stopLon":-89.5859},"83774":{"stopID":"83774","stopName":"2nd & 4th","stopLat":44.52924,"stopLon":-89.5859},"83775":{"stopID":"83775","stopName":"4th & 3rd","stopLat":44.52876,"stopLon":-89.58399},"83776":{"stopID":"83776","stopName":"4th & Union","stopLat":44.52876,"stopLon":-89.58212},"83777":{"stopID":"83777","stopName":"4th & Prentice","stopLat":44.52877,"stopLon":-89.57793},"83778":{"stopID":"83778","stopName":"4th & Vincent","stopLat":44.52874,"stopLon":-89.57583},"83779":{"stopID":"83779","stopName":"UWSP CCC","stopLat":44.52879,"stopLon":-89.57296},"83780":{"stopID":"83780","stopName":"4th & Reserve","stopLat":44.52873,"stopLon":-89.57016},"83781":{"stopID":"83781","stopName":"Stanley & Illinois","stopLat":44.52843,"stopLon":-89.56667},"83783":{"stopID":"83783","stopName":"Stanley & Minnesota","stopLat":44.53122,"stopLon":-89.5601},"83785":{"stopID":"83785","stopName":"Stanley & North","stopLat":44.53584,"stopLon":-89.55119},"83786":{"stopID":"83786","stopName":"Green & Stanley","stopLat":44.53863,"stopLon":-89.54581},"83787":{"stopID":"83787","stopName":"Doolittle & Green","stopLat":44.53625,"stopLon":-89.54551},"83788":{"stopID":"83788","stopName":"Doolittle & Wilshire","stopLat":44.53613,"stopLon":-89.54861},"83789":{"stopID":"83789","stopName":"E Maria & Stanley","stopLat":44.53431,"stopLon":-89.55093},"83790":{"stopID":"83790","stopName":"Stanley & Soo Marie","stopLat":44.53287,"stopLon":-89.55678},"83791":{"stopID":"83791","stopName":"Stanley & Indiana","stopLat":44.53343,"stopLon":-89.55475},"83792":{"stopID":"83792","stopName":"Minnesota & 5th","stopLat":44.53302,"stopLon":-89.5606},"83793":{"stopID":"83793","stopName":"5th & Minnesota","stopLat":44.53293,"stopLon":-89.56165},"83794":{"stopID":"83794","stopName":"4th & 5th","stopLat":44.53149,"stopLon":-89.56252},"83795":{"stopID":"83795","stopName":"4th & Michigan","stopLat":44.53067,"stopLon":-89.56449},"83796":{"stopID":"83796","stopName":"Stanley & Fremont","stopLat":44.52843,"stopLon":-89.56715},"83797":{"stopID":"83797","stopName":"Division & 4th","stopLat":44.52982,"stopLon":-89.57472},"83798":{"stopID":"83798","stopName":"Division & 6th","stopLat":44.53147,"stopLon":-89.57479},"83799":{"stopID":"83799","stopName":"Division & Maria","stopLat":44.53298,"stopLon":-89.57478},"83800":{"stopID":"83800","stopName":"Festival Foods","stopLat":44.5364,"stopLon":-89.57705},"83801":{"stopID":"83801","stopName":"Prentice & Scholfield SB","stopLat":44.53726,"stopLon":-89.57804},"83802":{"stopID":"83802","stopName":"Prentice & 6th SB","stopLat":44.53167,"stopLon":-89.5778},"83804":{"stopID":"83804","stopName":"Prentice & Franklin SB","stopLat":44.52673,"stopLon":-89.57776},"83805":{"stopID":"83805","stopName":"Prentice & Briggs SB","stopLat":44.52588,"stopLon":-89.57776},"83806":{"stopID":"83806","stopName":"Smith & Centerpoint","stopLat":44.52463,"stopLon":-89.57891},"83807":{"stopID":"83807","stopName":"2nd & Washington","stopLat":44.52809,"stopLon":-89.58568},"83808":{"stopID":"83808","stopName":"Minnesota & College SB","stopLat":44.52481,"stopLon":-89.55962},"83809":{"stopID":"83809","stopName":"Main & Wilshire EB","stopLat":44.52307,"stopLon":-89.55098},"83810":{"stopID":"83810","stopName":"Main & Greenbriar","stopLat":44.52321,"stopLon":-89.54392},"83811":{"stopID":"83811","stopName":"Main & Country Club","stopLat":44.52327,"stopLon":-89.53284},"83812":{"stopID":"83812","stopName":"Target","stopLat":44.52445,"stopLon":-89.52263},"83813":{"stopID":"83813","stopName":"Hwy 10 & Old Hwy 18","stopLat":44.52323,"stopLon":-89.52106},"83814":{"stopID":"83814","stopName":"Brilowski & Jefferson","stopLat":44.51971,"stopLon":-89.50934},"83815":{"stopID":"83815","stopName":"Brilowski & Elmwood","stopLat":44.51575,"stopLon":-89.5093},"83816":{"stopID":"83816","stopName":"Brilowski & Clems","stopLat":44.50614,"stopLon":-89.50902},"83817":{"stopID":"83817","stopName":"Commons & Commerce","stopLat":44.49581,"stopLon":-89.51493},"83818":{"stopID":"83818","stopName":"Commons & Meridian","stopLat":44.49439,"stopLon":-89.51608},"83819":{"stopID":"83819","stopName":"Meridian & Commons","stopLat":44.4938,"stopLon":-89.51513},"83820":{"stopID":"83820","stopName":"Commons & Crossroads","stopLat":44.49151,"stopLon":-89.51179},"83821":{"stopID":"83821","stopName":"Walmart","stopLat":44.49199,"stopLon":-89.51053},"83822":{"stopID":"83822","stopName":"Lowes","stopLat":44.4948,"stopLon":-89.51032},"83823":{"stopID":"83823","stopName":"Kohl's","stopLat":44.4964,"stopLon":-89.51021},"83824":{"stopID":"83824","stopName":"Brilowski & Ellis","stopLat":44.52191,"stopLon":-89.50894},"83825":{"stopID":"83825","stopName":"Main & Wilshire WB","stopLat":44.52337,"stopLon":-89.54948},"83826":{"stopID":"83826","stopName":"Minnesota & College NB","stopLat":44.52448,"stopLon":-89.55948},"83827":{"stopID":"83827","stopName":"Clark & Rogers","stopLat":44.52238,"stopLon":-89.57703},"83828":{"stopID":"83828","stopName":"Clark & East","stopLat":44.5223,"stopLon":-89.57175},"83829":{"stopID":"83829","stopName":"Fremont & Main","stopLat":44.52269,"stopLon":-89.56797},"83830":{"stopID":"83830","stopName":"Fremont & Sims","stopLat":44.52509,"stopLon":-89.56789},"83832":{"stopID":"83832","stopName":"Jordan & Wilshire","stopLat":44.53048,"stopLon":-89.55089},"83833":{"stopID":"83833","stopName":"Wilshire & Prais","stopLat":44.52768,"stopLon":-89.55016},"83834":{"stopID":"83834","stopName":"Wilshire & Main","stopLat":44.52371,"stopLon":-89.5501},"83835":{"stopID":"83835","stopName":"Wildwood & Windy","stopLat":44.52499,"stopLon":-89.51408},"83836":{"stopID":"83836","stopName":"Walter & Brilowski","stopLat":44.52705,"stopLon":-89.51026},"83837":{"stopID":"83837","stopName":"Dimensions Living","stopLat":44.52811,"stopLon":-89.5072},"83838":{"stopID":"83838","stopName":"Amber & Windy","stopLat":44.5249,"stopLon":-89.50615},"83839":{"stopID":"83839","stopName":"Elizabeth & Windy","stopLat":44.52437,"stopLon":-89.50417},"83840":{"stopID":"83840","stopName":"5625 Hwy 10","stopLat":44.52282,"stopLon":-89.50649},"83842":{"stopID":"83842","stopName":"3217 John Joanis","stopLat":44.50269,"stopLon":-89.51059},"83843":{"stopID":"83843","stopName":"3200 John Joanis","stopLat":44.50393,"stopLon":-89.5118},"83844":{"stopID":"83844","stopName":"Business Park & John Joanis","stopLat":44.50306,"stopLon":-89.51378},"83845":{"stopID":"83845","stopName":"3300 Business Park","stopLat":44.5009,"stopLon":-89.51367},"83846":{"stopID":"83846","stopName":"Business Park & Vern Holmes","stopLat":44.49896,"stopLon":-89.51364},"83847":{"stopID":"83847","stopName":"U.S. Cellular","stopLat":44.49683,"stopLon":-89.51201},"83848":{"stopID":"83848","stopName":"Hoover & McDill","stopLat":44.49824,"stopLon":-89.52836},"83849":{"stopID":"83849","stopName":"Hoover & Crocus","stopLat":44.50072,"stopLon":-89.5284},"83850":{"stopID":"83850","stopName":"Hoover & Howard","stopLat":44.50368,"stopLon":-89.52846},"83851":{"stopID":"83851","stopName":"Hoover & Coye","stopLat":44.50705,"stopLon":-89.52849},"83853":{"stopID":"83853","stopName":"Industrial Park & Hoover","stopLat":44.51045,"stopLon":-89.52951},"83854":{"stopID":"83854","stopName":"Industrial Park & Leahy","stopLat":44.51064,"stopLon":-89.53393},"83855":{"stopID":"83855","stopName":"Patch & Bush","stopLat":44.51205,"stopLon":-89.5464},"83856":{"stopID":"83856","stopName":"Patch & Sunset","stopLat":44.51209,"stopLon":-89.54887},"83857":{"stopID":"83857","stopName":"Patch & Indiana","stopLat":44.5122,"stopLon":-89.55421},"83858":{"stopID":"83858","stopName":"Patch & Minnesota","stopLat":44.51225,"stopLon":-89.5597},"83859":{"stopID":"83859","stopName":"Patch & Michigan","stopLat":44.51224,"stopLon":-89.56316},"83860":{"stopID":"83860","stopName":"Michigan & Center","stopLat":44.5164,"stopLon":-89.5646},"83861":{"stopID":"83861","stopName":"Jefferson & Michigan","stopLat":44.51947,"stopLon":-89.56566},"83862":{"stopID":"83862","stopName":"Jefferson & Reserve","stopLat":44.51944,"stopLon":-89.56996},"83863":{"stopID":"83863","stopName":"Jefferson & Wyatt","stopLat":44.51944,"stopLon":-89.57271},"83864":{"stopID":"83864","stopName":"Wisconsin & Pine","stopLat":44.51914,"stopLon":-89.57562},"83865":{"stopID":"83865","stopName":"Wisconsin & Church","stopLat":44.51825,"stopLon":-89.57743},"83866":{"stopID":"83866","stopName":"Church & Court","stopLat":44.52066,"stopLon":-89.57974},"83867":{"stopID":"83867","stopName":"Main & Smith","stopLat":44.52337,"stopLon":-89.57917},"83868":{"stopID":"83868","stopName":"Prentice & Briggs NB","stopLat":44.52525,"stopLon":-89.57759},"83869":{"stopID":"83869","stopName":"Prentice & Franklin NB","stopLat":44.52672,"stopLon":-89.57757},"83870":{"stopID":"83870","stopName":"Division & North Point","stopLat":44.54062,"stopLon":-89.57535},"83871":{"stopID":"83871","stopName":"North Point & West","stopLat":44.54116,"stopLon":-89.58743},"83872":{"stopID":"83872","stopName":"Frederick & North Point","stopLat":44.54088,"stopLon":-89.59027},"83873":{"stopID":"83873","stopName":"Frederick & Johns","stopLat":44.53947,"stopLon":-89.59025},"83874":{"stopID":"83874","stopName":"Johns & West","stopLat":44.53931,"stopLon":-89.58802},"83875":{"stopID":"83875","stopName":"Johns & 2nd","stopLat":44.53927,"stopLon":-89.58609},"83876":{"stopID":"83876","stopName":"Walker & West","stopLat":44.53333,"stopLon":-89.58821},"83877":{"stopID":"83877","stopName":"Walker & Georgia","stopLat":44.53333,"stopLon":-89.5911},"83878":{"stopID":"83878","stopName":"Walker & Forest","stopLat":44.53331,"stopLon":-89.59305},"83879":{"stopID":"83879","stopName":"Forest & 6th","stopLat":44.53176,"stopLon":-89.59356},"83880":{"stopID":"83880","stopName":"Forest & Bukolt","stopLat":44.53086,"stopLon":-89.59355},"83881":{"stopID":"83881","stopName":"Forest & 4th","stopLat":44.5289,"stopLon":-89.5935},"83882":{"stopID":"83882","stopName":"4th & Frederick","stopLat":44.52872,"stopLon":-89.59014},"83883":{"stopID":"83883","stopName":"4th & 2nd","stopLat":44.52875,"stopLon":-89.58621},"83884":{"stopID":"83884","stopName":"Hi Rise Apartments","stopLat":44.52533,"stopLon":-89.57979},"83885":{"stopID":"83885","stopName":"2nd & Bukolt LNT","stopLat":44.53085,"stopLon":-89.58568},"83886":{"stopID":"83886","stopName":"2nd & Maria LNT","stopLat":44.53399,"stopLon":-89.58566},"83887":{"stopID":"83887","stopName":"2nd & Johns LNT","stopLat":44.53961,"stopLon":-89.58565},"83888":{"stopID":"83888","stopName":"North Point & 2nd LNT","stopLat":44.54104,"stopLon":-89.58537},"83889":{"stopID":"83889","stopName":"Evergreen Apartments LNT","stopLat":44.54103,"stopLon":-89.58156},"83892":{"stopID":"83892","stopName":"Maria & Division LNT","stopLat":44.5338,"stopLon":-89.57568},"83893":{"stopID":"83893","stopName":"Isadore & 6th LNT","stopLat":44.53156,"stopLon":-89.57364},"83894":{"stopID":"83894","stopName":"Isadore & 4th LNT","stopLat":44.52913,"stopLon":-89.57366},"83895":{"stopID":"83895","stopName":"Reserve & Maria LNT","stopLat":44.532,"stopLon":-89.56958},"83896":{"stopID":"83896","stopName":"Minnesota & 5th LNT","stopLat":44.53273,"stopLon":-89.56073},"83897":{"stopID":"83897","stopName":"Stanley & Fremont LNT","stopLat":44.52841,"stopLon":-89.56711},"83898":{"stopID":"83898","stopName":"Fremont & Sims LNT","stopLat":44.5252,"stopLon":-89.5681},"83899":{"stopID":"83899","stopName":"Strongs & Park LNT","stopLat":44.51452,"stopLon":-89.57558},"84855":{"stopID":"84855","stopName":"Fremont & Main LNT","stopLat":44.52376,"stopLon":-89.56806},"84988":{"stopID":"84988","stopName":"4th & Isadore WB","stopLat":44.52894,"stopLon":-89.57287},"85445":{"stopID":"85445","stopName":"Dunham's Sports","stopLat":44.52162,"stopLon":-89.50682},"85446":{"stopID":"85446","stopName":"4th LNT","stopLat":44.52877,"stopLon":-89.57155},"85447":{"stopID":"85447","stopName":"Reserve & 4th LNT","stopLat":44.52927,"stopLon":-89.56959},"85448":{"stopID":"85448","stopName":"Freemont & Main LNT","stopLat":44.52364,"stopLon":-89.56799},"88693":{"stopID":"88693","stopName":"McDill & School","stopLat":44.49244,"stopLon":-89.54823},"88695":{"stopID":"88695","stopName":"HH & Olympia","stopLat":44.49714,"stopLon":-89.53054},"88696":{"stopID":"88696","stopName":"Crossroads & Meridian","stopLat":44.49422,"stopLon":-89.51351},"88697":{"stopID":"88697","stopName":"HH & Hoover","stopLat":44.49758,"stopLon":-89.52968},"88698":{"stopID":"88698","stopName":"McDill & Feltz EB","stopLat":44.49488,"stopLon":-89.53923},"88699":{"stopID":"88699","stopName":"McDill & Feltz WB","stopLat":44.49514,"stopLon":-89.53927},"89041":{"stopID":"89041","stopName":"Centerpoint & 3rd","stopLat":44.52523,"stopLon":-89.58424},"89042":{"stopID":"89042","stopName":"McDill & Olympia","stopLat":44.49716,"stopLon":-89.53091},"89043":{"stopID":"89043","stopName":"McDill & Hoover","stopLat":44.49749,"stopLon":-89.52972},"89047":{"stopID":"89047","stopName":"1443 Water","stopLat":44.5209,"stopLon":-89.58404},"91819":{"stopID":"91819","stopName":"E M Copps & Skyward","stopLat":44.51019,"stopLon":-89.51465},"91820":{"stopID":"91820","stopName":"2918 Business Park","stopLat":44.50836,"stopLon":-89.51637},"91821":{"stopID":"91821","stopName":"3101 Business Park","stopLat":44.50701,"stopLon":-89.51636},"91822":{"stopID":"91822","stopName":"3210 Business Park","stopLat":44.50419,"stopLon":-89.51462},"105719":{"stopID":"105719","stopName":"McDill & Verril","stopLat":44.4935,"stopLon":-89.54236},"105720":{"stopID":"105720","stopName":"McDill & Willard","stopLat":44.4926,"stopLon":-89.54385},"105727":{"stopID":"105727","stopName":"Minnesota & Stanley","stopLat":44.53099,"stopLon":-89.55949},"112472":{"stopID":"112472","stopName":"1st & Portage","stopLat":44.52579,"stopLon":-89.58683},"112479":{"stopID":"112479","stopName":"KASH Park","stopLat":44.52095,"stopLon":-89.59202},"112893":{"stopID":"112893","stopName":"E M Copps & Worth Ct","stopLat":44.50941,"stopLon":-89.50997},"126631":{"stopID":"126631","stopName":"Goerke Park","stopLat":44.52526,"stopLon":-89.55954},"126632":{"stopID":"126632","stopName":"Homecoming 2nd Street","stopLat":44.53358,"stopLon":-89.58557},"140334":{"stopID":"140334","stopName":"Fremont & High LNT","stopLat":44.52699,"stopLon":-89.56811},"140356":{"stopID":"140356","stopName":"Maria & Isadore LNT","stopLat":44.53379,"stopLon":-89.57391},"140361":{"stopID":"140361","stopName":"Reserve & 4th LNT","stopLat":44.52908,"stopLon":-89.56961},"140551":{"stopID":"140551","stopName":"HH & Hoover","stopLat":44.49754,"stopLon":-89.52982},"140552":{"stopID":"140552","stopName":"Biolife Vern Holmes","stopLat":44.49866,"stopLon":-89.51239},"141609":{"stopID":"141609","stopName":"Stanley & Minnesota WB","stopLat":44.53189,"stopLon":-89.55915},"141610":{"stopID":"141610","stopName":"Minnesota & Stanley","stopLat":44.5312,"stopLon":-89.55946},"150878":{"stopID":"150878","stopName":"Michigan Lot Q","stopLat":44.53146,"stopLon":-89.56478},"150879":{"stopID":"150879","stopName":"Northpoint USGA Drop","stopLat":44.54169,"stopLon":-89.56632},"151737":{"stopID":"151737","stopName":"ADRC SB Water St","stopLat":44.51906,"stopLon":-89.5825},"151738":{"stopID":"151738","stopName":"Park & Strongs","stopLat":44.5143,"stopLon":-89.57587},"152403":{"stopID":"152403","stopName":"Marshfield Medical Center","stopLat":44.54282,"stopLon":-89.54362},"152404":{"stopID":"152404","stopName":"Stanley & North WB","stopLat":44.53608,"stopLon":-89.55119},"152405":{"stopID":"152405","stopName":"W Clark & W River","stopLat":44.52025,"stopLon":-89.5937},"152406":{"stopID":"152406","stopName":"Water ADRC SB","stopLat":44.51892,"stopLon":-89.58243},"152407":{"stopID":"152407","stopName":"3100 Minnesota","stopLat":44.50589,"stopLon":-89.55946},"152408":{"stopID":"152408","stopName":"Minnesota & Nebel","stopLat":44.5017,"stopLon":-89.55922},"152409":{"stopID":"152409","stopName":"Minnesota & Rice","stopLat":44.50831,"stopLon":-89.55942},"152410":{"stopID":"152410","stopName":"1118 Park St","stopLat":44.51436,"stopLon":-89.57581},"152506":{"stopID":"152506","stopName":"Dunhams","stopLat":44.52133,"stopLon":-89.50708},"152507":{"stopID":"152507","stopName":"Brilowski & Jefferson NB","stopLat":44.52021,"stopLon":-89.50895},"152508":{"stopID":"152508","stopName":"US Bank","stopLat":44.5227,"stopLon":-89.50415},"152509":{"stopID":"152509","stopName":"Holiday Inn","stopLat":44.52474,"stopLon":-89.50489},"152510":{"stopID":"152510","stopName":"Walter & Brilowski WB","stopLat":44.52717,"stopLon":-89.51033},"152511":{"stopID":"152511","stopName":"Wildwood & Windy SB","stopLat":44.52507,"stopLon":-89.5143},"152512":{"stopID":"152512","stopName":"Main & Country Club WB","stopLat":44.52356,"stopLon":-89.53224},"152513":{"stopID":"152513","stopName":"Main & Chase","stopLat":44.52359,"stopLon":-89.56123},"153503":{"stopID":"153503","stopName":"Clark & Michigan","stopLat":44.52229,"stopLon":-89.56503},"154260":{"stopID":"154260","stopName":"Partners","stopLat":44.53064,"stopLon":-89.56209},"154261":{"stopID":"154261","stopName":"Stanley & Clayton","stopLat":44.53021,"stopLon":-89.56247},"154275":{"stopID":"154275","stopName":"Nebel & Water","stopLat":44.50139,"stopLon":-89.5652}}