{"150049":{"stopID":"150049","stopName":"Wake Downtown/ Innovation Quarter","stopLat":36.10145,"stopLon":-80.24036},"150050":{"stopID":"150050","stopName":"Shuttle Hub- Shelter B","stopLat":36.13491,"stopLon":-80.27732},"150051":{"stopID":"150051","stopName":"Brookstown Shuttle","stopLat":36.09039,"stopLon":-80.24549},"150052":{"stopID":"150052","stopName":"Shuttle Hub- Shelter B- Gray","stopLat":36.13477,"stopLon":-80.27733},"150053":{"stopID":"150053","stopName":"Intersection of Yellowstone Ln & Ewing","stopLat":36.14188,"stopLon":-80.27434},"150054":{"stopID":"150054","stopName":"Polo Village Roundabout","stopLat":36.14048,"stopLon":-80.27315},"150055":{"stopID":"150055","stopName":"Student Drive Stop #1","stopLat":36.14073,"stopLon":-80.28046},"150056":{"stopID":"150056","stopName":"Student Drive Stop #2","stopLat":36.14015,"stopLon":-80.2796},"150057":{"stopID":"150057","stopName":"First Year Lot","stopLat":36.14075,"stopLon":-80.27606},"150058":{"stopID":"150058","stopName":"Shuttle Hub- Shelter A- Black","stopLat":36.13493,"stopLon":-80.27737},"150059":{"stopID":"150059","stopName":"Alaris Village Apartments","stopLat":36.1653,"stopLon":-80.27882},"150060":{"stopID":"150060","stopName":"Crowne Oaks Apartments","stopLat":36.14788,"stopLon":-80.28542},"150061":{"stopID":"150061","stopName":"Deacon Place","stopLat":36.14198,"stopLon":-80.27889},"150346":{"stopID":"150346","stopName":"Shuttle Hub Shelter A","stopLat":36.13497,"stopLon":-80.27736},"150347":{"stopID":"150347","stopName":"Crowne Polo Clubhouse","stopLat":36.1407,"stopLon":-80.28911},"150348":{"stopID":"150348","stopName":"Crowne Park Building 200 (Mailboxes)","stopLat":36.1437,"stopLon":-80.29417},"150349":{"stopID":"150349","stopName":"Corners at Crystal Lake Building 10 (Back Entry)","stopLat":36.1408,"stopLon":-80.29765},"150350":{"stopID":"150350","stopName":"Deacon Station Apartments (Bridge)","stopLat":36.13397,"stopLon":-80.29434},"150843":{"stopID":"150843","stopName":"Freshman Line Drop between Collins & South","stopLat":36.13146,"stopLon":-80.27595},"150844":{"stopID":"150844","stopName":"Hanes Mall (front of Food Court)","stopLat":36.06818,"stopLon":-80.30029},"150845":{"stopID":"150845","stopName":"Target (Hanes Mall Blvd.)","stopLat":36.06892,"stopLon":-80.3204},"150846":{"stopID":"150846","stopName":"River Birch/Sherwood Plaza","stopLat":36.11557,"stopLon":-80.31327},"150847":{"stopID":"150847","stopName":"Dogwood Hall (loading zone)","stopLat":36.1373,"stopLon":-80.28091},"150848":{"stopID":"150848","stopName":"City Bus Stop","stopLat":36.13638,"stopLon":-80.27536},"153683":{"stopID":"153683","stopName":"Commuter Parking Lot Z4","stopLat":36.14036,"stopLon":-80.27801}}