{"147600":{"stopID":"147600","stopName":"6th Street @ Adams Avenue (S)","stopLat":44.5868,"stopLon":-121.17742},"147602":{"stopID":"147602","stopName":"Highway 126 @ Powell Butte Church (S)","stopLat":44.24655,"stopLon":-121.01906},"147603":{"stopID":"147603","stopName":"Burgess Road @ Wickiup Junction (E)","stopLat":43.70331,"stopLon":-121.47754},"147604":{"stopID":"147604","stopName":"Arrowleaf Trail @ Ray's Food Place (S)","stopLat":44.29743,"stopLon":-121.56244},"147605":{"stopID":"147605","stopName":"11th Street @ Oliver Lemon's (W)","stopLat":44.35338,"stopLon":-121.17782},"147606":{"stopID":"147606","stopName":"4th Street @ Stryker Park (N)","stopLat":44.30385,"stopLon":-120.84245},"147607":{"stopID":"147607","stopName":"Redmond Transit Center","stopLat":44.26652,"stopLon":-121.17672},"147608":{"stopID":"147608","stopName":"Franklin Avenue @ 2nd Street (N)","stopLat":44.05603,"stopLon":-121.30461},"147609":{"stopID":"147609","stopName":"Franklin Avenue @ Lava Road (N)","stopLat":44.05653,"stopLon":-121.31166},"147610":{"stopID":"147610","stopName":"Wall Street @ Downtown Library (W)","stopLat":44.05695,"stopLon":-121.31646},"147611":{"stopID":"147611","stopName":"Bond Street @ Scalehouse Loop (W)","stopLat":44.04718,"stopLon":-121.30985},"147612":{"stopID":"147612","stopName":"Bond Street @ Old Mill (W)","stopLat":44.043,"stopLon":-121.31401},"147613":{"stopID":"147613","stopName":"Bond Street @ Reed Market Road (W)","stopLat":44.041,"stopLon":-121.31623},"147614":{"stopID":"147614","stopName":"Brookswood Boulevard @ McClellan Road (W)","stopLat":44.03711,"stopLon":-121.31775},"147615":{"stopID":"147615","stopName":"Brookswood Boulevard @ Rock Bluff Lane (W)","stopLat":44.03166,"stopLon":-121.32093},"147616":{"stopID":"147616","stopName":"Brookswood Boulevard @ Powers Road (W)","stopLat":44.02912,"stopLon":-121.32135},"147617":{"stopID":"147617","stopName":"Brookswood Boulevard @ Copper Canyon Way (W)","stopLat":44.02485,"stopLon":-121.32459},"147618":{"stopID":"147618","stopName":"Brookswood Boulevard @ Powers Road (E)","stopLat":44.02818,"stopLon":-121.32134},"147619":{"stopID":"147619","stopName":"Brookswood Boulevard @ Rock Bluff Lane (E)","stopLat":44.03209,"stopLon":-121.32072},"147620":{"stopID":"147620","stopName":"Brookswood Boulevard @ Hillwood Court (E)","stopLat":44.03765,"stopLon":-121.31748},"147621":{"stopID":"147621","stopName":"Brookswood Boulevard @ Reed Market Road (E)","stopLat":44.03999,"stopLon":-121.31715},"147622":{"stopID":"147622","stopName":"Bond Street @ Powerhouse Drive (E)","stopLat":44.04292,"stopLon":-121.31387},"147623":{"stopID":"147623","stopName":"Bond Street @ Scalehouse Loop (E)","stopLat":44.04724,"stopLon":-121.30974},"147624":{"stopID":"147624","stopName":"Bond Street @ Industrial Way (E)","stopLat":44.05039,"stopLon":-121.31453},"147625":{"stopID":"147625","stopName":"Bond Street @ Colorado Avenue (E)","stopLat":44.05224,"stopLon":-121.31641},"147626":{"stopID":"147626","stopName":"Bond Street @ Kansas Avenue (E)","stopLat":44.05589,"stopLon":-121.31563},"147627":{"stopID":"147627","stopName":"Franklin Avenue @ Broadway Street (N)","stopLat":44.05876,"stopLon":-121.31622},"147628":{"stopID":"147628","stopName":"Riverside Boulevard @ Tumalo Avenue (W)","stopLat":44.05745,"stopLon":-121.32278},"147629":{"stopID":"147629","stopName":"Galveston Avenue @ Federal Street (N)","stopLat":44.05669,"stopLon":-121.32762},"147630":{"stopID":"147630","stopName":"Galveston Avenue @ 13th Street (S)","stopLat":44.05669,"stopLon":-121.33029},"147631":{"stopID":"147631","stopName":"Galveston Avenue @ 13th Street (N)","stopLat":44.05657,"stopLon":-121.33039},"147632":{"stopID":"147632","stopName":"Riverside Boulevard @ Tumalo Avenue (E)","stopLat":44.05728,"stopLon":-121.32275},"147633":{"stopID":"147633","stopName":"Franklin Avenue @ Wall Street (S)","stopLat":44.05812,"stopLon":-121.31531},"147634":{"stopID":"147634","stopName":"14th Street @ Knoll Avenue (W)","stopLat":44.04884,"stopLon":-121.33191},"147635":{"stopID":"147635","stopName":"14th Street @ Cumberland Avenue (E)","stopLat":44.05356,"stopLon":-121.33179},"147636":{"stopID":"147636","stopName":"14th Street @ Cumberland Avenue (W)","stopLat":44.05345,"stopLon":-121.33199},"147637":{"stopID":"147637","stopName":"Newport Avenue @ 14th Street (N)","stopLat":44.06234,"stopLon":-121.33095},"147638":{"stopID":"147638","stopName":"Newport Avenue @ College Way (N)","stopLat":44.06234,"stopLon":-121.3366},"147639":{"stopID":"147639","stopName":"Shevlin Park Road @ Torrey Pines Drive (N)","stopLat":44.06393,"stopLon":-121.34315},"147640":{"stopID":"147640","stopName":"Regency Street @ Mount Washington Drive (W)","stopLat":44.07512,"stopLon":-121.35156},"147641":{"stopID":"147641","stopName":"College Way @ COCC Library (W)","stopLat":44.07243,"stopLon":-121.34853},"147642":{"stopID":"147642","stopName":"College Way @ COCC Boyle Center (W)","stopLat":44.06833,"stopLon":-121.34663},"147643":{"stopID":"147643","stopName":"College Way @ Portland Avenue (W)","stopLat":44.06436,"stopLon":-121.3398},"147644":{"stopID":"147644","stopName":"Newport Avenue @ College Way (S)","stopLat":44.06224,"stopLon":-121.33665},"147645":{"stopID":"147645","stopName":"Newport Avenue @ 6th Street (S)","stopLat":44.06234,"stopLon":-121.32039},"147646":{"stopID":"147646","stopName":"Newport Avenue @ Awbrey Road (S)","stopLat":44.06209,"stopLon":-121.31643},"147647":{"stopID":"147647","stopName":"Newport Avenue @ Awbrey Road (N)","stopLat":44.06208,"stopLon":-121.31608},"147648":{"stopID":"147648","stopName":"Newport Avenue @ Harmon Boulevard (N)","stopLat":44.06245,"stopLon":-121.32127},"147649":{"stopID":"147649","stopName":"Newport Avenue @ 11th Street (N)","stopLat":44.06245,"stopLon":-121.32752},"147650":{"stopID":"147650","stopName":"Newport Avenue @ 11th Street (S)","stopLat":44.06234,"stopLon":-121.32793},"147651":{"stopID":"147651","stopName":"Greenwood Avenue @ Harriman Street (S)","stopLat":44.05987,"stopLon":-121.31055},"147652":{"stopID":"147652","stopName":"Greenwood Avenue @ 2nd Street (S)","stopLat":44.05987,"stopLon":-121.30407},"147653":{"stopID":"147653","stopName":"Greenwood Avenue @ 2nd Street (N)","stopLat":44.06002,"stopLon":-121.30493},"147654":{"stopID":"147654","stopName":"Butler Market Road @ Boyd Acres Road (S)","stopLat":44.07637,"stopLon":-121.29388},"147655":{"stopID":"147655","stopName":"Butler Market Road @ Jones Road (E)","stopLat":44.07704,"stopLon":-121.28795},"147656":{"stopID":"147656","stopName":"Butler Market Road @ Huettl Lane (S)","stopLat":44.07842,"stopLon":-121.28382},"147657":{"stopID":"147657","stopName":"Wells Acres Road @ Daggett Lane (S)","stopLat":44.07837,"stopLon":-121.27899},"147658":{"stopID":"147658","stopName":"Wells Acres Road @ Cordata Drive (S)","stopLat":44.07778,"stopLon":-121.27473},"147659":{"stopID":"147659","stopName":"Wells Acres Road @ Purcell Boulevard (E)","stopLat":44.07864,"stopLon":-121.27132},"147660":{"stopID":"147660","stopName":"Wells Acres Road @ MVHS (S)","stopLat":44.07936,"stopLon":-121.26567},"147661":{"stopID":"147661","stopName":"27th Street @ Jack Harris Stadium MVHS (W)","stopLat":44.07633,"stopLon":-121.26386},"147662":{"stopID":"147662","stopName":"27th Street @ Rosemary Drive (W)","stopLat":44.07342,"stopLon":-121.26384},"147663":{"stopID":"147663","stopName":"27th Street @ Conners Avenue (W)","stopLat":44.07036,"stopLon":-121.26384},"147664":{"stopID":"147664","stopName":"27th Street @ Wichita Way (W)","stopLat":44.06751,"stopLon":-121.26387},"147665":{"stopID":"147665","stopName":"Neff Road @ St. Charles (N)","stopLat":44.06583,"stopLon":-121.26965},"147666":{"stopID":"147666","stopName":"Purcell Boulevard @ Paula Drive (W)","stopLat":44.05875,"stopLon":-121.27023},"147667":{"stopID":"147667","stopName":"Purcell Boulevard @ The Forum (Costco) (W)","stopLat":44.05706,"stopLon":-121.26887},"147668":{"stopID":"147668","stopName":"27th Street @ Grand Way (E)","stopLat":44.05616,"stopLon":-121.26356},"147669":{"stopID":"147669","stopName":"27th Street @ Forum Drive (E)","stopLat":44.05823,"stopLon":-121.2636},"147670":{"stopID":"147670","stopName":"27th Street @ Snowberry Village (E)","stopLat":44.06199,"stopLon":-121.26366},"147671":{"stopID":"147671","stopName":"27th Street @ Stone Lodge (E)","stopLat":44.06453,"stopLon":-121.26361},"147672":{"stopID":"147672","stopName":"27th Street @ Conners Avenue (E)","stopLat":44.07039,"stopLon":-121.26367},"147673":{"stopID":"147673","stopName":"27th Street @ Yellow Ribbon Drive (E)","stopLat":44.0722,"stopLon":-121.26367},"147674":{"stopID":"147674","stopName":"27th Street @ Faith Drive (E)","stopLat":44.07741,"stopLon":-121.26368},"147675":{"stopID":"147675","stopName":"Wells Acres Road @ Weeping Willow Drive (N)","stopLat":44.07946,"stopLon":-121.26619},"147676":{"stopID":"147676","stopName":"Wells Acres Road @ Purcell Boulevard (W)","stopLat":44.07879,"stopLon":-121.27121},"147677":{"stopID":"147677","stopName":"Wells Acres Road @ Cordata Drive (N)","stopLat":44.07789,"stopLon":-121.27511},"147678":{"stopID":"147678","stopName":"Wells Acres Road @ Village Court (N)","stopLat":44.07869,"stopLon":-121.2814},"147679":{"stopID":"147679","stopName":"Butler Market Road @ Sandy Drive (N)","stopLat":44.07803,"stopLon":-121.28546},"147680":{"stopID":"147680","stopName":"Butler Market Road @ Jones Road (W)","stopLat":44.07683,"stopLon":-121.28868},"147681":{"stopID":"147681","stopName":"Butler Market Road @ Boyd Acres Road (N)","stopLat":44.0763,"stopLon":-121.29577},"147682":{"stopID":"147682","stopName":"Studio Road @ Foxhollow (W)","stopLat":44.07576,"stopLon":-121.29732},"147683":{"stopID":"147683","stopName":"Studio Road @ Underwood Avenue (W)","stopLat":44.07095,"stopLon":-121.29953},"147684":{"stopID":"147684","stopName":"4th Street @ Seward Avenue (W)","stopLat":44.06917,"stopLon":-121.3008},"147685":{"stopID":"147685","stopName":"4th Street @ Olney Avenue (W)","stopLat":44.0653,"stopLon":-121.3008},"147686":{"stopID":"147686","stopName":"4th Street @ Penn Avenue (E)","stopLat":44.06609,"stopLon":-121.30065},"147687":{"stopID":"147687","stopName":"4th Street @ Seward Avenue (E)","stopLat":44.06911,"stopLon":-121.30065},"147688":{"stopID":"147688","stopName":"Studio Road @ Underwood Avenue (E)","stopLat":44.07074,"stopLon":-121.29946},"147689":{"stopID":"147689","stopName":"Studio Road @ Majesty Lane (E)","stopLat":44.07437,"stopLon":-121.29784},"147690":{"stopID":"147690","stopName":"Studio Road @ Butler Market Road (E)","stopLat":44.07596,"stopLon":-121.29705},"147691":{"stopID":"147691","stopName":"3rd Street @ Butler Market Road (E)","stopLat":44.07982,"stopLon":-121.30474},"147692":{"stopID":"147692","stopName":"3rd Street @ Bend River Promenade (E)","stopLat":44.08267,"stopLon":-121.30531},"147693":{"stopID":"147693","stopName":"3rd Street @ Sugar Loaf (E)","stopLat":44.08743,"stopLon":-121.30606},"147694":{"stopID":"147694","stopName":"Jamison Street @ All Seasons RV (E)","stopLat":44.09356,"stopLon":-121.30446},"147695":{"stopID":"147695","stopName":"Jamison Street @ Halfway Road (E)","stopLat":44.09633,"stopLon":-121.30363},"147696":{"stopID":"147696","stopName":"Jamison Street @ Highway 20 (E)","stopLat":44.09973,"stopLon":-121.30457},"147697":{"stopID":"147697","stopName":"3rd Street @ ODOT Park n Ride (W)","stopLat":44.08995,"stopLon":-121.30563},"147698":{"stopID":"147698","stopName":"3rd Street @ Burger King (W)","stopLat":44.0869,"stopLon":-121.30641},"147699":{"stopID":"147699","stopName":"3rd Street @ North Subway (W)","stopLat":44.08465,"stopLon":-121.30606},"147700":{"stopID":"147700","stopName":"3rd Street @ O.B. Riley Road (W)","stopLat":44.08133,"stopLon":-121.30534},"147701":{"stopID":"147701","stopName":"3rd Street @ Vail Avenue (W)","stopLat":44.07126,"stopLon":-121.30259},"147702":{"stopID":"147702","stopName":"3rd Street @ Seward Avenue (W)","stopLat":44.06881,"stopLon":-121.30263},"147703":{"stopID":"147703","stopName":"3rd Street @ Penn Avenue (W)","stopLat":44.06607,"stopLon":-121.30263},"147704":{"stopID":"147704","stopName":"3rd Street @ Dekalb Avenue (W)","stopLat":44.05403,"stopLon":-121.30265},"147705":{"stopID":"147705","stopName":"Brookswood Boulevard @ Pinebrook Boulevard (W)","stopLat":44.02175,"stopLon":-121.32773},"147706":{"stopID":"147706","stopName":"Lodgepole Drive @ Mahogany Street (W)","stopLat":44.01511,"stopLon":-121.33313},"147707":{"stopID":"147707","stopName":"Poplar Street @ Lodgepole Drive (N)","stopLat":44.011,"stopLon":-121.33342},"147708":{"stopID":"147708","stopName":"Poplar Street @ Onyx Street (N)","stopLat":44.01098,"stopLon":-121.33817},"147709":{"stopID":"147709","stopName":"Poplar Street @ Brookswood Boulevard (N)","stopLat":44.01095,"stopLon":-121.34383},"147710":{"stopID":"147710","stopName":"Brookswood Boulevard @ River Rim Drive (E)","stopLat":44.01324,"stopLon":-121.34555},"147711":{"stopID":"147711","stopName":"Brookswood Boulevard @ Hollygrape Street (S)","stopLat":44.01865,"stopLon":-121.34445},"147712":{"stopID":"147712","stopName":"Brookswood Boulevard @ Montrose Pass Street (S)","stopLat":44.01866,"stopLon":-121.33642},"147713":{"stopID":"147713","stopName":"Brookswood Boulevard @ Lodgepole Drive (S)","stopLat":44.01917,"stopLon":-121.33255},"147714":{"stopID":"147714","stopName":"Brookswood Boulevard @ Pinebrook Boulevard (E)","stopLat":44.02197,"stopLon":-121.3273},"147715":{"stopID":"147715","stopName":"Brookswood Boulevard @ Copper Canyon Way (E)","stopLat":44.02504,"stopLon":-121.32409},"147716":{"stopID":"147716","stopName":"Franklin Avenue @ 6th Street (S)","stopLat":44.0559,"stopLon":-121.29697},"147717":{"stopID":"147717","stopName":"Franklin Avenue @ 9th Street (S)","stopLat":44.05589,"stopLon":-121.29192},"147718":{"stopID":"147718","stopName":"Bear Creek Road @ 13th Street (S)","stopLat":44.05246,"stopLon":-121.28861},"147719":{"stopID":"147719","stopName":"27th Street @ Bear Creek Road (W)","stopLat":44.05174,"stopLon":-121.26374},"147720":{"stopID":"147720","stopName":"27th Street @ Clairaway Avenue (W)","stopLat":44.04174,"stopLon":-121.26372},"147721":{"stopID":"147721","stopName":"27th Street @ Reed Market Road (W)","stopLat":44.03725,"stopLon":-121.26378},"147722":{"stopID":"147722","stopName":"Reed Market Road @ Pettigrew Road (N)","stopLat":44.0371,"stopLon":-121.26904},"147723":{"stopID":"147723","stopName":"Reed Market Road @ Bend Senior Center (N)","stopLat":44.03704,"stopLon":-121.2815},"147724":{"stopID":"147724","stopName":"Franklin Avenue @ 9th Street (N)","stopLat":44.056,"stopLon":-121.29237},"147725":{"stopID":"147725","stopName":"Franklin Avenue @ 7th Street (N)","stopLat":44.05604,"stopLon":-121.2952},"147726":{"stopID":"147726","stopName":"3rd Street @ Davis Avenue (W)","stopLat":44.04845,"stopLon":-121.3026},"147727":{"stopID":"147727","stopName":"3rd Street @ Yew Lane (W)","stopLat":44.04514,"stopLon":-121.3026},"147728":{"stopID":"147728","stopName":"3rd Street @ Wilson Avenue (W)","stopLat":44.04386,"stopLon":-121.30263},"147729":{"stopID":"147729","stopName":"3rd Street @ Cleveland Avenue (W)","stopLat":44.04055,"stopLon":-121.30376},"147730":{"stopID":"147730","stopName":"3rd Street @ Reed Market Road (W)","stopLat":44.0379,"stopLon":-121.30438},"147731":{"stopID":"147731","stopName":"3rd Street @ Fred Meyer Complex (W)","stopLat":44.03404,"stopLon":-121.3073},"147732":{"stopID":"147732","stopName":"3rd Street @ Powers Road (W)","stopLat":44.02817,"stopLon":-121.31316},"147733":{"stopID":"147733","stopName":"3rd Street @ Auto Lane (W)","stopLat":44.02604,"stopLon":-121.31437},"147734":{"stopID":"147734","stopName":"3rd Street @ Walmart (W)","stopLat":44.02298,"stopLon":-121.31564},"147735":{"stopID":"147735","stopName":"3rd Street @ Factory Outlet (E)","stopLat":44.02629,"stopLon":-121.31396},"147736":{"stopID":"147736","stopName":"3rd Street @ Powers Road (E)","stopLat":44.02958,"stopLon":-121.31144},"147737":{"stopID":"147737","stopName":"3rd Street @ Reed Lane (E)","stopLat":44.03232,"stopLon":-121.30868},"147738":{"stopID":"147738","stopName":"3rd Street @ Fred Meyer Complex (E)","stopLat":44.03439,"stopLon":-121.3066},"147739":{"stopID":"147739","stopName":"3rd Street @ Reed Market Road (E)","stopLat":44.03736,"stopLon":-121.30423},"147740":{"stopID":"147740","stopName":"3rd Street @ Cleveland Avenue (E)","stopLat":44.0405,"stopLon":-121.30349},"147741":{"stopID":"147741","stopName":"3rd Street @ Roosevelt Avenue (E)","stopLat":44.04274,"stopLon":-121.30236},"147742":{"stopID":"147742","stopName":"3rd Street @ Yew Lane (E)","stopLat":44.04543,"stopLon":-121.30237},"147743":{"stopID":"147743","stopName":"3rd Street @ Miller Avenue (E)","stopLat":44.0485,"stopLon":-121.30237},"147744":{"stopID":"147744","stopName":"3rd Street @ Penn Avenue (E)","stopLat":44.06584,"stopLon":-121.30239},"147745":{"stopID":"147745","stopName":"3rd Street @ Wagner Mall (E)","stopLat":44.0688,"stopLon":-121.30241},"147746":{"stopID":"147746","stopName":"3rd Street @ Webster Avenue (E)","stopLat":44.07233,"stopLon":-121.30201},"147747":{"stopID":"147747","stopName":"Greenwood Avenue @ Bond Street (N)","stopLat":44.06006,"stopLon":-121.31087},"147748":{"stopID":"147748","stopName":"Newport Avenue @ 14th Street (S)","stopLat":44.06222,"stopLon":-121.3321},"147749":{"stopID":"147749","stopName":"Galveston Avenue @ Harmon Boulevard (S)","stopLat":44.05657,"stopLon":-121.32596},"147750":{"stopID":"147750","stopName":"Franklin Avenue @ Lava Road (S)","stopLat":44.0565,"stopLon":-121.31201},"147751":{"stopID":"147751","stopName":"14th Street @ Knoll Avenue (E)","stopLat":44.04902,"stopLon":-121.33181},"147752":{"stopID":"147752","stopName":"3rd Street @ Nels Anderson Road (E)","stopLat":44.08911,"stopLon":-121.30557},"147753":{"stopID":"147753","stopName":"27th Street @ Anne Lane (W)","stopLat":44.04684,"stopLon":-121.26372},"147754":{"stopID":"147754","stopName":"Bond Street @ Industrial Way (W)","stopLat":44.05004,"stopLon":-121.31403},"147755":{"stopID":"147755","stopName":"Norton Avenue @ 4th Street (S)","stopLat":44.06385,"stopLon":-121.30028},"147756":{"stopID":"147756","stopName":"5th Street @ Kearney Avenue (E)","stopLat":44.06084,"stopLon":-121.29888},"147757":{"stopID":"147757","stopName":"5th Street @ Kearney Avenue (W)","stopLat":44.06085,"stopLon":-121.29908},"147758":{"stopID":"147758","stopName":"5th Street @ Marshall High School (W)","stopLat":44.06258,"stopLon":-121.29912},"147759":{"stopID":"147759","stopName":"Norton Avenue @ 4th Street (N)","stopLat":44.064,"stopLon":-121.30029},"147760":{"stopID":"147760","stopName":"Cascade Lakes Byway @ Mt. Bachelor West Village (W)","stopLat":44.00328,"stopLon":-121.67869},"147761":{"stopID":"147761","stopName":"Century Drive @ Donovan Avenue (OSU) (E)","stopLat":44.04264,"stopLon":-121.33145},"147762":{"stopID":"147762","stopName":"Quail Trail @ Juniper Street (S)","stopLat":44.75364,"stopLon":-121.25717},"147763":{"stopID":"147763","stopName":"Warm Springs Street @ Warm Springs Market (S)","stopLat":44.76332,"stopLon":-121.2651},"147764":{"stopID":"147764","stopName":"Foster Street @ Bray Avenue (W)","stopLat":44.75779,"stopLon":-121.28122},"147765":{"stopID":"147765","stopName":"Tenino Road @ Warm Springs Community Center (E)","stopLat":44.75928,"stopLon":-121.26863},"147766":{"stopID":"147766","stopName":"Highway 97 @ Dollar Tree (W)","stopLat":44.6166,"stopLon":-121.13429},"147767":{"stopID":"147767","stopName":"3rd Street @ Norton Avenue (E)","stopLat":44.0642,"stopLon":-121.30238},"147768":{"stopID":"147768","stopName":"Wall Street @ Arizona Avenue (W)","stopLat":44.05163,"stopLon":-121.31768},"147769":{"stopID":"147769","stopName":"Reed Market Road @ Fargo Lane (N)","stopLat":44.03718,"stopLon":-121.27296},"147770":{"stopID":"147770","stopName":"27th Street @ Reed Market Road (E)","stopLat":44.0376,"stopLon":-121.26354},"147772":{"stopID":"147772","stopName":"E Street @ 1st Street (N)","stopLat":44.52351,"stopLon":-121.21045},"147773":{"stopID":"147773","stopName":"Highway 97 @ Robal Road (W)","stopLat":44.10258,"stopLon":-121.29948},"147774":{"stopID":"147774","stopName":"Robal Lane @ Hunnell Road (S)","stopLat":44.10315,"stopLon":-121.30093},"147775":{"stopID":"147775","stopName":"2nd Street @ Crook County Library (S)","stopLat":44.30195,"stopLon":-120.85752},"147776":{"stopID":"147776","stopName":"3rd Street @ Harwood Avenue (N)","stopLat":44.303,"stopLon":-120.85448},"147777":{"stopID":"147777","stopName":"Main Avenue @ Cedar Street (N)","stopLat":44.29222,"stopLon":-121.54441},"147778":{"stopID":"147778","stopName":"Main Avenue @ Oak Street (N)","stopLat":44.29223,"stopLon":-121.55274},"147779":{"stopID":"147779","stopName":"4th Street @ Huntington Road (N)","stopLat":43.67033,"stopLon":-121.50468},"147784":{"stopID":"147784","stopName":"Hawthorne Station","stopLat":44.05803,"stopLon":-121.30151},"147785":{"stopID":"147785","stopName":"Cherry Lane @ Plateau Travel Plaza (S)","stopLat":44.66377,"stopLon":-121.13774},"147786":{"stopID":"147786","stopName":"Simpson @ Century","stopLat":44.0481,"stopLon":-121.33185},"147787":{"stopID":"147787","stopName":"Scout Drive @ Tribal Administration (S)","stopLat":44.75859,"stopLon":-121.27339},"147788":{"stopID":"147788","stopName":"Holiday Street @ Warm Springs Department of Human Services (W)","stopLat":44.77793,"stopLon":-121.25028},"147792":{"stopID":"147792","stopName":"3rd Street @ Roosevelt Avenue (W)","stopLat":44.04275,"stopLon":-121.3026},"147793":{"stopID":"147793","stopName":"Baker Court @ Riverwoods Country Store (S)","stopLat":43.99216,"stopLon":-121.33698},"147794":{"stopID":"147794","stopName":"Badger Road @ Chinook Drive (S)","stopLat":44.39579,"stopLon":-121.23628},"147795":{"stopID":"147795","stopName":"Old Fire Hall @ Shad Road (N)","stopLat":44.43688,"stopLon":-121.26508},"147796":{"stopID":"147796","stopName":"Panorama Park @ Panorama Road (N)","stopLat":44.45804,"stopLon":-121.30178},"147797":{"stopID":"147797","stopName":"Quail Road @ Chukkar Drive (W)","stopLat":44.40087,"stopLon":-121.2742},"147798":{"stopID":"147798","stopName":"Walmart @ Oak Tree Ln (S)","stopLat":44.29257,"stopLon":-121.17062},"147799":{"stopID":"147799","stopName":"Fred Meyer @ Veterans Way (E)","stopLat":44.26782,"stopLon":-121.17609},"147800":{"stopID":"147800","stopName":"Columbia Street @ Mt. Bachelor Park n Ride (E)","stopLat":44.05037,"stopLon":-121.3269},"147801":{"stopID":"147801","stopName":"Shevlin Park Road @ Campus Village Way (N)","stopLat":44.06734,"stopLon":-121.35342},"147802":{"stopID":"147802","stopName":"3rd Street @ Kearney Avenue (E)","stopLat":44.06108,"stopLon":-121.30239},"147803":{"stopID":"147803","stopName":"Century Drive @ Chandler Avenue (OSU) (W)","stopLat":44.0421,"stopLon":-121.33199},"147804":{"stopID":"147804","stopName":"Shevlin Park Road @ Silas Place (N)","stopLat":44.06566,"stopLon":-121.34896},"147805":{"stopID":"147805","stopName":"Mount Washington Drive @ Campus Village Way (E)","stopLat":44.06968,"stopLon":-121.35416},"147806":{"stopID":"147806","stopName":"Medical Center Drive @ St. Charles Hospital (W)","stopLat":44.06652,"stopLon":-121.26684},"147808":{"stopID":"147808","stopName":"27th Street @ Forum Drive (W)","stopLat":44.05885,"stopLon":-121.26394},"147809":{"stopID":"147809","stopName":"27th Street @ Micks Drive (W)","stopLat":44.0566,"stopLon":-121.2639},"147810":{"stopID":"147810","stopName":"Reed Market Road @ Teakwood Drive (N)","stopLat":44.03713,"stopLon":-121.27691},"147811":{"stopID":"147811","stopName":"15th Street @ Bear Creek Road (W)","stopLat":44.05151,"stopLon":-121.28462},"147812":{"stopID":"147812","stopName":"Reed Market Road @ Orion Drive (S)","stopLat":44.03699,"stopLon":-121.26842},"147813":{"stopID":"147813","stopName":"27th Street @ Starlight Drive (E)","stopLat":44.04079,"stopLon":-121.26352},"147815":{"stopID":"147815","stopName":"27th Street @ Bear Creek Road (E)","stopLat":44.05108,"stopLon":-121.26342},"147816":{"stopID":"147816","stopName":"27th Street @ Highway 20 (E)","stopLat":44.05461,"stopLon":-121.26351},"147817":{"stopID":"147817","stopName":"Greenwood Avenue @ 6th Street (N)","stopLat":44.06006,"stopLon":-121.29743},"147818":{"stopID":"147818","stopName":"Greenwood Avenue @ 9th Street (S)","stopLat":44.05986,"stopLon":-121.29286},"147819":{"stopID":"147819","stopName":"Greenwood Avenue @ 12th Street (S)","stopLat":44.0597,"stopLon":-121.2891},"147820":{"stopID":"147820","stopName":"Greenwood Avenue @ 15th Street (S)","stopLat":44.05644,"stopLon":-121.28328},"147821":{"stopID":"147821","stopName":"Greenwood Avenue @ Larkspur Trail (S)","stopLat":44.05634,"stopLon":-121.28132},"147822":{"stopID":"147822","stopName":"Greenwood Avenue @ Azure Drive (S)","stopLat":44.05506,"stopLon":-121.27508},"147823":{"stopID":"147823","stopName":"Greenwood Avenue @ Dean Swift Road (S)","stopLat":44.05484,"stopLon":-121.27089},"147825":{"stopID":"147825","stopName":"27th Street @ Wichita Way (E)","stopLat":44.06776,"stopLon":-121.26365},"147826":{"stopID":"147826","stopName":"Courtney Drive @ 27th Street (N)","stopLat":44.07207,"stopLon":-121.26412},"147827":{"stopID":"147827","stopName":"Conners Avenue @ Courtney Drive (W)","stopLat":44.07225,"stopLon":-121.26782},"147828":{"stopID":"147828","stopName":"Conners Avenue @ Doctors Drive (W)","stopLat":44.07042,"stopLon":-121.26593},"147829":{"stopID":"147829","stopName":"Greenwood Avenue @ Purcell Boulevard (S)","stopLat":44.05506,"stopLon":-121.26917},"147830":{"stopID":"147830","stopName":"Greenwood Avenue @ Arnett Way (N)","stopLat":44.05618,"stopLon":-121.278},"147831":{"stopID":"147831","stopName":"Greenwood Avenue @ 15th Street (N)","stopLat":44.05682,"stopLon":-121.28436},"147832":{"stopID":"147832","stopName":"Greenwood Avenue @ 12th Street (N)","stopLat":44.06003,"stopLon":-121.28967},"147833":{"stopID":"147833","stopName":"Greenwood Avenue @ 8th Street (N)","stopLat":44.06006,"stopLon":-121.29403},"147834":{"stopID":"147834","stopName":"Greenwood Avenue @ 6th Street (S)","stopLat":44.05986,"stopLon":-121.29679},"147835":{"stopID":"147835","stopName":"Wall Street @ Colorado Avenue (W)","stopLat":44.05252,"stopLon":-121.31774},"147836":{"stopID":"147836","stopName":"Franklin Avenue @ 2nd Street (S)","stopLat":44.05586,"stopLon":-121.30461},"147837":{"stopID":"147837","stopName":"Century Drive @ Mount Washington Drive (N)","stopLat":44.03903,"stopLon":-121.3357},"147838":{"stopID":"147838","stopName":"Century Drive @ Safeway Center (E)","stopLat":44.04668,"stopLon":-121.3313},"147839":{"stopID":"147839","stopName":"Greenwood Avenue @ Azure Drive (N)","stopLat":44.05542,"stopLon":-121.27552},"147840":{"stopID":"147840","stopName":"Cedar Street @ Safeway (N)","stopLat":44.64325,"stopLon":-121.12783},"147841":{"stopID":"147841","stopName":"10th Street @ Madras High School (E)","stopLat":44.63008,"stopLon":-121.1244},"147842":{"stopID":"147842","stopName":"B Street @ COCC (N)","stopLat":44.63633,"stopLon":-121.10595},"147843":{"stopID":"147843","stopName":"A Street @ St. Charles Hospital (N)","stopLat":44.63746,"stopLon":-121.12036},"147844":{"stopID":"147844","stopName":"3rd Street @ Madras DMV (E)","stopLat":44.63203,"stopLon":-121.13196},"147845":{"stopID":"147845","stopName":"5th Street @ Busy Bee (E)","stopLat":44.62945,"stopLon":-121.13019},"147846":{"stopID":"147846","stopName":"Highway 97 @ Bi-Mart (E)","stopLat":44.61417,"stopLon":-121.13527},"147847":{"stopID":"147847","stopName":"Highway 26 @ Casino/Plaza (N)","stopLat":44.76455,"stopLon":-121.25171},"147848":{"stopID":"147848","stopName":"West Hills Drive @ Poosh Avenue (E)","stopLat":44.75387,"stopLon":-121.28627},"147849":{"stopID":"147849","stopName":"Kot-Num Road @ Indian Health Services and Early Childhood Education (W)","stopLat":44.75381,"stopLon":-121.27378},"147850":{"stopID":"147850","stopName":"High Lokee Street @ Warm Springs Senior Center (W)","stopLat":44.75456,"stopLon":-121.26792},"147851":{"stopID":"147851","stopName":"Autumn Avenue @ Community Counseling (E)","stopLat":44.76391,"stopLon":-121.27151},"147852":{"stopID":"147852","stopName":"Buff Street @ 6th Street (S)","stopLat":44.62865,"stopLon":-121.12829},"147854":{"stopID":"147854","stopName":"Kuckup Street @ High Lokee Street (E)","stopLat":44.75213,"stopLon":-121.26844},"147855":{"stopID":"147855","stopName":"George Cyrus Road @ Highway 126 (W)","stopLat":44.2911,"stopLon":-121.45353},"147856":{"stopID":"147856","stopName":"3rd Street @ La Quinta (E)","stopLat":44.0215,"stopLon":-121.31596},"147857":{"stopID":"147857","stopName":"3rd Street @ Lafayette Avenue (W)","stopLat":44.0617,"stopLon":-121.30255},"147861":{"stopID":"147861","stopName":"15th Street @ Bronzewood Avenue (E)","stopLat":44.04052,"stopLon":-121.28367},"147862":{"stopID":"147862","stopName":"15th Street @ Riviera Drive (E)","stopLat":44.04686,"stopLon":-121.28373},"147863":{"stopID":"147863","stopName":"Bear Creek Road @ 13th Street (N)","stopLat":44.05244,"stopLon":-121.28758},"147864":{"stopID":"147864","stopName":"15th Street @ Wilson Avenue (E)","stopLat":44.0444,"stopLon":-121.28364},"147865":{"stopID":"147865","stopName":"15th Street @ Bear Creek Road (E)","stopLat":44.05115,"stopLon":-121.28409},"147866":{"stopID":"147866","stopName":"15th Street @ Riviera Drive (W)","stopLat":44.04685,"stopLon":-121.28384},"147867":{"stopID":"147867","stopName":"15th Street @ Wilson Avenue (W)","stopLat":44.04396,"stopLon":-121.28388},"147868":{"stopID":"147868","stopName":"15th Street @ Bronzewood Avenue (N)","stopLat":44.04048,"stopLon":-121.28386},"147869":{"stopID":"147869","stopName":"Reed Market Road @ Newberry Drive (S)","stopLat":44.03693,"stopLon":-121.28106},"147870":{"stopID":"147870","stopName":"Reed Market Road @ Teakwood Drive (S)","stopLat":44.03699,"stopLon":-121.27644},"147871":{"stopID":"147871","stopName":"Reed Market Road @ Fargo Lane (S)","stopLat":44.03702,"stopLon":-121.27257},"151356":{"stopID":"151356","stopName":"Simpson Avenue @ Columbia Street (N)","stopLat":44.04819,"stopLon":-121.32671},"151357":{"stopID":"151357","stopName":"Shevlin Hixon Drive @ Riverbend Park (W)","stopLat":44.04308,"stopLon":-121.32062},"151358":{"stopID":"151358","stopName":"Cascade Lakes Welcome Station","stopLat":43.99815,"stopLon":-121.40545},"151359":{"stopID":"151359","stopName":"Wanoga Sno Park","stopLat":43.9838,"stopLon":-121.54421},"151360":{"stopID":"151360","stopName":"Swampy Lakes","stopLat":43.98965,"stopLon":-121.56783},"151361":{"stopID":"151361","stopName":"Dutchman Flat","stopLat":44.00021,"stopLon":-121.66394},"151362":{"stopID":"151362","stopName":"27th Street @ Chilliwack (E)","stopLat":44.04652,"stopLon":-121.26347},"151363":{"stopID":"151363","stopName":"Top of Lava Butte","stopLat":43.91801,"stopLon":-121.35672},"151364":{"stopID":"151364","stopName":"Lava Lands Visitor Center","stopLat":43.90981,"stopLon":-121.35623}}