{"4538":{"stopID":"4538","stopName":"Law School","stopLat":33.20502,"stopLon":-87.5375},"4543":{"stopID":"4543","stopName":"Bidgood Hall","stopLat":33.21168,"stopLon":-87.54785},"4830":{"stopID":"4830","stopName":"Lloyd Hall","stopLat":33.21057,"stopLon":-87.54428},"5102":{"stopID":"5102","stopName":"Rose Admin. Building","stopLat":33.20965,"stopLon":-87.54697},"7620":{"stopID":"7620","stopName":"Bluffs","stopLat":33.22038,"stopLon":-87.52764},"7624":{"stopID":"7624","stopName":"Bryant Hall Academic Center","stopLat":33.20977,"stopLon":-87.54163},"7629":{"stopID":"7629","stopName":"6th Ave/Bryant Dr","stopLat":33.20598,"stopLon":-87.54424},"7633":{"stopID":"7633","stopName":"North Commuter ( Campus Drive Westbound)","stopLat":33.2136,"stopLon":-87.53375},"7634":{"stopID":"7634","stopName":"Capstone College of Nursing","stopLat":33.20729,"stopLon":-87.52627},"7635":{"stopID":"7635","stopName":"Capstone Retirement Village (Northbound)","stopLat":33.21038,"stopLon":-87.52952},"7637":{"stopID":"7637","stopName":"Child Development Center","stopLat":33.20885,"stopLon":-87.52962},"7639":{"stopID":"7639","stopName":"Coleman Coliseum Commuter Parking (Eastbound)","stopLat":33.20375,"stopLon":-87.53869},"7656":{"stopID":"7656","stopName":"Capstone Deck/Moody Music (Northbound)","stopLat":33.20625,"stopLon":-87.53741},"7670":{"stopID":"7670","stopName":"Student Health Center (Westbound)","stopLat":33.20893,"stopLon":-87.53063},"7678":{"stopID":"7678","stopName":"The Crimson","stopLat":33.19723,"stopLon":-87.55236},"7684":{"stopID":"7684","stopName":"Reese Phifer (Colonial)","stopLat":33.20942,"stopLon":-87.54855},"7686":{"stopID":"7686","stopName":"Transportation Hub Deck","stopLat":33.21291,"stopLon":-87.54156},"7698":{"stopID":"7698","stopName":"Riverfront Apartments","stopLat":33.21358,"stopLon":-87.57035},"7699":{"stopID":"7699","stopName":"The Lofts","stopLat":33.19975,"stopLon":-87.52302},"7700":{"stopID":"7700","stopName":"Mal Moore Athletic Facility","stopLat":33.20396,"stopLon":-87.53971},"7710":{"stopID":"7710","stopName":"Soccer Lot (Westbound)","stopLat":33.20853,"stopLon":-87.53422},"7713":{"stopID":"7713","stopName":"Soccer Lot (Eastbound)","stopLat":33.20832,"stopLon":-87.53417},"7714":{"stopID":"7714","stopName":"Upper Rec (Southbound)","stopLat":33.21175,"stopLon":-87.5302},"7715":{"stopID":"7715","stopName":"Upper Rec (Northbound)","stopLat":33.21247,"stopLon":-87.53027},"7726":{"stopID":"7726","stopName":"East Edge/South Lawn","stopLat":33.20397,"stopLon":-87.53345},"7727":{"stopID":"7727","stopName":"Smithwood Dr. Hub","stopLat":33.21208,"stopLon":-87.54144},"7729":{"stopID":"7729","stopName":"Ion","stopLat":33.20029,"stopLon":-87.55076},"7730":{"stopID":"7730","stopName":"5th Avenue (Northbound)","stopLat":33.21599,"stopLon":-87.53202},"7731":{"stopID":"7731","stopName":"Mary S. Harper","stopLat":33.2176,"stopLon":-87.5344},"7732":{"stopID":"7732","stopName":"North Lawn Hall (Southbound)","stopLat":33.21683,"stopLon":-87.54025},"7733":{"stopID":"7733","stopName":"Cyber Hall","stopLat":33.21827,"stopLon":-87.53697},"7734":{"stopID":"7734","stopName":"North Lawn Hall at Hackberry","stopLat":33.21652,"stopLon":-87.54022},"7735":{"stopID":"7735","stopName":"Capital Hall","stopLat":33.21608,"stopLon":-87.53543},"7736":{"stopID":"7736","stopName":"North Commuter Lot (Peter Bryce Southbound)","stopLat":33.216,"stopLon":-87.53232},"7737":{"stopID":"7737","stopName":"Lower Rec (Eastbound)","stopLat":33.21342,"stopLon":-87.53392},"8296":{"stopID":"8296","stopName":"Lark","stopLat":33.21667,"stopLon":-87.51605},"8297":{"stopID":"8297","stopName":"Vie at University Downs","stopLat":33.19946,"stopLon":-87.53477},"9493":{"stopID":"9493","stopName":"Front Office","stopLat":33.22095,"stopLon":-87.5306},"12918":{"stopID":"12918","stopName":"Lark Tuscaloosa","stopLat":33.20093,"stopLon":-87.52087},"12919":{"stopID":"12919","stopName":"Cottages","stopLat":33.22487,"stopLon":-87.5017},"19073":{"stopID":"19073","stopName":"Clubhouse","stopLat":33.18724,"stopLon":-87.52079},"19074":{"stopID":"19074","stopName":"Mailboxes","stopLat":33.18897,"stopLon":-87.52065},"20527":{"stopID":"20527","stopName":"4th St. & Bryce Lawn Dr. (Westbound)","stopLat":33.20917,"stopLon":-87.53782},"20531":{"stopID":"20531","stopName":"Cyber Hall (Southbound)","stopLat":33.21802,"stopLon":-87.53651},"20532":{"stopID":"20532","stopName":"Tom Barnes Education Center","stopLat":33.21723,"stopLon":-87.53496},"24483":{"stopID":"24483","stopName":"Gayle-Gorgas Library","stopLat":33.21203,"stopLon":-87.54607},"24484":{"stopID":"24484","stopName":"North Lawn Hall (Northbound)","stopLat":33.21665,"stopLon":-87.54001},"27750":{"stopID":"27750","stopName":"USC/Trolley","stopLat":33.21554,"stopLon":-87.52023}}