{"25122":{"stopID":"25122","stopName":"Northlite Walmart","stopLat":35.46198,"stopLon":-80.59376},"25123":{"stopID":"25123","stopName":"Supercenter Dr","stopLat":35.46391,"stopLon":-80.5924},"25124":{"stopID":"25124","stopName":"The Village / Big Lots","stopLat":35.39887,"stopLon":-80.60974},"25125":{"stopID":"25125","stopName":"Charlotte Motor Speedway (Outbound)","stopLat":35.35137,"stopLon":-80.68942},"25126":{"stopID":"25126","stopName":"Charlotte Motor Speedway (Inbound)","stopLat":35.35116,"stopLon":-80.68907},"25127":{"stopID":"25127","stopName":"N Tryon / Pavilion Blvd (Outbound)","stopLat":35.33551,"stopLon":-80.7158},"25128":{"stopID":"25128","stopName":"N Tryon / Pavilion Blvd (Inbound)","stopLat":35.33537,"stopLon":-80.7147},"25129":{"stopID":"25129","stopName":"JW Clay LYNX Station","stopLat":35.31144,"stopLon":-80.74585},"25130":{"stopID":"25130","stopName":"Rider Transit Center (CCX)","stopLat":35.44251,"stopLon":-80.60988},"25131":{"stopID":"25131","stopName":"International Dr at ABC Operations Center","stopLat":35.41805,"stopLon":-80.65416},"25132":{"stopID":"25132","stopName":"International Dr at Republic Ct","stopLat":35.42019,"stopLon":-80.65429},"25133":{"stopID":"25133","stopName":"Derita Rd / McDonald's","stopLat":35.37338,"stopLon":-80.73193},"25134":{"stopID":"25134","stopName":"Concord Mills - AMC Theaters","stopLat":35.36961,"stopLon":-80.72565},"25135":{"stopID":"25135","stopName":"Barr Rd & Amazon","stopLat":35.44058,"stopLon":-80.68347},"25136":{"stopID":"25136","stopName":"Rt 29 & Michigan St (Inbound)","stopLat":35.46212,"stopLon":-80.60918},"25137":{"stopID":"25137","stopName":"Concord Lake Rd & Alliance Dental","stopLat":35.4533,"stopLon":-80.60119},"25139":{"stopID":"25139","stopName":"Cabarrus Ave & 4th St","stopLat":35.39666,"stopLon":-80.60595},"25140":{"stopID":"25140","stopName":"Cabarrus Ave & Triangle Dr (Outbound)","stopLat":35.39628,"stopLon":-80.6084},"25141":{"stopID":"25141","stopName":"Cabarrus Ave & Gold St","stopLat":35.40407,"stopLon":-80.58944},"25142":{"stopID":"25142","stopName":"Cabarrus Ave & White St (Outbound)","stopLat":35.39846,"stopLon":-80.59931},"25143":{"stopID":"25143","stopName":"Church St & Carolina Ave (Outbound)","stopLat":35.42307,"stopLon":-80.59201},"25144":{"stopID":"25144","stopName":"Church St & Paliside Dr (Outbound)","stopLat":35.42804,"stopLon":-80.59848},"25145":{"stopID":"25145","stopName":"Concord Commons & Walmart","stopLat":35.38966,"stopLon":-80.62205},"25146":{"stopID":"25146","stopName":"Concord Lake Rd & University Dr","stopLat":35.46385,"stopLon":-80.59975},"25147":{"stopID":"25147","stopName":"Corban Ave & Church St (Inbound)","stopLat":35.40901,"stopLon":-80.57865},"25148":{"stopID":"25148","stopName":"Dale Earnhardt Blvd & Chrysler St","stopLat":35.48385,"stopLon":-80.61547},"25149":{"stopID":"25149","stopName":"Dale Earnhardt Blvd & Rogers Lake Rd","stopLat":35.47967,"stopLon":-80.6139},"25150":{"stopID":"25150","stopName":"Dale Earnhardt Blvd & Ford St","stopLat":35.48704,"stopLon":-80.61927},"25151":{"stopID":"25151","stopName":"Dale Earnhardt Blvd & Kannapolis Post Office","stopLat":35.48863,"stopLon":-80.62598},"25152":{"stopID":"25152","stopName":"MLK Jr Ave & Ridge Ave","stopLat":35.49755,"stopLon":-80.62277},"25153":{"stopID":"25153","stopName":"A.L. Brown High School","stopLat":35.49625,"stopLon":-80.61969},"25154":{"stopID":"25154","stopName":"Glendale Aven & Blackwelder Ave","stopLat":35.52788,"stopLon":-80.61999},"25155":{"stopID":"25155","stopName":"Kerr St & Cedar Dr (Outbound)","stopLat":35.40874,"stopLon":-80.59112},"25156":{"stopID":"25156","stopName":"Kerr St & Meisenheimer Dr (Outbound)","stopLat":35.41508,"stopLon":-80.59899},"25157":{"stopID":"25157","stopName":"Lincoln St & Parkview Ave","stopLat":35.39303,"stopLon":-80.58006},"25158":{"stopID":"25158","stopName":"Mcgill Ave & Central Dr (Inbound)","stopLat":35.41573,"stopLon":-80.60743},"25159":{"stopID":"25159","stopName":"Mountain St & Valley St-YMCA","stopLat":35.50452,"stopLon":-80.63544},"25160":{"stopID":"25160","stopName":"N Main St & Blackwelder Ave","stopLat":35.52744,"stopLon":-80.61422},"25161":{"stopID":"25161","stopName":"N Main St & E 22nd St","stopLat":35.5246,"stopLon":-80.61412},"25162":{"stopID":"25162","stopName":"N Main St & Oak Grove St","stopLat":35.51478,"stopLon":-80.61367},"25163":{"stopID":"25163","stopName":"N Main St & W 7th St","stopLat":35.5059,"stopLon":-80.61873},"25164":{"stopID":"25164","stopName":"RCCC","stopLat":35.43771,"stopLon":-80.65923},"25165":{"stopID":"25165","stopName":"Rt 29 & Central Dr - CVS & Lowes (Outbound)","stopLat":35.42709,"stopLon":-80.61398},"25166":{"stopID":"25166","stopName":"Rt 29 & Calloway Ave (Outbound)","stopLat":35.42075,"stopLon":-80.61553},"25167":{"stopID":"25167","stopName":"Rt 29 - S & D Coffee (Outbound)","stopLat":35.39548,"stopLon":-80.61397},"25168":{"stopID":"25168","stopName":"Rt 73 & Branson Rd","stopLat":35.43368,"stopLon":-80.64776},"25169":{"stopID":"25169","stopName":"Rt 73 & Gaither Pl (Outbound)","stopLat":35.43148,"stopLon":-80.62073},"25170":{"stopID":"25170","stopName":"Rt 73 & Mountcrest Cir","stopLat":35.43325,"stopLon":-80.62793},"25171":{"stopID":"25171","stopName":"Rt 73 & Southampton Dr (Outbound)","stopLat":35.4303,"stopLon":-80.6129},"25172":{"stopID":"25172","stopName":"Rt 73 & Waterview Dr","stopLat":35.43319,"stopLon":-80.62824},"25173":{"stopID":"25173","stopName":"Rt 73 & Westgate Cir","stopLat":35.43376,"stopLon":-80.64741},"25174":{"stopID":"25174","stopName":"S Little Texas Rd & Chipola St","stopLat":35.49479,"stopLon":-80.60284},"25175":{"stopID":"25175","stopName":"S Little Texas Rd & El Paso St","stopLat":35.49123,"stopLon":-80.60037},"25176":{"stopID":"25176","stopName":"S Little Texas Rd & Summit Ridge Ln","stopLat":35.48489,"stopLon":-80.60115},"25177":{"stopID":"25177","stopName":"W 22nd St & Crestmont St","stopLat":35.52496,"stopLon":-80.62815},"25178":{"stopID":"25178","stopName":"W 22nd St & Running Brook Dr","stopLat":35.52404,"stopLon":-80.62369},"25179":{"stopID":"25179","stopName":"West A St & Bakers Creek Park","stopLat":35.51301,"stopLon":-80.63228},"25180":{"stopID":"25180","stopName":"West A St & Goldston St","stopLat":35.50628,"stopLon":-80.632},"25181":{"stopID":"25181","stopName":"West A St & Klutz St","stopLat":35.51957,"stopLon":-80.63218},"25182":{"stopID":"25182","stopName":"Lake Concord Rd & Northeast Medical Center (Outbound)","stopLat":35.43527,"stopLon":-80.6002},"25183":{"stopID":"25183","stopName":"Brantley Rd & Pearl Ave","stopLat":35.50152,"stopLon":-80.60692},"25184":{"stopID":"25184","stopName":"MLK Jr Ave & Denver St","stopLat":35.49527,"stopLon":-80.61737},"25185":{"stopID":"25185","stopName":"Airport Rd & Highland Ave","stopLat":35.53394,"stopLon":-80.61874},"25186":{"stopID":"25186","stopName":"Glendale Ave & Westview St","stopLat":35.52528,"stopLon":-80.62001},"25187":{"stopID":"25187","stopName":"Penny Ln & Copperfield Blvd","stopLat":35.44787,"stopLon":-80.59476},"25188":{"stopID":"25188","stopName":"Georgia Ave & Booker Dr","stopLat":35.39955,"stopLon":-80.58185},"25189":{"stopID":"25189","stopName":"Lincoln St & Malvern Dr","stopLat":35.39601,"stopLon":-80.57961},"25190":{"stopID":"25190","stopName":"Rutherford St & Brunting Ln","stopLat":35.38561,"stopLon":-80.58265},"25191":{"stopID":"25191","stopName":"Wilshire Ave & Webb Rd","stopLat":35.38161,"stopLon":-80.58815},"25192":{"stopID":"25192","stopName":"Wilshire Ave & Highland Ave","stopLat":35.37929,"stopLon":-80.59365},"25193":{"stopID":"25193","stopName":"Wilshire Ave & Old Charlotte Rd","stopLat":35.37672,"stopLon":-80.59762},"25194":{"stopID":"25194","stopName":"Old Charlotte Rd & Splicewood Dr","stopLat":35.38051,"stopLon":-80.59853},"25195":{"stopID":"25195","stopName":"Old Charlotte Rd & Union Cemetery Rd","stopLat":35.38316,"stopLon":-80.59763},"25196":{"stopID":"25196","stopName":"Kerr St & Elm Ave (Outbound)","stopLat":35.41121,"stopLon":-80.59504},"25197":{"stopID":"25197","stopName":"Rt 73 & Farrington Apts (Outbound)","stopLat":35.43413,"stopLon":-80.63149},"25198":{"stopID":"25198","stopName":"Old Charlotte Rd & Office St","stopLat":35.39034,"stopLon":-80.59173},"25199":{"stopID":"25199","stopName":"Old Charlotte Rd & Melchor Ct","stopLat":35.39363,"stopLon":-80.5908},"25200":{"stopID":"25200","stopName":"Old Charlotte Rd & Pharr Dr","stopLat":35.39749,"stopLon":-80.59089},"25201":{"stopID":"25201","stopName":"Corban Ave & Powder St","stopLat":35.40272,"stopLon":-80.58872},"25202":{"stopID":"25202","stopName":"West A St & Oval St","stopLat":35.50973,"stopLon":-80.63236},"25203":{"stopID":"25203","stopName":"Church St & Locke Mill Plaza","stopLat":35.41939,"stopLon":-80.58951},"25204":{"stopID":"25204","stopName":"Church St & Marsh Ave","stopLat":35.41533,"stopLon":-80.58496},"25205":{"stopID":"25205","stopName":"Church St & Killarney Ave","stopLat":35.41241,"stopLon":-80.5816},"25207":{"stopID":"25207","stopName":"Corban Ave & Church St (Outbound)","stopLat":35.40906,"stopLon":-80.57887},"25208":{"stopID":"25208","stopName":"Corban Ave & Georgia St (Outbound)","stopLat":35.40583,"stopLon":-80.58341},"25209":{"stopID":"25209","stopName":"Corban Ave & Fenix Dr","stopLat":35.40422,"stopLon":-80.58603},"25210":{"stopID":"25210","stopName":"Corban Ave & Georgia St (Inbound)","stopLat":35.40574,"stopLon":-80.58333},"25211":{"stopID":"25211","stopName":"Church St & Creswell Dr","stopLat":35.41292,"stopLon":-80.58198},"25212":{"stopID":"25212","stopName":"Church St & Meadow Ave","stopLat":35.41668,"stopLon":-80.58628},"25213":{"stopID":"25213","stopName":"Church St & Waddell Ave","stopLat":35.42037,"stopLon":-80.59001},"25214":{"stopID":"25214","stopName":"Crowell Dr & Cabarrus Ave (Outbound)","stopLat":35.40693,"stopLon":-80.5871},"25215":{"stopID":"25215","stopName":"Crowell Dr & Cabarrus Ave (Inbound)","stopLat":35.40709,"stopLon":-80.58706},"25216":{"stopID":"25216","stopName":"Central Dr & Lake Dr","stopLat":35.41927,"stopLon":-80.60972},"25217":{"stopID":"25217","stopName":"RCCC Business & Technology Center (Inbound)","stopLat":35.41851,"stopLon":-80.61295},"25218":{"stopID":"25218","stopName":"Lyles Ln & Fireball Roberts Rd","stopLat":35.36611,"stopLon":-80.71184},"25219":{"stopID":"25219","stopName":"Mcgill Ave & Central Dr (Outbound)","stopLat":35.41557,"stopLon":-80.60737},"25220":{"stopID":"25220","stopName":"Executive Park Dr - Daymark","stopLat":35.45211,"stopLon":-80.59848},"25221":{"stopID":"25221","stopName":"Cabarrus Ave & Old Charlotte Rd","stopLat":35.3999,"stopLon":-80.59411},"25222":{"stopID":"25222","stopName":"Embassy Suites","stopLat":35.36412,"stopLon":-80.70026},"25223":{"stopID":"25223","stopName":"Gateway Ln","stopLat":35.36527,"stopLon":-80.70707},"25224":{"stopID":"25224","stopName":"Enterprise Dr","stopLat":35.42191,"stopLon":-80.66146},"25225":{"stopID":"25225","stopName":"International Dr & Corporate Dr","stopLat":35.42422,"stopLon":-80.65455},"25226":{"stopID":"25226","stopName":"Glen Afton Blvd & Afton Ridge","stopLat":35.42118,"stopLon":-80.6777},"25227":{"stopID":"25227","stopName":"Bayfield Pkwy & Afton Ridge - Target","stopLat":35.4182,"stopLon":-80.67596},"25228":{"stopID":"25228","stopName":"Poplar Tent Rd & Coddle Market Dr","stopLat":35.41365,"stopLon":-80.66324},"25229":{"stopID":"25229","stopName":"Richard Ave & Beechwood St","stopLat":35.47987,"stopLon":-80.63627},"25230":{"stopID":"25230","stopName":"Richard Ave & Cabarrus Arms Apts","stopLat":35.48318,"stopLon":-80.63176},"25231":{"stopID":"25231","stopName":"Bethpage Rd & Aileen Ave","stopLat":35.48493,"stopLon":-80.62847},"25232":{"stopID":"25232","stopName":"Kannapolis Train Station","stopLat":35.49649,"stopLon":-80.62416},"25233":{"stopID":"25233","stopName":"S Main St & Triece St","stopLat":35.47496,"stopLon":-80.62416},"25234":{"stopID":"25234","stopName":"S Main St & Briarcliff Dr","stopLat":35.46333,"stopLon":-80.62171},"25235":{"stopID":"25235","stopName":"Country Club Dr - Cooperative Christian Ministries (Inbound)","stopLat":35.44542,"stopLon":-80.60255},"25236":{"stopID":"25236","stopName":"Lake Concord Rd & Northeast Medical Center (Inbound)","stopLat":35.43696,"stopLon":-80.59936},"25237":{"stopID":"25237","stopName":"DSS","stopLat":35.47665,"stopLon":-80.60936},"25238":{"stopID":"25238","stopName":"S Little Texas Rd & Mission Tripp St","stopLat":35.48186,"stopLon":-80.60172},"25239":{"stopID":"25239","stopName":"Cabarrus Ave & Lark Ct","stopLat":35.39647,"stopLon":-80.60578},"25240":{"stopID":"25240","stopName":"Cabarrus Ave & Triangle Dr (Inbound)","stopLat":35.39607,"stopLon":-80.60833},"25241":{"stopID":"25241","stopName":"Cabarrus Ave & Valley St","stopLat":35.40488,"stopLon":-80.58875},"25242":{"stopID":"25242","stopName":"Cabarrus Ave & White St (Inbound)","stopLat":35.39877,"stopLon":-80.59776},"25243":{"stopID":"25243","stopName":"Penny Ln & Cabarrus College Of Health Sciences","stopLat":35.44524,"stopLon":-80.596},"25244":{"stopID":"25244","stopName":"Concord Lake Rd & Bishop Ln","stopLat":35.45498,"stopLon":-80.60149},"25245":{"stopID":"25245","stopName":"Church St & Carolina Ave (Inbound)","stopLat":35.42314,"stopLon":-80.59187},"25246":{"stopID":"25246","stopName":"Church St & Paliside Dr (Inbound)","stopLat":35.42817,"stopLon":-80.59827},"25247":{"stopID":"25247","stopName":"Rt 73 & Farrington Apts (Inbound)","stopLat":35.43385,"stopLon":-80.63081},"25248":{"stopID":"25248","stopName":"Kerr St & Cedar Dr (Inbound)","stopLat":35.40874,"stopLon":-80.59127},"25249":{"stopID":"25249","stopName":"Kerr St & Meisenheimer Dr (Inbound)","stopLat":35.4152,"stopLon":-80.59896},"25250":{"stopID":"25250","stopName":"Kerr St & Elm Ave (Inbound)","stopLat":35.41129,"stopLon":-80.59494},"25251":{"stopID":"25251","stopName":"Rt 29 & Calloway Ave (Inbound)","stopLat":35.42096,"stopLon":-80.61527},"25252":{"stopID":"25252","stopName":"Rt 29 - S & D Coffee (Inbound)","stopLat":35.39528,"stopLon":-80.61359},"25253":{"stopID":"25253","stopName":"Rt 73 & Gaither Pl (Inbound)","stopLat":35.43137,"stopLon":-80.62072},"25254":{"stopID":"25254","stopName":"Rt 73 & Southampton Dr (Inbound)","stopLat":35.4302,"stopLon":-80.6129},"25255":{"stopID":"25255","stopName":"Concord Pkwy & Davidson Dr - Mr Cs","stopLat":35.43338,"stopLon":-80.60378},"25256":{"stopID":"25256","stopName":"Thunder Rd - Walmart","stopLat":35.37861,"stopLon":-80.72338},"25257":{"stopID":"25257","stopName":"Thunder Rd & Pit Stop Ct","stopLat":35.37479,"stopLon":-80.72372},"25258":{"stopID":"25258","stopName":"Rt 29 & Cloverleaf Plaza","stopLat":35.45122,"stopLon":-80.60957},"25259":{"stopID":"25259","stopName":"Rt 29 & Michigan St (Outbound)","stopLat":35.46195,"stopLon":-80.60891},"25260":{"stopID":"25260","stopName":"Rt 29 & Dakota St (Outbound)","stopLat":35.4678,"stopLon":-80.60979},"25261":{"stopID":"25261","stopName":"Rt 29 & Sumner St (Outbound)","stopLat":35.47118,"stopLon":-80.6103},"25262":{"stopID":"25262","stopName":"Rt 29 & Dale Earnhardt Blvd","stopLat":35.47426,"stopLon":-80.61074},"25263":{"stopID":"25263","stopName":"Laureate Way & Research Campus Dr","stopLat":35.50175,"stopLon":-80.62346},"25264":{"stopID":"25264","stopName":"N Main St & W 12th St","stopLat":35.50974,"stopLon":-80.61574},"25265":{"stopID":"25265","stopName":"N Main St & W 16th St","stopLat":35.51817,"stopLon":-80.61412},"25266":{"stopID":"25266","stopName":"N Main St & W 20th St","stopLat":35.52157,"stopLon":-80.61432},"25267":{"stopID":"25267","stopName":"Rt 29 & Sumner St - Food Lion (Inbound)","stopLat":35.47092,"stopLon":-80.61056},"25268":{"stopID":"25268","stopName":"Rt 29 & Dakota St (Inbound)","stopLat":35.46735,"stopLon":-80.61004},"25269":{"stopID":"25269","stopName":"Rt 29 & Virginia St","stopLat":35.45915,"stopLon":-80.60877},"25270":{"stopID":"25270","stopName":"S Main St & Fredrick Ave","stopLat":35.47232,"stopLon":-80.62351},"25271":{"stopID":"25271","stopName":"S Main St & Springway Dr","stopLat":35.45929,"stopLon":-80.61965},"25272":{"stopID":"25272","stopName":"S Main St & Easy St","stopLat":35.4535,"stopLon":-80.61703},"25274":{"stopID":"25274","stopName":"Leonard Ave & Bell St","stopLat":35.48755,"stopLon":-80.63197},"25275":{"stopID":"25275","stopName":"Rainbow Dr & Westgreen Dr","stopLat":35.48749,"stopLon":-80.63473},"25276":{"stopID":"25276","stopName":"Rainbow Dr & Leisure Park Cir","stopLat":35.48952,"stopLon":-80.6376},"25277":{"stopID":"25277","stopName":"Pine St & Ridge Apts","stopLat":35.49765,"stopLon":-80.65109},"25278":{"stopID":"25278","stopName":"Pine St & Key West Ave","stopLat":35.49707,"stopLon":-80.64511},"25279":{"stopID":"25279","stopName":"Pine St & Needles Ct","stopLat":35.4974,"stopLon":-80.64057},"25280":{"stopID":"25280","stopName":"Juniper St & Jasmine Ave","stopLat":35.49889,"stopLon":-80.63694},"25281":{"stopID":"25281","stopName":"Juniper St & Cabarrus Health Alliance","stopLat":35.49938,"stopLon":-80.63177},"25282":{"stopID":"25282","stopName":"Biotechnology Lane & Laureate Way","stopLat":35.50241,"stopLon":-80.62611},"25283":{"stopID":"25283","stopName":"N Main St & MLK Jr. Ave","stopLat":35.49849,"stopLon":-80.6237},"25284":{"stopID":"25284","stopName":"Copperfield Blvd & Governors Pointe Ct","stopLat":35.45059,"stopLon":-80.59295},"25285":{"stopID":"25285","stopName":"Copperfield Blvd & Dickens Place","stopLat":35.46252,"stopLon":-80.58566},"25286":{"stopID":"25286","stopName":"Oak Crest Apartments","stopLat":35.46838,"stopLon":-80.60008},"25287":{"stopID":"25287","stopName":"Cloverleaf Pkwy & Concord Lake Rd","stopLat":35.44977,"stopLon":-80.60146},"25288":{"stopID":"25288","stopName":"Cloverleaf Pkwy - Home Depot (Outbound)","stopLat":35.44797,"stopLon":-80.60424},"25289":{"stopID":"25289","stopName":"Cloverleaf Pkwy & Microtel Inn","stopLat":35.4484,"stopLon":-80.60806},"25290":{"stopID":"25290","stopName":"Cloverleaf Pkwy & Cloverleaf Plaza - Salvation Army (Inbound)","stopLat":35.45004,"stopLon":-80.60863},"25291":{"stopID":"25291","stopName":"Cloverleaf Pkwy & Cloverleaf Plaza - IHOP (Outbound)","stopLat":35.4497,"stopLon":-80.60871},"25292":{"stopID":"25292","stopName":"Cloverleaf Pkwy-Econolodge","stopLat":35.44833,"stopLon":-80.60821},"25293":{"stopID":"25293","stopName":"Cloverleaf Pkwy - Home Depot (Inbound)","stopLat":35.4481,"stopLon":-80.60418},"25294":{"stopID":"25294","stopName":"Dale Earnhardt Blvd & Coldwater Ridge Dr","stopLat":35.46903,"stopLon":-80.59165},"25295":{"stopID":"25295","stopName":"Spider Dr","stopLat":35.46399,"stopLon":-80.59381},"25296":{"stopID":"25296","stopName":"Copperfield Blvd At Gateway Ct - NE Imaging","stopLat":35.45372,"stopLon":-80.5903},"25297":{"stopID":"25297","stopName":"Church St & Winecoff Ave (Outbound)","stopLat":35.42552,"stopLon":-80.59517},"25298":{"stopID":"25298","stopName":"Lake Concord Rd & Woodbrook Pl (Inbound)","stopLat":35.44088,"stopLon":-80.59908},"25299":{"stopID":"25299","stopName":"Country Club Dr & Carolina Mall - Starbucks","stopLat":35.44002,"stopLon":-80.60588},"25300":{"stopID":"25300","stopName":"Country Club Dr - Cooperative Christian Ministries (Outbound)","stopLat":35.44524,"stopLon":-80.60261},"25301":{"stopID":"25301","stopName":"Lake Concord Rd & Kingsport Dr","stopLat":35.44464,"stopLon":-80.60039},"25302":{"stopID":"25302","stopName":"Lake Concord Rd & Woodbrook Pl (Outbound)","stopLat":35.44085,"stopLon":-80.59931},"25303":{"stopID":"25303","stopName":"Rutherford St & Amber Ct","stopLat":35.38758,"stopLon":-80.58213},"25304":{"stopID":"25304","stopName":"Church St & Winecoff Ave (Inbound)","stopLat":35.42535,"stopLon":-80.59466},"25305":{"stopID":"25305","stopName":"Lake Concord & Le Phillip Ct","stopLat":35.4439,"stopLon":-80.59996},"25306":{"stopID":"25306","stopName":"Rte 29 & Aldi","stopLat":35.3931,"stopLon":-80.62114},"25307":{"stopID":"25307","stopName":"Kerr St & Crowell Dr","stopLat":35.40963,"stopLon":-80.59324},"25308":{"stopID":"25308","stopName":"Mcgill Ave & Bruton Dr","stopLat":35.41618,"stopLon":-80.60374},"25309":{"stopID":"25309","stopName":"Rt 29 & Central Dr - CVS & Lowes (Inbound)","stopLat":35.42727,"stopLon":-80.61315},"25310":{"stopID":"25310","stopName":"Rt 29 & Beechwood Ave","stopLat":35.43615,"stopLon":-80.60431},"25311":{"stopID":"25311","stopName":"Kerr St & Academy Ave","stopLat":35.4104,"stopLon":-80.5942},"25312":{"stopID":"25312","stopName":"Weddington Rd & Lyles Ln","stopLat":35.36498,"stopLon":-80.71156},"25313":{"stopID":"25313","stopName":"Hotels At Gateway 1","stopLat":35.37004,"stopLon":-80.70992},"25314":{"stopID":"25314","stopName":"Hotels At Gateway 2","stopLat":35.3679,"stopLon":-80.71072},"25315":{"stopID":"25315","stopName":"Concord Mills Blvd - Krispy Kreme","stopLat":35.37091,"stopLon":-80.71689},"25316":{"stopID":"25316","stopName":"Social Security Office","stopLat":35.42785,"stopLon":-80.6087},"25317":{"stopID":"25317","stopName":"Rt 73 & Roger Dale Carter Dr","stopLat":35.43628,"stopLon":-80.67761},"25318":{"stopID":"25318","stopName":"Church St & Davidson Dr","stopLat":35.43087,"stopLon":-80.6015},"25319":{"stopID":"25319","stopName":"Church St & Lake Concord Rd","stopLat":35.4313,"stopLon":-80.60147},"25320":{"stopID":"25320","stopName":"Rt 29 & Oregon St","stopLat":35.45379,"stopLon":-80.60866},"25321":{"stopID":"25321","stopName":"Rt 29 & Mount Olivet Rd","stopLat":35.45533,"stopLon":-80.60844},"25322":{"stopID":"25322","stopName":"Copperfield Blvd & Copperfield Commons","stopLat":35.45781,"stopLon":-80.58727},"25323":{"stopID":"25323","stopName":"S Little Texas Rd & MLK Jr Ave","stopLat":35.48866,"stopLon":-80.60043},"25324":{"stopID":"25324","stopName":"Elder Ln - Academy Sports","stopLat":35.46662,"stopLon":-80.59411},"25325":{"stopID":"25325","stopName":"Booker Dr & Logan Center","stopLat":35.39966,"stopLon":-80.57978},"25326":{"stopID":"25326","stopName":"Lincoln St & Logan Medical Center","stopLat":35.39825,"stopLon":-80.57929},"25328":{"stopID":"25328","stopName":"Rt 29 & Rock Hill Church Rd","stopLat":35.39487,"stopLon":-80.61729},"25329":{"stopID":"25329","stopName":"Rt 73 & Rural Dr (Inbound)","stopLat":35.43414,"stopLon":-80.65097},"25330":{"stopID":"25330","stopName":"Enterprise Dr & Business Blvd","stopLat":35.42216,"stopLon":-80.65858},"25331":{"stopID":"25331","stopName":"Poplar Tent Rd & Berwick Ct","stopLat":35.41468,"stopLon":-80.65599},"25332":{"stopID":"25332","stopName":"International Dr & Fortune - Pregel America (Outbound)","stopLat":35.4281,"stopLon":-80.65494},"25333":{"stopID":"25333","stopName":"West C St & Fir Ave","stopLat":35.50224,"stopLon":-80.63423},"25334":{"stopID":"25334","stopName":"Rt 29 & Delane St","stopLat":35.48112,"stopLon":-80.61157},"25335":{"stopID":"25335","stopName":"Rt 29 & Sweet Gum St","stopLat":35.48466,"stopLon":-80.61129},"25336":{"stopID":"25336","stopName":"Rt 29 & Smith St (Outbound)","stopLat":35.48811,"stopLon":-80.61101},"25337":{"stopID":"25337","stopName":"N Main St & NCRC Core Lab","stopLat":35.4991,"stopLon":-80.62309},"25338":{"stopID":"25338","stopName":"N Main St & Laureate Way","stopLat":35.50058,"stopLon":-80.62211},"25339":{"stopID":"25339","stopName":"Loop Rd & Village Park","stopLat":35.50263,"stopLon":-80.63093},"25340":{"stopID":"25340","stopName":"Loop Rd & Biotechnology Lane","stopLat":35.50538,"stopLon":-80.62731},"25341":{"stopID":"25341","stopName":"Loop Rd & N Walnut St","stopLat":35.50557,"stopLon":-80.62167},"25342":{"stopID":"25342","stopName":"Jackson Park Rd & N East Ave","stopLat":35.50464,"stopLon":-80.61758},"25343":{"stopID":"25343","stopName":"Jackson Park Rd & Helen Ave - Alexa Apts","stopLat":35.50363,"stopLon":-80.61296},"25344":{"stopID":"25344","stopName":"Jackson Park Rd & McCombs Ave","stopLat":35.50254,"stopLon":-80.60988},"25345":{"stopID":"25345","stopName":"Rt 29 & Dollar General","stopLat":35.50089,"stopLon":-80.61049},"25346":{"stopID":"25346","stopName":"Rt 29 & Nance St","stopLat":35.49604,"stopLon":-80.61048},"25347":{"stopID":"25347","stopName":"Rt 29 & Smith St (Inbound)","stopLat":35.489,"stopLon":-80.61132},"25348":{"stopID":"25348","stopName":"Rt 29 & Fairview St - Aldi","stopLat":35.4856,"stopLon":-80.61149},"25349":{"stopID":"25349","stopName":"Rt 29 & Irene Ave","stopLat":35.4818,"stopLon":-80.61183},"25350":{"stopID":"25350","stopName":"Rt 29 & McLain Rd","stopLat":35.47934,"stopLon":-80.61184},"25351":{"stopID":"25351","stopName":"Winecoff School Rd & Shady Lane Ave","stopLat":35.44721,"stopLon":-80.61988},"25352":{"stopID":"25352","stopName":"Winecoff School Rd & Orphanage Rd","stopLat":35.44462,"stopLon":-80.62451},"25353":{"stopID":"25353","stopName":"Oakwood Ave & Orphanage Cir","stopLat":35.44797,"stopLon":-80.63688},"25354":{"stopID":"25354","stopName":"Oakwood Ave & Lantern Way","stopLat":35.45852,"stopLon":-80.64201},"25355":{"stopID":"25355","stopName":"Oakwood Ave & Sunset Dr","stopLat":35.46362,"stopLon":-80.64208},"25356":{"stopID":"25356","stopName":"Oakwood Ave & The Kannapolis Middle School","stopLat":35.46773,"stopLon":-80.64064},"25357":{"stopID":"25357","stopName":"Oakwood Ave & Rogers Lake Rd","stopLat":35.47587,"stopLon":-80.63747},"25358":{"stopID":"25358","stopName":"Watson Crick Rd & Wellness Way","stopLat":35.49938,"stopLon":-80.62886},"25359":{"stopID":"25359","stopName":"S Main St & West F St","stopLat":35.49156,"stopLon":-80.62751},"25360":{"stopID":"25360","stopName":"Rogers Lake Rd & Bel Aire Ave","stopLat":35.47857,"stopLon":-80.61654},"25361":{"stopID":"25361","stopName":"Rogers Lake Rd & S Ridge Ave","stopLat":35.47636,"stopLon":-80.62285},"25362":{"stopID":"25362","stopName":"Penny Ln & Trotwood St","stopLat":35.44559,"stopLon":-80.59838},"25363":{"stopID":"25363","stopName":"Dale Earnhardt Blvd & Denwood St - Lowes","stopLat":35.46837,"stopLon":-80.5899},"25364":{"stopID":"25364","stopName":"Dale Earnhardt Blvd & Centergrove Rd","stopLat":35.47338,"stopLon":-80.60192},"25365":{"stopID":"25365","stopName":"S Little Texas Rd & Forest Park Dr","stopLat":35.47885,"stopLon":-80.6023},"25366":{"stopID":"25366","stopName":"Lane St & Marie Ave","stopLat":35.50163,"stopLon":-80.60249},"25367":{"stopID":"25367","stopName":"Lane St & Carolyn Ave","stopLat":35.50215,"stopLon":-80.59697},"25368":{"stopID":"25368","stopName":"Lane St & Bostian Ave","stopLat":35.50306,"stopLon":-80.59209},"25369":{"stopID":"25369","stopName":"Brantley Rd & Carsil Way","stopLat":35.49783,"stopLon":-80.59116},"25370":{"stopID":"25370","stopName":"Midlake Rd & Ravendale St","stopLat":35.49496,"stopLon":-80.58823},"25371":{"stopID":"25371","stopName":"Midlake Rd & Fisher Ridge Rd","stopLat":35.4905,"stopLon":-80.58769},"25372":{"stopID":"25372","stopName":"Midlake Rd & Mallard Pointe","stopLat":35.48694,"stopLon":-80.58657},"25373":{"stopID":"25373","stopName":"Centergrove Rd & Edinburg Dr","stopLat":35.48234,"stopLon":-80.58567},"25374":{"stopID":"25374","stopName":"Centergrove Rd & Summit Ridge Rd","stopLat":35.481,"stopLon":-80.5898},"25375":{"stopID":"25375","stopName":"Centergrove Rd & Duke Adam St","stopLat":35.47901,"stopLon":-80.59198},"25376":{"stopID":"25376","stopName":"Centergrove Rd & Dale Earnhardt Blvd, Qt Stn","stopLat":35.47418,"stopLon":-80.60008},"25377":{"stopID":"25377","stopName":"Georgia St & Young Ave","stopLat":35.40405,"stopLon":-80.58255},"25378":{"stopID":"25378","stopName":"Rutherford St & Wilshire Ave","stopLat":35.3844,"stopLon":-80.58202},"25379":{"stopID":"25379","stopName":"RCCC Business & Technology Center (Outbound)","stopLat":35.41846,"stopLon":-80.61286},"25380":{"stopID":"25380","stopName":"Central Dr & Violet Ter","stopLat":35.41812,"stopLon":-80.6089},"25381":{"stopID":"25381","stopName":"Mcgill Ave - Gibson Mill","stopLat":35.41608,"stopLon":-80.6032},"25382":{"stopID":"25382","stopName":"Concord Mills Blvd & Derita Rd","stopLat":35.37478,"stopLon":-80.72986},"25383":{"stopID":"25383","stopName":"Rt 73 & Rural Dr (Outbound)","stopLat":35.43459,"stopLon":-80.6518},"25384":{"stopID":"25384","stopName":"George Liles Pkwy & Village Dr - QuikTrip Station","stopLat":35.41482,"stopLon":-80.66781},"25385":{"stopID":"25385","stopName":"International Dr & Fortune Ave (Inbound)","stopLat":35.42782,"stopLon":-80.65475},"25386":{"stopID":"25386","stopName":"International Dr & Global Ave (Outbound)","stopLat":35.43138,"stopLon":-80.65514},"25387":{"stopID":"25387","stopName":"International Dr & Global Ave (Inbound)","stopLat":35.43107,"stopLon":-80.65493},"25388":{"stopID":"25388","stopName":"Rt 73 & Stanley Dr","stopLat":35.43597,"stopLon":-80.66712},"25389":{"stopID":"25389","stopName":"Rider Transit Center (Purple)","stopLat":35.44225,"stopLon":-80.60977},"25390":{"stopID":"25390","stopName":"Rider Transit Center (Blue)","stopLat":35.44225,"stopLon":-80.60973},"25391":{"stopID":"25391","stopName":"Rider Transit Center (Brown)","stopLat":35.44228,"stopLon":-80.60971},"25392":{"stopID":"25392","stopName":"Rider Transit Center (Red)","stopLat":35.44236,"stopLon":-80.60975},"25393":{"stopID":"25393","stopName":"Rider Transit Center (Green)","stopLat":35.44228,"stopLon":-80.6096},"25394":{"stopID":"25394","stopName":"Rider Transit Center (Orange)","stopLat":35.44216,"stopLon":-80.6097},"25395":{"stopID":"25395","stopName":"Rider Transit Center (Yellow)","stopLat":35.44224,"stopLon":-80.60976},"25396":{"stopID":"25396","stopName":"Coldwater Ridge Drive & Doffer Lane","stopLat":35.46785,"stopLon":-80.59397},"66211":{"stopID":"66211","stopName":"Kannapolis Hwy & DMV- IB","stopLat":35.44638,"stopLon":-80.61439},"66216":{"stopID":"66216","stopName":"Kannapolis Hwy & DMV-OB","stopLat":35.44414,"stopLon":-80.61332},"130295":{"stopID":"130295","stopName":"Cabarrus Ave (Outbound)","stopLat":35.41196,"stopLon":-80.5793},"130302":{"stopID":"130302","stopName":"McCachern Blvd (Outbound)","stopLat":35.41039,"stopLon":-80.5773},"130312":{"stopID":"130312","stopName":"Corban Ave (Outbound)","stopLat":35.40967,"stopLon":-80.57748},"130316":{"stopID":"130316","stopName":"McCachern Blvd (Inbound)","stopLat":35.41054,"stopLon":-80.57713},"130320":{"stopID":"130320","stopName":"Cabarrus Ave (Inbound)","stopLat":35.41203,"stopLon":-80.57948}}